     3.02           OBSERVATION DATA    E                   RINEX VERSION / TYPE
G = GPS  R = GLONASS  E = GALILEO  S = GEO  M = MIXED       COMMENT             
GNSS-SDR            jmfriedt            20250106 194238 UTC PGM / RUN BY / DATE 
GALILEO OBSERVATION DATA FILE GENERATED BY GNSS-SDR         COMMENT             
GNSS-SDR VERSION 0.0.19                                     COMMENT             
See https://gnss-sdr.org                                    COMMENT             
DEFAULT MARKER NAME                                         MARKER NAME         
jmfriedt            CTTC                                    OBSERVER / AGENCY   
GNSS-SDR            Software Receiver   0.0.19              REC # / TYPE / VERS 
Antenna number      Antenna type                            ANT # / TYPE        
        0.0000        0.0000        0.0000                  APPROX POSITION XYZ 
        0.0000        0.0000        0.0000                  ANTENNA: DELTA H/E/N
E    4 C1B L1B D1B S1B                                      SYS / # / OBS TYPES 
DBHZ                                                        SIGNAL STRENGTH UNIT
  2025    01    06    18    45    6.1400000     GAL         TIME OF FIRST OBS   
    18    18   137     7                                    LEAP SECONDS        
                                                            END OF HEADER       
> 2025 01 06 18 45 07.0000000  0  4                                             
E11  23502731.108 7 123507691.766 7      -538.643 7        43.364               
E24  26885912.306 6 141286410.068 6     -3234.523 6        37.815               
E25  23673711.248 7 124406199.297 7     -1211.091 7        47.185               
E36  25311664.436 7 133013702.183 7      1861.215 7        43.822               
> 2025 01 06 18 45 08.0000000  0  4                                             
E11  23502834.561 7 123508231.013 7      -540.417 7        43.917               
E24  26886522.971 6 141289646.038 6     -3234.999 6        37.926               
E25  23673941.749 7 124407410.803 7     -1211.586 7        47.487               
E36  25311309.646 7 133011840.580 7      1861.371 7        43.847               
> 2025 01 06 18 45 09.0000000  0  4                                             
E11  23502934.038 7 123508770.875 7      -538.969 7        43.857               
E24  26887140.587 6 141292882.467 6     -3237.802 6        38.076               
E25  23674170.678 8 124408622.986 8     -1212.817 8        48.010               
E36  25310953.901 7 133009979.497 7      1860.805 7        43.550               
> 2025 01 06 18 45 10.0000000  0  4                                             
E11  23503036.642 7 123509311.105 7      -540.161 7        43.885               
E24  26887753.575 6 141296119.028 6     -3235.934 6        37.975               
E25  23674399.947 7 124409835.567 7     -1213.159 7        47.987               
E36  25310599.531 7 133008118.662 7      1860.095 7        43.318               
> 2025 01 06 18 45 11.0000000  0  4                                             
E11  23503137.128 7 123509851.466 7      -540.646 7        43.872               
E24  26888368.537 6 141299355.504 6     -3236.614 6        37.942               
E25  23674628.393 7 124411048.314 7     -1213.595 7        47.821               
E36  25310245.108 7 133006257.829 7      1860.501 7        43.345               
> 2025 01 06 18 45 12.0000000  0  4                                             
E11  23503241.501 7 123510392.280 7      -542.243 7        44.017               
E24  26888984.438 6 141302592.279 6     -3235.454 6        38.332               
E25  23674859.833 7 124412261.589 7     -1213.444 7        47.822               
E36  25309888.416 7 133004397.390 7      1860.997 7        43.487               
> 2025 01 06 18 45 13.0000000  0  4                                             
E11  23503341.746 7 123510933.449 7      -541.753 7        43.748               
E24  26889599.034 6 141305829.203 6     -3234.722 6        38.265               
E25  23675090.736 7 124413475.272 7     -1214.154 7        47.776               
E36  25309535.351 7 133002537.203 7      1859.240 7        43.491               
> 2025 01 06 18 45 14.0000000  0  4                                             
E11  23503443.868 7 123511474.971 7      -541.718 7        44.226               
E24  26890212.325 6 141309066.289 6     -3238.533 6        38.041               
E25  23675319.460 7 124414689.335 7     -1214.288 7        47.756               
E36  25309180.713 7 133000677.245 7      1859.177 7        43.720               
> 2025 01 06 18 45 15.0000000  0  4                                             
E11  23503545.793 7 123512016.814 7      -542.006 7        44.007               
E24  26890827.761 6 141312303.465 6     -3236.937 6        38.171               
E25  23675548.165 7 124415903.770 7     -1214.129 7        47.549               
E36  25308824.655 7 132998817.523 7      1858.869 7        43.908               
> 2025 01 06 18 45 16.0000000  0  4                                             
E11  23503646.547 7 123512559.262 7      -543.309 7        43.762               
E24  26891448.433 6 141315541.081 6     -3236.723 6        37.914               
E25  23675779.292 7 124417118.873 7     -1215.282 7        47.807               
E36  25308468.409 7 132996958.296 7      1859.001 7        43.675               
> 2025 01 06 18 45 17.0000000  0  4                                             
E11  23503748.240 7 123513102.558 7      -543.386 7        44.064               
E24  26892060.912 6 141318779.357 6     -3238.928 6        38.146               
E25  23676010.214 7 124418334.888 7     -1215.553 7        47.406               
E36  25308115.344 7 132995099.845 7      1858.767 7        43.631               
> 2025 01 06 18 45 18.0000000  0  4                                             
E11  23503852.354 7 123513645.695 7      -542.715 7        43.726               
E24  26892673.194 6 141322017.242 6     -3238.497 6        38.114               
E25  23676240.376 7 124419550.754 7     -1215.705 7        47.436               
E36  25307759.340 7 132993241.095 7      1859.864 7        43.757               
> 2025 01 06 18 45 19.0000000  0  4                                             
E11  23503955.261 7 123514188.738 7      -543.154 7        43.746               
E24  26893291.980 6 141325254.869 6     -3237.823 6        38.011               
E25  23676470.493 7 124420766.592 7     -1215.956 7        47.965               
E36  25307406.221 7 132991382.155 7      1858.588 7        43.526               
> 2025 01 06 18 45 20.0000000  0  4                                             
E11  23504055.194 7 123514732.277 7      -544.907 7        44.064               
E24  26893906.951 6 141328492.785 6     -3238.700 6        38.148               
E25  23676700.726 7 124421982.951 7     -1215.611 7        47.693               
E36  25307052.057 7 132989523.620 7      1858.888 7        43.709               
> 2025 01 06 18 45 21.0000000  0  4                                             
E11  23504156.860 7 123515276.303 7      -543.960 7        44.157               
E24  26894520.136 6 141331731.000 6     -3238.911 6        38.125               
E25  23676931.272 7 124423199.890 7     -1217.403 7        47.895               
E36  25306696.338 7 132987665.494 7      1858.365 7        44.046               
> 2025 01 06 18 45 22.0000000  0  4                                             
E11  23504258.579 7 123515820.726 7      -544.371 7        43.939               
E24  26895138.770 6 141334969.389 6     -3238.072 6        38.250               
E25  23677162.203 7 124424417.236 7     -1217.370 7        47.478               
E36  25306343.005 7 132985807.630 7      1857.842 7        43.875               
> 2025 01 06 18 45 23.0000000  0  4                                             
E11  23504363.301 7 123516365.350 7      -544.634 7        43.806               
E24  26895747.434 6 141338207.774 6     -3239.241 6        38.481               
E25  23677392.829 7 124425634.840 7     -1217.774 7        47.831               
E36  25305989.556 7 132983949.862 7      1857.273 7        43.995               
> 2025 01 06 18 45 24.0000000  0  4                                             
E11  23504466.217 7 123516910.676 7      -545.023 7        44.084               
E24  26896367.310 6 141341446.710 6     -3236.965 6        38.396               
E25  23677623.545 7 124426853.195 7     -1218.163 7        47.553               
E36  25305633.676 7 132982092.704 7      1857.561 7        43.910               
> 2025 01 06 18 45 25.0000000  0  4                                             
E11  23504568.473 7 123517456.631 7      -546.521 7        44.200               
E24  26896983.631 6 141344686.060 6     -3237.923 6        38.451               
E25  23677854.779 7 124428072.242 7     -1219.388 7        47.783               
E36  25305280.522 7 132980236.099 7      1856.150 7        43.967               
> 2025 01 06 18 45 26.0000000  0  4                                             
E11  23504671.282 7 123518002.829 7      -547.735 7        44.051               
E24  26897599.299 6 141347925.467 6     -3238.316 6        38.508               
E25  23678085.120 7 124429291.575 7     -1219.383 7        47.785               
E36  25304924.794 7 132978379.601 7      1855.778 7        44.210               
> 2025 01 06 18 45 27.0000000  0  4                                             
E11  23504774.556 7 123518549.248 7      -545.210 7        43.880               
E24  26898213.270 6 141351164.852 6     -3238.822 6        38.213               
E25  23678314.478 7 124430511.154 7     -1219.566 7        47.710               
E36  25304571.783 7 132976523.232 7      1855.453 7        44.099               
> 2025 01 06 18 45 28.0000000  0  4                                             
E11  23504876.963 7 123519096.190 7      -547.600 7        43.782               
E24  26898830.734 6 141354404.612 6     -3240.645 6        38.392               
E25  23678547.436 7 124431731.322 7     -1220.162 7        47.676               
E36  25304217.994 7 132974667.278 7      1856.489 7        44.212               
> 2025 01 06 18 45 29.0000000  0  4                                             
E11  23504977.950 7 123519642.764 7      -546.324 7        43.752               
E24  26899445.151 6 141357643.813 6     -3237.388 6        38.478               
E25  23678777.866 7 124432951.171 7     -1219.365 7        47.451               
E36  25303861.489 7 132972810.883 7      1856.058 7        44.209               
> 2025 01 06 18 45 30.0000000  0  4                                             
E11  23505082.895 7 123520189.472 7      -546.608 7        43.755               
E24  26900059.506 6 141360882.951 6     -3240.326 6        38.837               
E25  23679008.126 7 124434171.221 7     -1220.074 7        47.290               
E36  25303507.575 7 132970954.505 7      1856.163 7        44.160               
> 2025 01 06 18 45 31.0000000  0  4                                             
E11  23505186.741 7 123520737.005 7      -546.193 7        43.474               
E24  26900675.023 6 141364122.700 6     -3240.217 6        38.763               
E25  23679239.182 7 124435392.126 7     -1221.282 7        47.278               
E36  25303153.331 7 132969098.865 7      1854.938 7        44.406               
> 2025 01 06 18 45 32.0000000  0  4                                             
E11  23505290.265 7 123521284.819 7      -548.389 7        43.413               
E24  26901292.442 6 141367362.516 6     -3240.290 6        38.625               
E25  23679471.014 7 124436613.339 7     -1221.108 7        46.933               
E36  25302800.194 7 132967243.369 7      1855.544 7        44.394               
> 2025 01 06 18 45 33.0000000  0  4                                             
E11  23505391.931 7 123521832.897 7      -549.198 7        43.551               
E24  26901907.762 6 141370602.390 6     -3240.900 6        38.648               
E25  23679702.686 7 124437834.888 7     -1220.988 7        47.095               
E36  25302446.039 7 132965388.064 7      1855.621 7        44.348               
> 2025 01 06 18 45 34.0000000  0  4                                             
E11  23505496.125 7 123522381.352 7      -548.994 7        43.451               
E24  26902524.109 6 141373842.504 6     -3241.137 6        38.244               
E25  23679933.393 7 124439056.865 7     -1222.026 7        47.303               
E36  25302091.848 7 132963533.033 7      1855.200 7        44.271               
> 2025 01 06 18 45 35.0000000  0  4                                             
E11  23505600.203 7 123522930.115 7      -548.339 7        43.578               
E24  26903134.577 6 141377082.696 6     -3243.411 6        38.016               
E25  23680166.191 7 124440279.202 7     -1222.353 7        47.218               
E36  25301735.781 7 132961678.213 7      1854.147 7        44.512               
> 2025 01 06 18 45 36.0000000  0  5                                             
E10  24589753.907 7 129220021.623 7     -1983.937 7        46.448               
E11  23505702.030 7 123523479.163 7      -548.415 7        43.276               
E24  26903748.664 6 141380322.972 6     -3239.916 6        38.351               
E25  23680397.577 7 124441501.857 7     -1222.829 7        47.431               
E36  25301383.762 7 132959823.564 7      1854.631 7        44.380               
> 2025 01 06 18 45 37.0000000  0  5                                             
E10  24590129.237 7 129222005.871 7     -1984.335 7        46.689               
E11  23505807.734 7 123524028.566 7      -550.306 7        43.504               
E24  26904368.701 6 141383563.404 6     -3239.663 6        38.651               
E25  23680629.070 7 124442724.907 7     -1223.605 7        47.441               
E36  25301029.830 7 132957969.161 7      1853.737 7        44.485               
> 2025 01 06 18 45 38.0000000  0  5                                             
E10  24590506.907 7 129223990.677 7     -1985.807 7        46.465               
E11  23505910.642 7 123524578.603 7      -551.111 7        43.294               
E24  26904980.662 6 141386804.291 6     -3241.235 6        38.648               
E25  23680859.884 7 124443948.662 7     -1224.027 7        47.386               
E36  25300675.684 7 132956115.314 7      1854.399 7        44.497               
> 2025 01 06 18 45 39.0000000  0  5                                             
E10  24590882.657 7 129225975.508 7     -1984.961 7        46.356               
E11  23506014.532 7 123525128.784 7      -549.919 7        43.340               
E24  26905600.637 6 141390045.108 6     -3240.954 6        38.919               
E25  23681091.520 7 124445172.606 7     -1224.390 7        47.486               
E36  25300321.957 7 132954261.493 7      1853.385 7        44.399               
> 2025 01 06 18 45 40.0000000  0  5                                             
E10  24591258.398 7 129227960.307 7     -1985.046 7        46.502               
E11  23506117.735 7 123525679.034 7      -549.714 7        43.537               
E24  26906212.722 6 141393285.770 6     -3239.690 6        38.667               
E25  23681323.362 7 124446396.650 7     -1223.280 7        47.530               
E36  25299969.348 7 132952407.650 7      1852.388 7        44.673               
> 2025 01 06 18 45 41.0000000  0  5                                             
E10  24591634.916 7 129229945.030 7     -1985.326 7        46.765               
E11  23506221.179 7 123526229.314 7      -550.831 7        43.680               
E24  26906830.695 6 141396526.305 6     -3241.501 6        38.545               
E25  23681556.044 7 124447620.782 7     -1223.927 7        47.543               
E36  25299615.506 7 132950553.726 7      1854.284 7        44.797               
> 2025 01 06 18 45 42.0000000  0  5                                             
E10  24592011.533 7 129231930.390 7     -1986.064 7        46.560               
E11  23506322.773 7 123526780.307 7      -551.749 7        44.152               
E24  26907446.891 6 141399767.353 6     -3240.412 6        38.249               
E25  23681786.670 7 124448845.698 7     -1225.168 7        47.610               
E36  25299262.512 7 132948700.428 7      1853.026 7        44.723               
> 2025 01 06 18 45 43.0000000  0  5                                             
E10  24592387.899 7 129233916.282 7     -1986.357 7        46.295               
E11  23506427.896 7 123527331.935 7      -551.766 7        43.984               
E24  26908058.172 6 141403008.865 6     -3241.077 6        38.062               
E25  23682018.869 7 124450071.296 7     -1226.429 7        47.544               
E36  25298908.169 7 132946847.681 7      1852.246 7        44.917               
> 2025 01 06 18 45 44.0000000  0  5                                             
E10  24592764.515 7 129235902.397 7     -1986.376 7        46.382               
E11  23506531.876 7 123527883.903 7      -550.154 7        44.009               
E24  26908677.102 6 141406250.482 6     -3241.741 6        38.272               
E25  23682250.175 7 124451297.258 7     -1226.520 7        47.623               
E36  25298553.085 7 132944995.144 7      1851.681 7        44.666               
> 2025 01 06 18 45 45.0000000  0  5                                             
E10  24593141.668 7 129237888.875 7     -1986.990 7        46.249               
E11  23506637.991 7 123528436.348 7      -553.846 7        43.660               
E24  26909292.859 6 141409492.367 6     -3242.121 6        38.070               
E25  23682484.330 7 124452523.732 7     -1226.356 7        47.344               
E36  25298199.377 7 132943142.980 7      1851.512 7        44.668               
> 2025 01 06 18 45 46.0000000  0  5                                             
E10  24593518.669 7 129239875.873 7     -1987.221 7        46.187               
E11  23506738.710 7 123528989.385 7      -553.516 7        43.937               
E24  26909909.269 6 141412734.669 6     -3242.084 6        38.194               
E25  23682715.564 7 124453750.887 7     -1227.268 7        47.714               
E36  25297848.840 7 132941291.331 7      1850.387 7        44.786               
> 2025 01 06 18 45 47.0000000  0  5                                             
E10  24593896.143 7 129241862.988 7     -1986.965 7        46.253               
E11  23506843.414 7 123529542.636 7      -553.505 7        43.901               
E24  26910524.803 6 141415977.004 6     -3242.696 6        38.792               
E25  23682948.996 7 124454978.300 7     -1227.537 7        47.661               
E36  25297493.497 7 132939439.805 7      1851.014 7        44.706               
> 2025 01 06 18 45 48.0000000  0  5                                             
E10  24594271.598 7 129243850.372 7     -1987.617 7        46.118               
E11  23506948.921 7 123530096.283 7      -553.715 7        43.721               
E24  26911138.211 6 141419219.528 6     -3244.162 6        39.017               
E25  23683181.008 7 124456206.137 7     -1228.038 7        47.467               
E36  25297139.592 7 132937588.541 7      1851.222 7        44.907               
> 2025 01 06 18 45 49.0000000  0  5                                             
E10  24594647.928 7 129245837.601 7     -1987.396 7        46.148               
E11  23507054.634 7 123530649.878 7      -553.636 7        43.951               
E24  26911757.203 6 141422461.782 6     -3241.916 6        38.826               
E25  23683413.922 7 124457433.963 7     -1227.087 7        47.640               
E36  25296784.936 7 132935737.129 7      1850.762 7        44.738               
> 2025 01 06 18 45 50.0000000  0  5                                             
E10  24595026.260 7 129247825.442 7     -1987.804 7        46.133               
E11  23507157.962 7 123531204.176 7      -556.387 7        43.953               
E24  26912373.345 6 141425704.559 6     -3242.107 6        38.956               
E25  23683644.101 7 124458662.560 7     -1229.356 7        47.508               
E36  25296432.246 7 132933886.332 7      1850.659 7        44.703               
> 2025 01 06 18 45 51.0000000  0  5                                             
E10  24595402.966 7 129249813.753 7     -1987.950 7        46.270               
E11  23507261.495 7 123531759.013 7      -555.408 7        44.041               
E24  26912987.843 6 141428947.709 6     -3243.965 6        38.931               
E25  23683878.570 7 124459891.764 7     -1229.104 7        47.430               
E36  25296077.886 7 132932035.989 7      1850.489 7        44.507               
> 2025 01 06 18 45 52.0000000  0  5                                             
E10  24595782.299 7 129251802.065 7     -1988.156 7        46.356               
E11  23507365.547 7 123532313.979 7      -555.231 7        43.975               
E24  26913603.439 6 141432190.740 6     -3242.347 6        38.860               
E25  23684112.904 7 124461121.131 7     -1229.767 7        47.194               
E36  25295726.759 7 132930185.674 7      1848.885 7        44.403               
> 2025 01 06 18 45 53.0000000  0  5                                             
E10  24596158.442 7 129253790.327 7     -1988.365 7        46.388               
E11  23507469.973 7 123532869.003 7      -553.792 7        43.925               
E24  26914222.002 6 141435433.654 6     -3242.759 6        38.988               
E25  23684345.023 7 124462350.587 7     -1229.000 7        47.236               
E36  25295368.923 7 132928335.303 7      1850.947 7        44.213               
> 2025 01 06 18 45 54.0000000  0  5                                             
E10  24596534.254 7 129255778.462 7     -1987.975 7        46.338               
E11  23507574.337 7 123533424.003 7      -555.068 7        44.079               
E24  26914837.447 6 141438676.366 6     -3242.999 6        38.929               
E25  23684576.882 7 124463580.091 7     -1229.265 7        47.029               
E36  25295016.680 7 132926484.805 7      1850.242 7        44.001               
> 2025 01 06 18 45 55.0000000  0  5                                             
E10  24596911.809 7 129257766.614 7     -1988.280 7        46.555               
E11  23507681.248 7 123533979.090 7      -556.735 7        43.734               
E24  26915451.561 6 141441918.952 6     -3244.003 6        38.882               
E25  23684811.413 7 124464809.732 7     -1229.944 7        47.504               
E36  25294663.472 7 132924634.312 7      1850.519 7        43.904               
> 2025 01 06 18 45 56.0000000  0  5                                             
E10  24597289.202 7 129259755.443 7     -1989.511 7        46.381               
E11  23507783.646 7 123534534.976 7      -556.350 7        43.869               
E24  26916068.498 6 141445162.142 6     -3243.038 6        38.876               
E25  23685045.301 7 124466040.216 7     -1230.483 7        47.295               
E36  25294310.988 7 132922784.513 7      1849.746 7        44.023               
> 2025 01 06 18 45 57.0000000  0  5                                             
E10  24597665.595 7 129261744.952 7     -1989.656 7        46.258               
E11  23507888.707 7 123535091.655 7      -556.604 7        43.745               
E24  26916686.069 6 141448405.920 6     -3244.190 6        38.937               
E25  23685277.580 7 124467271.534 7     -1231.505 7        47.207               
E36  25293957.583 7 132920935.389 7      1848.396 7        44.083               
> 2025 01 06 18 45 58.0000000  0  5                                             
E10  24598044.079 7 129263734.804 7     -1990.068 7        46.574               
E11  23507993.384 7 123535648.784 7      -557.028 7        43.713               
E24  26917300.764 6 141451649.936 6     -3243.105 6        39.086               
E25  23685510.985 7 124468503.339 7     -1231.400 7        47.366               
E36  25293603.464 7 132919086.619 7      1847.360 7        44.030               
> 2025 01 06 18 45 59.0000000  0  5                                             
E10  24598422.340 7 129265724.854 7     -1990.430 7        46.390               
E11  23508099.061 7 123536206.186 7      -558.320 7        43.573               
E24  26917917.441 6 141454894.061 6     -3246.770 6        38.924               
E25  23685745.945 7 124469735.498 7     -1232.303 7        47.387               
E36  25293249.157 7 132917238.036 7      1847.929 7        44.072               
> 2025 01 06 18 46 00.0000000  0  5                                             
E10  24598800.645 7 129267715.352 7     -1991.691 7        46.342               
E11  23508203.604 7 123536764.121 7      -558.472 7        43.877               
E24  26918532.993 6 141458138.521 6     -3245.012 6        38.855               
E25  23685978.198 7 124470968.239 7     -1233.938 7        47.556               
E36  25292895.681 7 132915389.903 7      1847.837 7        44.294               
> 2025 01 06 18 46 01.0000000  0  5                                             
E10  24599176.761 7 129269706.407 7     -1991.436 7        45.993               
E11  23508310.005 7 123537322.757 7      -557.904 7        43.814               
E24  26919150.082 6 141461383.470 6     -3245.220 6        39.048               
E25  23686211.594 7 124472201.714 7     -1234.071 7        47.615               
E36  25292542.187 7 132913542.335 7      1847.821 7        44.204               
> 2025 01 06 18 46 02.0000000  0  5                                             
E10  24599554.271 7 129271697.463 7     -1991.187 7        46.166               
E11  23508415.164 7 123537881.496 7      -558.559 7        43.879               
E24  26919767.412 6 141464628.307 6     -3245.989 6        39.065               
E25  23686444.856 7 124473435.327 7     -1232.965 7        47.689               
E36  25292191.740 7 132911694.786 7      1846.469 7        44.368               
> 2025 01 06 18 46 03.0000000  0  5                                             
E10  24599931.807 7 129273688.668 7     -1991.241 7        46.199               
E11  23508519.367 7 123538440.466 7      -559.433 7        43.657               
E24  26920379.560 6 141467873.199 6     -3244.087 6        38.680               
E25  23686678.958 7 124474669.236 7     -1234.377 7        47.700               
E36  25291838.147 7 132909847.360 7      1846.934 7        44.306               
> 2025 01 06 18 46 04.0000000  0  6                                             
E10  24600310.104 7 129275679.992 7     -1991.554 7        46.167               
E11  23508624.920 7 123538999.634 7      -558.792 7        43.638               
E12  26532664.371 6 139430070.787 6     -2836.803 6        37.949               
E24  26920993.728 6 141471118.103 6     -3244.200 6        38.330               
E25  23686913.052 7 124475903.419 7     -1234.204 7        47.870               
E36  25291487.048 7 132908000.066 7      1847.675 7        44.451               
> 2025 01 06 18 46 05.0000000  0  6                                             
E10  24600687.202 7 129277671.175 7     -1991.260 7        46.045               
E11  23508728.068 7 123539558.780 7      -559.530 7        43.665               
E12  26533200.299 6 139432907.393 6     -2836.174 6        37.532               
E24  26921614.828 6 141474362.796 6     -3245.449 6        38.295               
E25  23687148.619 7 124477137.606 7     -1233.360 7        47.552               
E36  25291134.036 7 132906152.623 7      1848.158 7        44.467               
> 2025 01 06 18 46 06.0000000  0  6                                             
E10  24601066.901 7 129279662.194 7     -1992.062 7        46.177               
E11  23508834.675 7 123540117.881 7      -558.938 7        43.662               
E12  26533743.615 6 139435743.751 6     -2837.559 6        37.439               
E24  26922229.335 6 141477607.231 6     -3245.094 6        38.341               
E25  23687380.148 7 124478371.787 7     -1234.825 7        47.240               
E36  25290782.169 7 132904305.030 7      1847.191 7        44.381               
> 2025 01 06 18 46 07.0000000  0  6                                             
E10  24601443.795 7 129281653.877 7     -1992.470 7        46.697               
E11  23508939.620 7 123540677.737 7      -560.704 7        43.696               
E12  26534282.366 6 139438580.616 6     -2836.561 6        37.362               
E24  26922845.816 6 141480852.212 6     -3244.721 6        38.594               
E25  23687615.572 7 124479606.791 7     -1235.698 7        47.255               
E36  25290428.264 7 132902458.123 7      1846.563 7        44.231               
> 2025 01 06 18 46 08.0000000  0  6                                             
E10  24601822.028 7 129283646.332 7     -1993.887 7        46.587               
E11  23509046.450 7 123541238.454 7      -562.757 7        43.625               
E12  26534820.188 6 139441418.083 6     -2835.423 6        37.463               
E24  26923467.122 6 141484097.872 6     -3247.093 6        38.481               
E25  23687848.307 7 124480842.691 7     -1236.760 7        47.464               
E36  25290075.350 7 132900611.966 7      1844.408 7        44.075               
> 2025 01 06 18 46 09.0000000  0  6                                             
E10  24602201.700 7 129285639.828 7     -1994.048 7        46.440               
E11  23509153.423 7 123541800.311 7      -561.598 7        43.479               
E12  26535357.536 6 139444256.490 6     -2835.717 6        37.592               
E24  26924083.505 6 141487344.476 6     -3246.460 6        38.748               
E25  23688082.820 7 124482079.803 7     -1237.556 7        47.749               
E36  25289724.188 7 132898766.843 7      1845.308 7        44.136               
> 2025 01 06 18 46 10.0000000  0  6                                             
E10  24602576.575 7 129287633.045 7     -1993.573 7        46.469               
E11  23509259.341 7 123542362.019 7      -560.881 7        43.623               
E12  26535897.074 6 139447094.486 6     -2839.325 6        37.693               
E24  26924697.744 6 141490590.727 6     -3244.312 6        38.743               
E25  23688318.781 7 124483316.786 7     -1237.114 7        47.647               
E36  25289371.802 7 132896921.464 7      1845.486 7        44.313               
> 2025 01 06 18 46 11.0000000  0  6                                             
E10  24602957.140 7 129289626.110 7     -1993.538 7        46.474               
E11  23509364.599 7 123542923.670 7      -561.654 7        43.525               
E12  26536437.326 6 139449932.183 6     -2839.063 6        37.550               
E24  26925317.325 6 141493836.709 6     -3246.486 6        38.336               
E25  23688551.739 7 124484553.772 7     -1237.185 7        47.832               
E36  25289018.675 7 132895075.938 7      1843.716 7        44.512               
> 2025 01 06 18 46 12.0000000  0  6                                             
E10  24603335.106 7 129291619.530 7     -1993.685 7        46.614               
E11  23509470.178 7 123543485.761 7      -562.272 7        43.699               
E12  26536973.432 6 139452770.102 6     -2838.876 6        37.466               
E24  26925931.109 6 141497082.943 6     -3247.030 6        38.404               
E25  23688786.681 7 124485791.254 7     -1238.196 7        47.730               
E36  25288666.780 7 132893230.751 7      1843.046 7        44.691               
> 2025 01 06 18 46 13.0000000  0  6                                             
E10  24603712.687 7 129293612.969 7     -1993.571 7        46.562               
E11  23509573.657 7 123544047.974 7      -562.903 7        43.847               
E12  26537512.934 6 139455607.910 6     -2840.363 6        37.496               
E24  26926544.597 6 141500329.143 6     -3247.062 6        38.292               
E25  23689022.284 7 124487028.918 7     -1237.999 7        47.849               
E36  25288314.546 7 132891385.602 7      1845.767 7        45.055               
> 2025 01 06 18 46 14.0000000  0  6                                             
E10  24604090.599 7 129295606.581 7     -1993.707 7        46.516               
E11  23509680.496 7 123544610.468 7      -562.068 7        43.725               
E12  26538050.014 6 139458445.770 6     -2837.283 6        37.441               
E24  26927164.098 6 141503575.405 6     -3247.832 6        38.329               
E25  23689255.761 7 124488266.892 7     -1238.941 7        47.766               
E36  25287961.070 7 132889540.625 7      1844.417 7        44.696               
> 2025 01 06 18 46 15.0000000  0  6                                             
E10  24604470.512 7 129297600.741 7     -1994.393 7        46.136               
E11  23509786.594 7 123545173.627 7      -564.325 7        43.595               
E12  26538587.273 6 139461284.029 6     -2837.128 6        37.809               
E24  26927781.696 6 141506822.088 6     -3248.322 6        38.425               
E25  23689491.194 7 124489505.574 7     -1239.442 7        47.626               
E36  25287611.275 7 132887696.191 7      1845.115 7        45.029               
> 2025 01 06 18 46 16.0000000  0  6                                             
E10  24604847.692 7 129299595.116 7     -1994.515 7        46.439               
E11  23509891.780 7 123545737.059 7      -564.397 7        43.909               
E12  26539128.418 6 139464122.375 6     -2838.575 6        37.735               
E24  26928398.249 6 141510068.899 6     -3246.928 6        38.450               
E25  23689724.430 7 124490744.607 7     -1238.873 7        47.566               
E36  25287258.924 7 132885851.968 7      1843.534 7        44.979               
> 2025 01 06 18 46 17.0000000  0  6                                             
E10  24605226.578 7 129301589.717 7     -1994.484 7        46.567               
E11  23509999.923 7 123546300.836 7      -564.231 7        44.385               
E12  26539666.901 6 139466960.818 6     -2837.561 6        37.627               
E24  26929012.148 6 141513315.851 6     -3246.277 6        38.385               
E25  23689959.166 7 124491984.035 7     -1239.188 7        47.791               
E36  25286906.806 7 132884007.984 7      1844.502 7        44.970               
> 2025 01 06 18 46 18.0000000  0  6                                             
E10  24605604.963 7 129303584.661 7     -1995.562 7        46.534               
E11  23510105.931 7 123546865.065 7      -563.103 7        44.008               
E12  26540204.714 6 139469799.441 6     -2837.702 6        37.590               
E24  26929626.154 6 141516563.034 6     -3247.188 6        37.993               
E25  23690193.697 7 124493223.947 7     -1240.028 7        47.855               
E36  25286554.563 7 132882164.353 7      1843.422 7        44.914               
> 2025 01 06 18 46 19.0000000  0  6                                             
E10  24605984.519 7 129305579.817 7     -1994.426 7        46.550               
E11  23510211.555 7 123547429.635 7      -563.936 7        44.010               
E12  26540746.682 6 139472638.163 6     -2838.904 6        37.812               
E24  26930245.209 6 141519810.374 6     -3245.955 6        37.996               
E25  23690429.916 7 124494464.234 7     -1239.871 7        47.695               
E36  25286204.518 7 132880320.928 7      1843.983 7        45.134               
> 2025 01 06 18 46 20.0000000  0  6                                             
E10  24606362.663 7 129307574.946 7     -1995.712 7        46.169               
E11  23510319.162 7 123547994.251 7      -565.307 7        43.860               
E12  26541286.416 6 139475476.719 6     -2842.191 6        37.821               
E24  26930860.305 6 141523057.561 6     -3248.360 6        38.248               
E25  23690663.661 7 124495704.629 7     -1240.131 7        47.900               
E36  25285852.784 7 132878477.482 7      1843.217 7        44.645               
> 2025 01 06 18 46 21.0000000  0  6                                             
E10  24606740.834 7 129309570.304 7     -1995.301 7        46.211               
E11  23510425.483 7 123548559.169 7      -565.305 7        43.744               
E12  26541825.444 6 139478315.355 6     -2840.619 6        37.567               
E24  26931480.914 6 141526304.887 6     -3246.212 6        38.230               
E25  23690898.174 7 124496945.404 7     -1239.862 7        47.515               
E36  25285498.969 7 132876634.265 7      1843.378 7        44.542               
> 2025 01 06 18 46 22.0000000  0  6                                             
E10  24607120.426 7 129311566.043 7     -1995.916 7        46.238               
E11  23510531.464 7 123549124.602 7      -565.087 7        43.910               
E12  26542360.710 6 139481154.270 6     -2837.859 6        37.436               
E24  26932101.738 6 141529552.509 6     -3248.147 6        38.387               
E25  23691134.269 7 124498186.735 7     -1242.209 7        47.590               
E36  25285148.896 7 132874791.453 7      1841.900 7        44.656               
> 2025 01 06 18 46 23.0000000  0  6                                             
E10  24607498.740 7 129313562.067 7     -1996.272 7        46.304               
E11  23510637.883 7 123549690.438 7      -565.284 7        43.718               
E12  26542901.355 6 139483993.320 6     -2838.826 6        37.202               
E24  26932714.735 6 141532800.311 6     -3245.755 6        38.406               
E25  23691368.826 7 124499428.482 7     -1241.135 7        47.334               
E36  25284796.242 7 132872948.905 7      1843.239 7        44.723               
> 2025 01 06 18 46 24.0000000  0  6                                             
E10  24607878.144 7 129315558.202 7     -1996.498 7        46.405               
E11  23510744.802 7 123550256.480 7      -566.674 7        43.819               
E12  26543440.482 6 139486832.372 6     -2839.963 6        37.076               
E24  26933332.261 6 141536048.132 6     -3247.521 6        38.790               
E25  23691603.661 7 124500670.500 7     -1242.865 7        47.219               
E36  25284443.803 7 132871106.485 7      1841.845 7        44.452               
> 2025 01 06 18 46 25.0000000  0  6                                             
E10  24608256.664 7 129317555.147 7     -1996.521 7        46.409               
E11  23510852.713 7 123550823.412 7      -567.373 7        43.568               
E12  26543980.233 6 139489672.052 6     -2838.885 6        37.158               
E24  26933951.584 6 141539296.674 6     -3248.742 6        38.652               
E25  23691839.380 7 124501913.480 7     -1242.825 7        47.332               
E36  25284094.437 7 132869264.880 7      1841.986 7        44.081               
> 2025 01 06 18 46 26.0000000  0  6                                             
E10  24608635.156 7 129319551.854 7     -1996.017 7        46.493               
E11  23510959.606 7 123551390.205 7      -565.649 7        43.536               
E12  26544519.324 6 139492511.415 6     -2840.212 6        36.847               
E24  26934566.073 6 141542544.867 6     -3248.532 6        38.571               
E25  23692073.134 7 124503156.376 7     -1242.500 7        47.494               
E36  25283738.914 7 132867423.034 7      1841.192 7        44.173               
> 2025 01 06 18 46 27.0000000  0  6                                             
E10  24609013.059 7 129321548.926 7     -1997.744 7        46.402               
E11  23511066.105 7 123551957.478 7      -566.424 7        43.662               
E12  26545058.504 6 139495350.959 6     -2838.195 6        36.697               
E24  26935185.163 6 141545793.347 6     -3247.635 6        38.481               
E25  23692309.639 7 124504399.776 7     -1244.531 7        47.616               
E36  25283391.049 7 132865581.560 7      1839.952 7        44.760               
> 2025 01 06 18 46 28.0000000  0  6                                             
E10  24609393.580 7 129323546.219 7     -1997.105 7        46.443               
E11  23511172.908 7 123552525.075 7      -568.322 7        43.659               
E12  26545597.407 6 139498190.621 6     -2839.222 6        36.648               
E24  26935803.931 6 141549041.901 6     -3248.680 6        38.610               
E25  23692545.376 7 124505643.562 7     -1243.256 7        47.221               
E36  25283039.199 7 132863740.293 7      1840.526 7        45.087               
> 2025 01 06 18 46 29.0000000  0  6                                             
E10  24609772.126 7 129325544.092 7     -1998.352 7        46.499               
E11  23511279.801 7 123553093.343 7      -568.668 7        43.243               
E12  26546138.266 6 139501030.728 6     -2841.028 6        36.817               
E24  26936421.717 6 141552291.004 6     -3250.030 6        38.931               
E25  23692781.712 7 124506888.079 7     -1245.215 7        47.161               
E36  25282688.252 7 132861899.626 7      1840.567 7        44.560               
> 2025 01 06 18 46 30.0000000  0  6                                             
E10  24610151.673 7 129327542.783 7     -1998.029 7        46.847               
E11  23511386.354 7 123553662.535 7      -569.650 7        43.264               
E12  26546679.430 6 139503871.512 6     -2838.774 6        36.754               
E24  26937038.797 6 141555540.826 6     -3249.168 6        38.543               
E25  23693016.743 7 124508133.575 7     -1245.736 7        46.813               
E36  25282337.036 7 132860059.779 7      1840.517 7        44.208               
> 2025 01 06 18 46 31.0000000  0  6                                             
E10  24610530.809 7 129329540.565 7     -1998.067 7        46.897               
E11  23511494.086 7 123554230.934 7      -567.897 7        43.458               
E12  26547215.938 6 139506711.260 6     -2839.342 6        36.735               
E24  26937652.830 6 141558789.635 6     -3249.086 6        38.775               
E25  23693252.534 7 124509378.309 7     -1244.793 7        46.805               
E36  25281983.462 7 132858219.032 7      1840.859 7        44.652               
> 2025 01 06 18 46 32.0000000  0  6                                             
E10  24610911.027 7 129331538.247 7     -1998.345 7        46.730               
E11  23511598.950 7 123554799.317 7      -568.865 7        43.665               
E12  26547753.269 6 139509550.767 6     -2838.690 6        36.713               
E24  26938270.616 6 141562038.226 6     -3248.882 6        38.801               
E25  23693487.959 7 124510623.066 7     -1245.825 7        46.866               
E36  25281633.399 7 132856378.162 7      1841.329 7        44.614               
> 2025 01 06 18 46 33.0000000  0  6                                             
E10  24611290.002 7 129333536.671 7     -1998.438 7        46.527               
E11  23511707.415 7 123555368.566 7      -569.822 7        43.666               
E12  26548288.151 6 139512390.872 6     -2838.948 6        36.854               
E24  26938889.903 6 141565287.479 6     -3250.411 6        38.868               
E25  23693724.875 7 124511868.745 7     -1246.341 7        47.038               
E36  25281283.979 7 132854538.080 7      1839.411 7        44.375               
> 2025 01 06 18 46 34.0000000  0  6                                             
E10  24611670.371 7 129335535.563 7     -1999.566 7        46.398               
E11  23511815.032 7 123555938.338 7      -569.685 7        43.879               
E12  26548832.799 6 139515231.350 6     -2843.279 6        36.638               
E24  26939505.919 6 141568537.092 6     -3250.626 6        38.716               
E25  23693958.191 7 124513115.028 7     -1247.167 7        47.117               
E36  25280930.940 7 132852698.439 7      1839.515 7        44.268               
> 2025 01 06 18 46 35.0000000  0  6                                             
E10  24612048.667 7 129337534.716 7     -1999.070 7        46.252               
E11  23511921.674 7 123556508.528 7      -570.872 7        43.448               
E12  26549371.434 6 139518071.926 6     -2843.538 6        36.739               
E24  26940122.740 6 141571786.888 6     -3250.613 6        38.448               
E25  23694196.099 7 124514361.745 7     -1247.000 7        47.148               
E36  25280581.235 7 132850859.070 7      1839.172 7        44.666               
> 2025 01 06 18 46 36.0000000  0  7                                             
E02  25066508.472 7 131725388.767 7      1529.096 7        43.638               
E10  24612427.937 7 129339534.069 7     -2000.198 7        46.362               
E11  23512028.129 7 123557079.001 7      -570.285 7        43.252               
E12  26549912.409 6 139520912.542 6     -2839.566 6        36.567               
E24  26940741.527 6 141575036.775 6     -3249.626 6        38.593               
E25  23694431.229 7 124515608.809 7     -1247.283 7        47.238               
E36  25280231.377 7 132849019.921 7      1838.978 7        44.626               
> 2025 01 06 18 46 37.0000000  0  7                                             
E02  25066218.672 7 131723861.370 7      1528.108 7        43.652               
E10  24612806.724 7 129341533.356 7     -1999.043 7        46.769               
E11  23512137.371 7 123557649.490 7      -569.634 7        43.414               
E12  26550452.411 6 139523752.986 6     -2838.073 6        36.322               
E24  26941355.953 6 141578286.495 6     -3248.773 6        38.429               
E25  23694668.467 7 124516855.946 7     -1246.864 7        47.483               
E36  25279882.029 7 132847180.692 7      1839.335 7        44.344               
> 2025 01 06 18 46 38.0000000  0  7                                             
E02  25065928.488 7 131722334.123 7      1526.249 7        43.758               
E10  24613187.335 7 129343532.764 7     -2000.355 7        46.732               
E11  23512244.987 7 123558220.204 7      -572.164 7        43.526               
E12  26550992.922 6 139526593.443 6     -2841.062 6        36.016               
E24  26941976.151 6 141581536.263 6     -3248.772 6        38.549               
E25  23694904.034 7 124518103.369 7     -1247.986 7        47.386               
E36  25279527.766 7 132845341.606 7      1837.991 7        44.593               
> 2025 01 06 18 46 39.0000000  0  7                                             
E02  25065635.249 7 131720807.510 7      1526.934 7        44.254               
E10  24613565.148 7 129345532.772 7     -1999.656 7        46.937               
E11  23512351.871 7 123558791.617 7      -570.618 7        43.781               
E12  26551530.530 6 139529434.322 6     -2840.246 6        36.319               
E24  26942589.005 6 141584786.508 6     -3249.714 6        38.516               
E25  23695140.888 7 124519351.530 7     -1248.627 7        47.431               
E36  25279178.999 7 132843503.090 7      1837.796 7        44.809               
> 2025 01 06 18 46 40.0000000  0  7                                             
E02  25065343.626 7 131719281.227 7      1525.840 7        44.345               
E10  24613946.670 7 129347533.075 7     -2000.798 7        46.878               
E11  23512459.621 7 123559363.461 7      -571.238 7        43.579               
E12  26552073.167 6 139532275.407 6     -2840.300 6        36.481               
E24  26943209.605 6 141588036.974 6     -3249.953 6        38.843               
E25  23695378.296 7 124520600.144 7     -1249.002 7        47.245               
E36  25278826.041 7 132841664.903 7      1837.861 7        44.506               
> 2025 01 06 18 46 41.0000000  0  7                                             
E02  25065054.104 7 131717755.409 7      1525.768 7        44.339               
E10  24614324.367 7 129349533.817 7     -2000.636 7        46.612               
E11  23512568.792 7 123559935.844 7      -573.079 7        43.707               
E12  26552606.942 6 139535116.774 6     -2841.039 6        36.954               
E24  26943827.480 6 141591287.790 6     -3250.344 6        38.906               
E25  23695614.756 7 124521849.359 7     -1249.591 7        47.132               
E36  25278474.790 7 132839827.161 7      1837.936 7        44.726               
> 2025 01 06 18 46 42.0000000  0  7                                             
E02  25064761.364 7 131716229.680 7      1524.598 7        44.128               
E10  24614703.834 7 129351534.610 7     -2000.614 7        46.597               
E11  23512675.264 7 123560508.359 7      -573.620 7        43.142               
E12  26553149.999 6 139537958.058 6     -2841.834 6        37.032               
E24  26944442.898 6 141594538.539 6     -3250.348 6        38.762               
E25  23695851.181 7 124523098.775 7     -1249.389 7        46.943               
E36  25278124.217 7 132837989.461 7      1837.542 7        44.699               
> 2025 01 06 18 46 43.0000000  0  7                                             
E02  25064468.679 7 131714704.362 7      1526.224 7        44.355               
E10  24615085.293 7 129353535.785 7     -2001.281 7        47.024               
E11  23512783.104 7 123561081.369 7      -573.023 7        42.871               
E12  26553692.110 6 139540799.613 6     -2842.082 6        36.737               
E24  26945060.702 6 141597789.623 6     -3251.051 6        38.628               
E25  23696087.481 7 124524348.720 7     -1250.435 7        47.283               
E36  25277775.307 7 132836152.163 7      1837.488 7        44.576               
> 2025 01 06 18 46 44.0000000  0  7                                             
E02  25064179.576 7 131713179.508 7      1524.020 7        44.030               
E10  24615463.660 7 129355537.389 7     -2002.051 7        47.091               
E11  23512890.193 7 123561654.900 7      -572.936 7        43.042               
E12  26554229.217 6 139543641.415 6     -2841.428 6        36.621               
E24  26945680.364 6 141601040.963 6     -3250.563 6        38.536               
E25  23696325.515 7 124525599.245 7     -1251.664 7        47.175               
E36  25277425.145 7 132834315.277 7      1835.827 7        44.916               
> 2025 01 06 18 46 45.0000000  0  7                                             
E02  25063886.658 7 131711655.587 7      1524.177 7        44.564               
E10  24615846.218 7 129357539.895 7     -2003.140 7        47.044               
E11  23512999.390 7 123562229.458 7      -574.888 7        43.514               
E12  26554767.262 6 139546484.021 6     -2844.238 6        36.345               
E24  26946296.112 6 141604293.175 6     -3251.611 6        38.483               
E25  23696562.467 7 124526850.831 7     -1252.076 7        47.054               
E36  25277073.465 7 132832479.322 7      1835.795 7        44.427               
> 2025 01 06 18 46 46.0000000  0  7                                             
E02  25063596.036 7 131710132.128 7      1523.714 7        44.615               
E10  24616223.317 7 129359542.839 7     -2002.646 7        47.206               
E11  23513106.882 7 123562804.538 7      -576.447 7        43.656               
E12  26555307.407 6 139549326.929 6     -2842.598 6        36.531               
E24  26946911.870 6 141607545.722 6     -3253.692 6        38.308               
E25  23696800.080 7 124528103.019 7     -1252.817 7        47.221               
E36  25276721.794 7 132830643.798 7      1835.222 7        44.726               
> 2025 01 06 18 46 47.0000000  0  7                                             
E02  25063303.127 7 131708608.452 7      1523.740 7        44.414               
E10  24616605.303 7 129361545.530 7     -2001.910 7        46.824               
E11  23513216.401 7 123563379.443 7      -573.854 7        43.515               
E12  26555848.579 6 139552169.435 6     -2839.527 6        36.892               
E24  26947531.460 6 141610797.876 6     -3251.283 6        38.360               
E25  23697037.023 7 124529355.074 7     -1252.369 7        47.124               
E36  25276370.551 7 132828808.021 7      1836.872 7        44.710               
> 2025 01 06 18 46 48.0000000  0  7                                             
E02  25063014.721 7 131707083.708 7      1524.071 7        44.336               
E10  24616985.002 7 129363547.132 7     -2001.228 7        47.002               
E11  23513322.016 7 123563953.395 7      -573.437 7        43.692               
E12  26556388.778 6 139555010.709 6     -2841.199 6        36.851               
E24  26948155.018 6 141614048.894 6     -3250.975 6        38.060               
E25  23697273.341 7 124530606.218 7     -1250.663 7        47.426               
E36  25276021.310 7 132826971.161 7      1837.974 7        44.811               
> 2025 01 06 18 46 49.0000000  0  7                                             
E02  25062723.849 7 131705559.001 7      1524.384 7        44.571               
E10  24617365.863 7 129365548.730 7     -2002.144 7        47.207               
E11  23513433.161 7 123564527.440 7      -574.164 7        43.845               
E12  26556931.263 6 139557851.869 6     -2845.341 6        37.274               
E24  26948769.212 6 141617299.779 6     -3252.819 6        37.966               
E25  23697510.544 7 124531857.511 7     -1252.209 7        47.371               
E36  25275671.131 7 132825134.308 7      1836.165 7        45.028               
> 2025 01 06 18 46 50.0000000  0  7                                             
E02  25062431.369 7 131704035.343 7      1522.943 7        44.584               
E10  24617744.552 7 129367551.340 7     -2003.095 7        47.047               
E11  23513542.171 7 123565102.596 7      -576.815 7        43.435               
E12  26557466.986 6 139560693.893 6     -2842.617 6        37.182               
E24  26949383.066 6 141620551.583 6     -3251.313 6        38.334               
E25  23697747.549 7 124533109.955 7     -1252.515 7        47.361               
E36  25275321.881 7 132823298.470 7      1836.055 7        45.129               
> 2025 01 06 18 46 51.0000000  0  7                                             
E02  25062141.238 7 131702512.085 7      1523.478 7        44.343               
E10  24618124.161 7 129369554.324 7     -2003.661 7        46.786               
E11  23513649.519 7 123565678.217 7      -576.458 7        43.606               
E12  26558006.675 6 139563536.153 6     -2842.317 6        37.085               
E24  26950000.021 6 141623803.707 6     -3253.122 6        38.301               
E25  23697985.297 7 124534362.944 7     -1253.508 7        47.212               
E36  25274969.638 7 132821463.010 7      1834.415 7        44.745               
> 2025 01 06 18 46 52.0000000  0  7                                             
E02  25061849.437 7 131700989.320 7      1522.658 7        43.993               
E10  24618506.264 7 129371557.756 7     -2003.336 7        46.905               
E11  23513757.493 7 123566254.400 7      -576.092 7        43.531               
E12  26558547.794 6 139566378.732 6     -2841.673 6        37.219               
E24  26950618.495 6 141627056.178 6     -3252.699 6        38.598               
E25  23698221.409 7 124535616.523 7     -1254.470 7        47.272               
E36  25274618.583 7 132819628.013 7      1834.490 7        44.789               
> 2025 01 06 18 46 53.0000000  0  7                                             
E02  25061560.200 7 131699466.702 7      1522.505 7        43.985               
E10  24618885.891 7 129373561.326 7     -2003.590 7        46.916               
E11  23513866.476 7 123566830.832 7      -575.846 7        43.385               
E12  26559083.757 6 139569221.324 6     -2841.005 6        37.336               
E24  26951235.852 6 141630308.633 6     -3251.449 6        38.569               
E25  23698460.416 7 124536870.385 7     -1254.436 7        47.389               
E36  25274271.182 7 132817793.137 7      1835.499 7        44.667               
> 2025 01 06 18 46 54.0000000  0  7                                             
E02  25061268.060 7 131697944.246 7      1521.265 7        43.994               
E10  24619264.866 7 129375565.000 7     -2004.531 7        46.850               
E11  23513975.504 7 123567407.451 7      -576.881 7        42.901               
E12  26559626.984 6 139572063.893 6     -2844.100 6        37.224               
E24  26951856.407 6 141633561.149 6     -3254.983 6        38.442               
E25  23698697.386 7 124538124.507 7     -1254.395 7        47.309               
E36  25273919.976 7 132815958.394 7      1833.386 7        44.841               
> 2025 01 06 18 46 55.0000000  0  7                                             
E02  25060977.804 7 131696421.981 7      1523.543 7        43.981               
E10  24619645.566 7 129377568.862 7     -2004.111 7        47.054               
E11  23514082.709 7 123567984.376 7      -578.112 7        43.122               
E12  26560171.641 6 139574906.498 6     -2841.142 6        37.517               
E24  26952472.290 6 141636813.742 6     -3252.352 6        38.087               
E25  23698935.294 7 124539378.978 7     -1254.118 7        47.425               
E36  25273566.696 7 132814123.821 7      1836.395 7        44.611               
> 2025 01 06 18 46 56.0000000  0  7                                             
E02  25060686.637 7 131694899.808 7      1521.642 7        43.859               
E10  24620026.560 7 129379572.766 7     -2004.442 7        46.970               
E11  23514192.317 7 123568561.416 7      -576.426 7        43.146               
E12  26560704.397 6 139577749.032 6     -2842.656 6        37.336               
E24  26953085.778 6 141640066.280 6     -3253.369 6        38.281               
E25  23699172.336 7 124540633.647 7     -1255.275 7        47.582               
E36  25273219.027 7 132812289.311 7      1834.294 7        44.684               
> 2025 01 06 18 46 57.0000000  0  7                                             
E02  25060395.051 7 131693377.954 7      1521.691 7        43.897               
E10  24620405.634 7 129381576.962 7     -2004.526 7        46.794               
E11  23514302.105 7 123569138.883 7      -577.228 7        43.193               
E12  26561246.856 6 139580591.731 6     -2843.644 6        37.458               
E24  26953708.621 6 141643319.011 6     -3252.448 6        37.795               
E25  23699411.459 7 124541888.756 7     -1255.630 7        47.625               
E36  25272868.679 7 132810455.097 7      1834.518 7        44.557               
> 2025 01 06 18 46 58.0000000  0  7                                             
E02  25060104.438 7 131691856.585 7      1521.278 7        44.173               
E10  24620787.012 7 129383581.587 7     -2004.451 7        46.799               
E11  23514409.846 7 123569716.885 7      -578.430 7        43.436               
E12  26561788.403 6 139583434.674 6     -2838.407 6        37.392               
E24  26954325.120 6 141646572.082 6     -3253.008 6        37.795               
E25  23699646.893 7 124543144.442 7     -1255.784 7        47.430               
E36  25272518.821 7 132808621.326 7      1833.678 7        44.500               
> 2025 01 06 18 46 59.0000000  0  7                                             
E02  25059815.415 7 131690335.275 7      1521.659 7        44.294               
