     3.02           OBSERVATION DATA    E                   RINEX VERSION / TYPE
G = GPS  R = GLONASS  E = GALILEO  S = GEO  M = MIXED       COMMENT             
GNSS-SDR            jmfriedt            20250106 190622 UTC PGM / RUN BY / DATE 
GALILEO OBSERVATION DATA FILE GENERATED BY GNSS-SDR         COMMENT             
GNSS-SDR VERSION 0.0.19                                     COMMENT             
See https://gnss-sdr.org                                    COMMENT             
DEFAULT MARKER NAME                                         MARKER NAME         
jmfriedt            CTTC                                    OBSERVER / AGENCY   
GNSS-SDR            Software Receiver   0.0.19              REC # / TYPE / VERS 
Antenna number      Antenna type                            ANT # / TYPE        
        0.0000        0.0000        0.0000                  APPROX POSITION XYZ 
        0.0000        0.0000        0.0000                  ANTENNA: DELTA H/E/N
E    4 C1B L1B D1B S1B                                      SYS / # / OBS TYPES 
DBHZ                                                        SIGNAL STRENGTH UNIT
  2025    01    06    18    45    6.1400000     GAL         TIME OF FIRST OBS   
    18    18   137     7                                    LEAP SECONDS        
                                                            END OF HEADER       
> 2025 01 06 18 45 07.0000000  0  4                                             
E11  23502730.813 7 123507694.684 7      -538.779 7        43.234               
E12  26501995.883 6 139268900.276 6     -2830.038 6        38.345               
E24  26885912.744 6 141286418.989 6     -3234.944 6        37.778               
E25  23673711.337 7 124406203.211 7     -1211.176 7        47.235               
> 2025 01 06 18 45 08.0000000  0  4                                             
E11  23502834.418 7 123508233.924 7      -540.487 7        43.755               
E12  26502529.657 6 139271730.361 6     -2830.214 6        38.324               
E24  26886523.659 6 141289654.945 6     -3235.652 6        37.822               
E25  23673941.651 7 124407414.713 7     -1211.612 7        47.525               
> 2025 01 06 18 45 09.0000000  0  4                                             
E11  23502934.610 7 123508773.793 7      -539.237 7        43.877               
E12  26503065.362 6 139274560.817 6     -2828.217 6        38.157               
E24  26887140.721 6 141292891.384 6     -3237.918 6        37.768               
E25  23674171.232 7 124408626.907 7     -1212.900 7        47.933               
> 2025 01 06 18 45 10.0000000  0  4                                             
E11  23503037.508 7 123509314.021 7      -540.407 7        43.831               
E12  26503602.004 6 139277391.401 6     -2829.239 6        37.693               
E24  26887754.504 6 141296127.943 6     -3235.476 6        37.743               
E25  23674400.375 7 124409839.480 7     -1212.942 7        47.836               
> 2025 01 06 18 45 11.0000000  0  4                                             
E11  23503138.120 7 123509854.380 7      -540.526 7        43.741               
E12  26504143.096 6 139280221.904 6     -2830.419 6        37.636               
E24  26888369.127 6 141299364.419 6     -3236.294 6        38.002               
E25  23674629.251 7 124411052.232 7     -1213.743 7        47.637               
> 2025 01 06 18 45 12.0000000  0  4                                             
E11  23503241.099 7 123510395.203 7      -541.967 7        43.862               
E12  26504681.106 6 139283052.620 6     -2829.933 6        37.695               
E24  26888986.448 6 141302601.205 6     -3235.321 6        38.378               
E25  23674860.145 7 124412265.509 7     -1213.202 7        47.780               
> 2025 01 06 18 45 13.0000000  0  4                                             
E11  23503342.819 7 123510936.370 7      -542.009 7        43.605               
E12  26505217.141 6 139285883.455 6     -2831.147 6        37.811               
E24  26889600.615 6 141305838.126 6     -3234.282 6        38.274               
E25  23675090.718 7 124413479.195 7     -1214.316 7        47.723               
> 2025 01 06 18 45 14.0000000  0  4                                             
E11  23503443.787 7 123511477.893 7      -541.676 7        44.286               
E12  26505753.077 6 139288714.406 6     -2831.755 6        38.027               
E24  26890214.282 6 141309075.199 6     -3238.256 6        38.096               
E25  23675320.764 7 124414693.255 7     -1214.168 7        47.733               
> 2025 01 06 18 45 15.0000000  0  4                                             
E11  23503547.499 7 123512019.724 7      -542.065 7        44.228               
E12  26506294.142 6 139291545.427 6     -2831.589 6        38.276               
E24  26890828.619 6 141312312.375 6     -3236.989 6        38.265               
E25  23675549.148 7 124415907.681 7     -1214.080 7        47.687               
> 2025 01 06 18 45 16.0000000  0  4                                             
E11  23503648.039 7 123512562.182 7      -543.218 7        43.871               
E12  26506832.956 6 139294376.845 6     -2830.504 6        38.291               
E24  26891447.870 6 141315549.996 6     -3236.422 6        37.982               
E25  23675779.855 7 124417122.794 7     -1215.371 7        47.829               
> 2025 01 06 18 45 17.0000000  0  4                                             
E11  23503748.463 7 123513105.478 7      -543.323 7        44.026               
E12  26507368.598 6 139297208.880 6     -2833.702 6        38.707               
E24  26892061.019 6 141318788.279 6     -3239.048 6        38.018               
E25  23676010.794 7 124418338.806 7     -1215.659 7        47.430               
> 2025 01 06 18 45 18.0000000  0  4                                             
E11  23503852.765 7 123513648.606 7      -542.782 7        43.726               
E12  26507907.465 6 139300040.501 6     -2829.753 6        38.558               
E24  26892675.418 6 141322026.154 6     -3237.901 6        37.920               
E25  23676240.224 7 124419554.666 7     -1215.485 7        47.325               
> 2025 01 06 18 45 19.0000000  0  4                                             
E11  23503955.583 7 123514191.659 7      -542.779 7        43.762               
E12  26508444.679 6 139302871.802 6     -2828.990 6        38.835               
E24  26893291.498 6 141325263.790 6     -3237.355 6        37.917               
E25  23676470.931 7 124420770.512 7     -1215.721 7        47.751               
> 2025 01 06 18 45 20.0000000  0  4                                             
E11  23504055.793 7 123514735.188 7      -544.597 7        44.037               
E12  26508981.679 6 139305703.349 6     -2830.069 6        38.345               
E24  26893907.559 6 141328501.696 6     -3238.566 6        38.021               
E25  23676701.316 7 124421986.864 7     -1215.789 7        47.581               
> 2025 01 06 18 45 21.0000000  0  4                                             
E11  23504158.388 7 123515279.224 7      -544.176 7        44.070               
E12  26509520.010 6 139308535.201 6     -2830.983 6        37.817               
E24  26894521.905 6 141331739.920 6     -3238.866 6        38.045               
E25  23676931.951 7 124423203.808 7     -1217.768 7        47.672               
> 2025 01 06 18 45 22.0000000  0  4                                             
E11  23504259.017 7 123515823.636 7      -544.481 7        43.924               
E12  26510056.599 6 139311367.159 6     -2830.335 6        37.515               
E24  26895139.190 6 141334978.299 6     -3238.184 6        38.214               
E25  23677162.221 7 124424421.146 7     -1217.355 7        47.282               
> 2025 01 06 18 45 23.0000000  0  4                                             
E11  23504362.648 7 123516368.270 7      -544.146 7        43.800               
E12  26510597.477 6 139314199.107 6     -2835.531 6        37.560               
E24  26895748.050 6 141338216.696 6     -3239.411 6        38.310               
E25  23677394.152 7 124425638.763 7     -1217.982 7        47.751               
> 2025 01 06 18 45 24.0000000  0  4                                             
E11  23504466.548 7 123516913.595 7      -545.160 7        43.875               
E12  26511133.065 6 139317031.517 6     -2833.003 6        37.877               
E24  26896369.910 6 141341455.637 6     -3238.402 6        38.216               
E25  23677624.305 7 124426857.116 7     -1218.103 7        47.612               
> 2025 01 06 18 45 25.0000000  0  4                                             
E11  23504568.580 7 123517459.550 7      -547.038 7        43.960               
E12  26511669.430 6 139319864.325 6     -2831.743 6        37.850               
E24  26896982.934 6 141344694.976 6     -3238.669 6        38.246               
E25  23677854.431 7 124428076.157 7     -1219.530 7        47.850               
> 2025 01 06 18 45 26.0000000  0  4                                             
E11  23504673.274 7 123518005.745 7      -547.545 7        43.914               
E12  26512211.728 6 139322697.131 6     -2834.294 6        38.135               
E24  26897598.361 6 141347934.382 6     -3237.843 6        38.538               
E25  23678085.406 7 124429295.491 7     -1219.258 7        47.873               
> 2025 01 06 18 45 27.0000000  0  4                                             
E11  23504774.547 7 123518552.161 7      -545.489 7        43.682               
E12  26512747.996 6 139325529.921 6     -2832.309 6        37.715               
E24  26898214.753 6 141351173.764 6     -3238.414 6        38.291               
E25  23678315.192 7 124430515.066 7     -1219.275 7        47.639               
> 2025 01 06 18 45 28.0000000  0  4                                             
E11  23504877.821 7 123519099.111 7      -547.758 7        43.661               
E12  26513283.173 6 139328363.038 6     -2832.014 6        37.660               
E24  26898829.760 6 141354413.527 6     -3240.545 6        38.569               
E25  23678548.455 7 124431735.237 7     -1219.968 7        47.571               
> 2025 01 06 18 45 29.0000000  0  4                                             
E11  23504978.093 7 123519645.684 7      -546.270 7        43.479               
E12  26513827.258 6 139331195.532 6     -2832.935 6        37.828               
E24  26899446.617 6 141357652.735 6     -3237.841 6        38.692               
E25  23678778.009 7 124432955.090 7     -1219.468 7        47.383               
> 2025 01 06 18 45 30.0000000  0  4                                             
E11  23505083.154 7 123520192.386 7      -546.908 7        43.827               
E12  26514362.962 6 139334027.932 6     -2833.964 6        37.733               
E24  26900059.408 6 141360891.863 6     -3240.568 6        38.935               
E25  23679008.341 7 124434175.136 7     -1220.449 7        47.312               
> 2025 01 06 18 45 31.0000000  0  4                                             
E11  23505186.893 7 123520739.917 7      -546.127 7        43.754               
E12  26514898.014 6 139336860.916 6     -2832.493 6        37.916               
E24  26900674.674 6 141364131.611 6     -3239.903 6        38.751               
E25  23679240.102 7 124435396.037 7     -1221.486 7        47.442               
> 2025 01 06 18 45 32.0000000  0  4                                             
E11  23505290.104 7 123521287.732 7      -548.323 7        43.722               
E12  26515436.336 6 139339693.928 6     -2833.060 6        37.907               
E24  26901292.683 6 141367371.434 6     -3240.690 6        38.702               
E25  23679470.702 7 124436617.251 7     -1221.105 7        47.089               
> 2025 01 06 18 45 33.0000000  0  4                                             
E11  23505392.601 7 123521835.808 7      -549.305 7        43.672               
E12  26515973.801 6 139342526.978 6     -2832.420 6        37.728               
E24  26901907.958 6 141370611.300 6     -3241.011 6        38.511               
E25  23679702.892 7 124437838.800 7     -1221.095 7        47.228               
> 2025 01 06 18 45 34.0000000  0  4                                             
E11  23505496.465 7 123522384.265 7      -548.932 7        43.594               
E12  26516511.659 6 139345360.208 6     -2833.655 6        37.526               
E24  26902523.877 6 141373851.416 6     -3241.001 6        38.071               
E25  23679933.527 7 124439060.780 7     -1221.809 7        47.403               
> 2025 01 06 18 45 35.0000000  0  4                                             
E11  23505599.649 7 123522933.031 7      -548.228 7        43.415               
E12  26517051.115 6 139348193.475 6     -2833.989 6        37.267               
E24  26903134.175 6 141377091.619 6     -3243.888 6        37.897               
E25  23680166.405 7 124440283.120 7     -1222.425 7        47.260               
> 2025 01 06 18 45 36.0000000  0  5                                             
E11  23505702.512 7 123523482.082 7      -548.371 7        43.308               
E12  26517588.884 6 139351026.790 6     -2833.762 6        37.692               
E24  26903749.951 6 141380331.896 6     -3239.068 6        38.344               
E25  23680398.033 7 124441505.777 7     -1222.868 7        47.390               
E36  25301383.315 7 132959667.481 7      1854.419 7        44.338               
> 2025 01 06 18 45 37.0000000  0  5                                             
E11  23505808.002 7 123524031.478 7      -550.478 7        43.704               
E12  26518125.490 6 139353860.231 6     -2835.218 6        37.669               
E24  26904368.022 6 141383572.309 6     -3240.037 6        38.479               
E25  23680630.258 7 124442728.821 7     -1223.682 7        47.432               
E36  25301029.740 7 132957813.076 7      1853.838 7        44.487               
> 2025 01 06 18 45 38.0000000  0  5                                             
E11  23505911.875 7 123524581.524 7      -551.663 7        43.619               
E12  26518662.124 6 139356694.059 6     -2830.843 6        37.749               
E24  26904982.869 6 141386813.215 6     -3240.347 6        38.765               
E25  23680860.858 7 124443952.585 7     -1224.036 7        47.282               
E36  25300676.559 7 132955959.235 7      1854.424 7        44.536               
> 2025 01 06 18 45 39.0000000  0  5                                             
E11  23506014.899 7 123525131.701 7      -549.633 7        43.461               
E12  26519204.824 6 139359527.833 6     -2833.926 6        38.179               
E24  26905602.468 6 141390054.027 6     -3239.932 6        38.834               
E25  23681092.914 7 124445176.525 7     -1224.400 7        47.387               
E36  25300323.173 7 132954105.413 7      1853.476 7        44.768               
> 2025 01 06 18 45 40.0000000  0  5                                             
E11  23506117.654 7 123525681.947 7      -549.577 7        43.517               
E12  26519741.976 6 139362361.382 6     -2832.512 6        38.274               
E24  26906211.712 6 141393294.685 6     -3239.859 6        38.640               
E25  23681323.710 7 124446400.565 7     -1223.502 7        47.485               
E36  25299969.339 7 132952251.562 7      1852.667 7        44.842               
> 2025 01 06 18 45 41.0000000  0  5                                             
E11  23506221.420 7 123526232.225 7      -550.419 7        43.883               
E12  26520284.712 6 139365194.785 6     -2835.658 6        38.113               
E24  26906831.232 6 141396535.216 6     -3241.031 6        38.338               
E25  23681556.821 7 124447624.694 7     -1223.901 7        47.407               
E36  25299615.872 7 132950397.636 7      1854.464 7        44.903               
> 2025 01 06 18 45 42.0000000  0  5                                             
E11  23506323.765 7 123526783.225 7      -552.028 7        44.306               
E12  26520819.308 6 139368028.649 6     -2835.459 6        38.084               
E24  26907446.498 6 141399776.273 6     -3240.813 6        38.104               
E25  23681787.528 7 124448849.615 7     -1225.441 7        47.656               
E36  25299263.414 7 132948544.345 7      1852.980 7        44.810               
> 2025 01 06 18 45 43.0000000  0  5                                             
E11  23506428.629 7 123527334.850 7      -551.469 7        44.011               
E12  26521358.738 6 139370862.905 6     -2834.033 6        38.060               
E24  26908059.745 6 141403017.782 6     -3241.029 6        37.905               
E25  23682020.048 7 124450075.208 7     -1225.955 7        47.516               
E36  25298909.804 7 132946691.591 7      1852.802 7        44.887               
> 2025 01 06 18 45 44.0000000  0  5                                             
E11  23506532.788 7 123527886.823 7      -550.155 7        43.863               
E12  26521896.864 6 139373697.277 6     -2833.212 6        38.261               
E24  26908678.906 6 141406259.406 6     -3242.019 6        38.222               
E25  23682251.399 7 124451301.177 7     -1226.535 7        47.630               
E36  25298554.068 7 132944839.063 7      1851.504 7        44.820               
> 2025 01 06 18 45 45.0000000  0  5                                             
E11  23506639.233 7 123528439.261 7      -553.424 7        43.593               
E12  26522433.113 6 139376531.883 6     -2835.122 6        38.201               
E24  26909293.136 6 141409501.284 6     -3242.014 6        38.103               
E25  23682484.929 7 124452527.650 7     -1225.953 7        47.417               
E36  25298200.234 7 132942986.895 7      1850.961 7        44.824               
> 2025 01 06 18 45 46.0000000  0  5                                             
E11  23506740.381 7 123528992.304 7      -553.405 7        43.755               
E12  26522970.712 6 139379366.831 6     -2832.529 6        38.248               
E24  26909909.394 6 141412743.586 6     -3241.832 6        38.180               
E25  23682716.672 7 124453754.807 7     -1227.219 7        47.678               
E36  25297849.769 7 132941135.247 7      1850.758 7        45.098               
> 2025 01 06 18 45 47.0000000  0  5                                             
E11  23506844.245 7 123529545.552 7      -553.318 7        43.978               
E12  26523512.518 6 139382201.791 6     -2833.426 6        38.056               
E24  26910525.768 6 141415985.921 6     -3242.530 6        38.709               
E25  23682949.908 7 124454982.216 7     -1228.022 7        47.650               
E36  25297494.256 7 132939283.723 7      1850.611 7        44.863               
> 2025 01 06 18 45 48.0000000  0  5                                             
E11  23506949.690 7 123530099.203 7      -553.360 7        43.952               
E12  26524051.073 6 139385036.901 6     -2836.599 6        37.951               
E24  26911140.623 6 141419228.451 6     -3244.407 6        38.675               
E25  23683181.866 7 124456210.058 7     -1228.127 7        47.559               
E36  25297140.557 7 132937432.464 7      1851.195 7        44.893               
> 2025 01 06 18 45 49.0000000  0  5                                             
E11  23507055.510 7 123530652.801 7      -553.964 7        44.032               
E12  26524591.039 6 139387871.701 6     -2834.160 6        38.170               
E24  26911759.669 6 141422470.693 6     -3242.025 6        38.639               
E25  23683414.788 7 124457437.883 7     -1227.097 7        47.736               
E36  25296785.928 7 132935581.047 7      1850.667 7        44.720               
> 2025 01 06 18 45 50.0000000  0  5                                             
E11  23507158.686 7 123531207.096 7      -556.179 7        43.937               
E12  26525125.653 6 139390706.998 6     -2835.608 6        37.897               
E24  26912375.364 6 141425713.474 6     -3241.874 6        38.772               
E25  23683645.459 7 124458666.482 7     -1229.771 7        47.560               
E36  25296432.595 7 132933730.253 7      1850.651 7        44.672               
> 2025 01 06 18 45 51.0000000  0  5                                             
E11  23507261.343 7 123531761.930 7      -555.177 7        44.208               
E12  26525663.118 6 139393542.609 6     -2834.206 6        37.873               
E24  26912987.003 6 141428956.624 6     -3244.308 6        38.822               
E25  23683879.374 7 124459895.679 7     -1228.950 7        47.464               
E36  25296078.797 7 132931879.907 7      1850.770 7        44.455               
> 2025 01 06 18 45 52.0000000  0  5                                             
E11  23507366.235 7 123532316.899 7      -555.265 7        43.966               
E12  26526199.197 6 139396378.134 6     -2837.139 6        38.033               
E24  26913605.825 6 141432199.662 6     -3242.188 6        38.796               
E25  23684113.413 7 124461125.051 7     -1229.769 7        47.187               
E36  25295728.064 7 132930029.597 7      1849.242 7        44.458               
> 2025 01 06 18 45 53.0000000  0  5                                             
E11  23507471.269 7 123532871.915 7      -553.913 7        43.903               
E12  26526741.808 6 139399213.395 6     -2835.443 6        38.121               
E24  26914221.171 6 141435442.565 6     -3243.083 6        39.121               
E25  23684346.086 7 124462354.500 7     -1229.338 7        47.184               
E36  25295369.191 7 132928179.213 7      1850.529 7        44.392               
> 2025 01 06 18 45 54.0000000  0  5                                             
E11  23507575.025 7 123533426.919 7      -555.019 7        43.843               
E12  26527276.843 6 139402048.462 6     -2833.996 6        37.731               
E24  26914837.635 6 141438685.278 6     -3242.784 6        39.012               
E25  23684578.026 7 124463584.005 7     -1229.377 7        47.121               
E36  25295017.449 7 132926328.720 7      1849.827 7        43.979               
> 2025 01 06 18 45 55.0000000  0  5                                             
E11  23507681.685 7 123533982.007 7      -556.636 7        43.602               
E12  26527817.166 6 139404883.370 6     -2836.485 6        37.898               
E24  26915452.847 6 141441927.863 6     -3243.189 6        39.027               
E25  23684811.949 7 124464813.648 7     -1229.800 7        47.534               
E36  25294664.732 7 132924478.225 7      1850.903 7        44.037               
> 2025 01 06 18 45 56.0000000  0  5                                             
E11  23507784.191 7 123534537.885 7      -556.290 7        43.969               
E12  26528353.299 6 139407718.858 6     -2834.846 6        37.932               
E24  26916068.909 6 141445171.050 6     -3243.171 6        38.990               
E25  23685046.328 7 124466044.125 7     -1230.486 7        47.252               
E36  25294312.051 7 132922628.421 7      1850.006 7        44.159               
> 2025 01 06 18 45 57.0000000  0  5                                             
E11  23507889.359 7 123535094.573 7      -556.195 7        43.941               
E12  26528894.445 6 139410554.863 6     -2835.469 6        38.229               
E24  26916685.390 6 141448414.835 6     -3244.539 6        39.145               
E25  23685278.322 7 124467275.449 7     -1231.340 7        47.295               
E36  25293957.833 7 132920779.307 7      1848.234 7        44.250               
> 2025 01 06 18 45 58.0000000  0  7                                             
E02  25077633.806 7 131783855.080 7      1536.018 7        44.178               
E10  24598045.116 7 129263596.712 7     -1990.236 7        46.482               
E11  23507993.580 7 123535651.695 7      -556.941 7        43.877               
E12  26529435.760 6 139413391.071 6     -2832.149 6        38.197               
E24  26917301.451 6 141451658.844 6     -3243.359 6        39.360               
E25  23685511.798 7 124468507.250 7     -1231.411 7        47.439               
E36  25293604.581 7 132918930.529 7      1847.408 7        44.116               
> 2025 01 06 18 45 59.0000000  0  7                                             
E02  25077340.379 7 131782317.352 7      1536.754 7        44.207               
E10  24598423.099 7 129265586.759 7     -1990.229 7        46.251               
E11  23508099.356 7 123536209.092 7      -558.203 7        43.708               
E12  26529969.758 6 139416227.370 6     -2836.266 6        37.852               
E24  26917917.951 6 141454902.968 6     -3246.567 6        39.007               
E25  23685746.008 7 124469739.408 7     -1232.535 7        47.514               
E36  25293249.237 7 132917081.944 7      1847.565 7        44.013               
> 2025 01 06 18 46 00.0000000  0  7                                             
E02  25077043.736 7 131780780.119 7      1536.878 7        43.885               
E10  24598801.225 7 129267577.275 7     -1991.620 7        46.150               
E11  23508204.399 7 123536767.044 7      -558.430 7        43.793               
E12  26530507.821 6 139419063.970 6     -2837.836 6        37.938               
E24  26918533.002 6 141458147.446 6     -3244.933 6        39.026               
E25  23685978.984 7 124470972.160 7     -1233.856 7        47.730               
E36  25292896.145 7 132915233.825 7      1847.425 7        44.344               
> 2025 01 06 18 46 01.0000000  0  7                                             
E02  25076752.980 7 131779243.448 7      1536.449 7        43.863               
E10  24599177.618 7 129269568.319 7     -1991.205 7        45.984               
E11  23508311.211 7 123537325.672 7      -558.155 7        43.714               
E12  26531050.601 6 139421901.006 6     -2838.215 6        37.965               
E24  26919149.189 6 141461392.380 6     -3245.542 6        38.927               
E25  23686212.380 7 124472205.628 7     -1233.790 7        47.715               
E36  25292544.251 7 132913386.250 7      1847.649 7        44.239               
> 2025 01 06 18 46 02.0000000  0  7                                             
E02  25076458.981 7 131777706.812 7      1536.994 7        43.952               
E10  24599555.245 7 129271559.374 7     -1991.425 7        46.088               
E11  23508416.442 7 123537884.407 7      -558.976 7        43.679               
E12  26531585.234 6 139424737.892 6     -2836.132 6        37.792               
E24  26919768.306 6 141464637.226 6     -3245.682 6        39.007               
E25  23686446.152 7 124473439.239 7     -1233.184 7        47.445               
E36  25292192.740 7 132911538.701 7      1846.291 7        44.351               
> 2025 01 06 18 46 03.0000000  0  7                                             
E02  25076168.850 7 131776170.345 7      1536.221 7        43.855               
E10  24599932.040 7 129273550.582 7     -1991.183 7        45.957               
E11  23508520.359 7 123538443.375 7      -559.355 7        43.704               
E12  26532128.166 6 139427574.808 6     -2835.623 6        37.842               
E24  26920381.079 6 141467882.116 6     -3244.419 6        38.924               
E25  23686679.235 7 124474673.151 7     -1234.644 7        47.277               
E36  25291839.220 7 132909691.275 7      1846.932 7        44.198               
> 2025 01 06 18 46 04.0000000  0  7                                             
E02  25075873.216 7 131774634.028 7      1536.497 7        43.948               
E10  24600310.756 7 129275541.910 7     -1991.238 7        46.083               
E11  23508625.447 7 123539002.554 7      -559.091 7        43.707               
E12  26532666.220 6 139430411.703 6     -2837.247 6        37.932               
E24  26920993.924 6 141471127.022 6     -3244.445 6        38.281               
E25  23686913.847 7 124475907.338 7     -1234.313 7        47.508               
E36  25291488.415 7 132907843.985 7      1847.317 7        44.253               
> 2025 01 06 18 46 05.0000000  0  7                                             
E02  25075579.575 7 131773097.610 7      1537.147 7        44.082               
E10  24600687.658 7 129277533.085 7     -1991.198 7        46.001               
E11  23508728.917 7 123539561.697 7      -559.665 7        43.764               
E12  26533201.138 6 139433248.302 6     -2836.393 6        37.613               
E24  26921615.275 6 141474371.712 6     -3245.080 6        38.100               
E25  23687149.039 7 124477141.519 7     -1233.309 7        47.419               
E36  25291135.332 7 132905996.537 7      1847.859 7        44.375               
> 2025 01 06 18 46 06.0000000  0  7                                             
E02  25075287.577 7 131771561.034 7      1536.596 7        44.240               
E10  24601067.446 7 129279524.106 7     -1991.984 7        46.020               
E11  23508835.997 7 123540120.794 7      -558.655 7        43.662               
E12  26533742.221 6 139436084.665 6     -2837.476 6        37.462               
E24  26922229.746 6 141477616.147 6     -3244.567 6        38.091               
E25  23687380.621 7 124478375.703 7     -1234.811 7        47.280               
E36  25290781.123 7 132904148.943 7      1846.868 7        44.477               
> 2025 01 06 18 46 07.0000000  0  7                                             
E02  25074993.346 7 131770025.175 7      1535.070 7        44.421               
E10  24601443.884 7 129281515.788 7     -1992.430 7        46.502               
E11  23508940.424 7 123540680.648 7      -561.131 7        43.593               
E12  26534281.812 6 139438921.522 6     -2836.278 6        37.362               
E24  26922845.441 6 141480861.127 6     -3244.962 6        38.574               
E25  23687615.831 7 124479610.701 7     -1235.760 7        47.435               
E36  25290428.496 7 132902302.030 7      1846.675 7        44.195               
> 2025 01 06 18 46 08.0000000  0  7                                             
E02  25074698.864 7 131768490.095 7      1534.492 7        44.635               
E10  24601822.886 7 129283508.247 7     -1993.782 7        46.454               
E11  23509046.879 7 123541241.368 7      -562.894 7        43.597               
E12  26534821.189 6 139441758.997 6     -2835.259 6        37.478               
E24  26923467.238 6 141484106.785 6     -3246.887 6        38.266               
E25  23687848.843 7 124480846.607 7     -1236.732 7        47.677               
E36  25290076.789 7 132900455.877 7      1844.575 7        44.026               
> 2025 01 06 18 46 09.0000000  0  7                                             
E02  25074406.134 7 131766956.090 7      1533.499 7        44.371               
E10  24602201.522 7 129285501.740 7     -1994.039 7        46.623               
E11  23509153.280 7 123541803.225 7      -561.692 7        43.508               
E12  26535357.411 6 139444597.399 6     -2835.912 6        37.584               
E24  26924083.416 6 141487353.388 6     -3246.667 6        38.431               
E25  23688083.204 7 124482083.717 7     -1237.459 7        47.796               
E36  25289724.876 7 132898610.758 7      1845.915 7        44.115               
> 2025 01 06 18 46 10.0000000  0  7                                             
E02  25074112.894 7 131765421.822 7      1534.885 7        44.158               
E10  24602577.191 7 129287494.954 7     -1993.740 7        46.410               
E11  23509259.502 7 123542364.928 7      -561.207 7        43.730               
E12  26535899.977 6 139447435.387 6     -2837.886 6        37.592               
E24  26924698.101 6 141490599.639 6     -3245.021 6        38.414               
E25  23688319.335 7 124483320.693 7     -1237.260 7        47.623               
E36  25289372.320 7 132896765.378 7      1844.987 7        44.431               
> 2025 01 06 18 46 11.0000000  0  7                                             
E02  25073819.663 7 131763887.460 7      1534.221 7        44.132               
E10  24602957.667 7 129289488.025 7     -1993.585 7        46.217               
E11  23509364.956 7 123542926.589 7      -561.927 7        43.522               
E12  26536439.175 6 139450273.100 6     -2839.382 6        37.468               
E24  26925315.279 6 141493845.628 6     -3246.849 6        38.369               
E25  23688552.025 7 124484557.685 7     -1237.202 7        47.742               
E36  25289018.460 7 132894919.851 7      1844.296 7        44.640               
> 2025 01 06 18 46 12.0000000  0  7                                             
E02  25073527.996 7 131762353.453 7      1534.244 7        43.646               
E10  24603335.034 7 129291481.442 7     -1993.666 7        46.355               
E11  23509470.142 7 123543488.674 7      -562.041 7        43.737               
E12  26536973.512 6 139453111.014 6     -2840.509 6        37.492               
E24  26925931.743 6 141497091.853 6     -3246.116 6        38.317               
E25  23688787.387 7 124485795.167 7     -1238.132 7        47.727               
E36  25288667.897 7 132893074.667 7      1843.591 7        44.763               
> 2025 01 06 18 46 13.0000000  0  7                                             
E02  25073234.426 7 131760819.509 7      1534.493 7        43.660               
E10  24603713.509 7 129293474.878 7     -1993.697 7        46.417               
E11  23509574.605 7 123544050.886 7      -562.455 7        44.038               
E12  26537513.720 6 139455948.824 6     -2839.152 6        37.354               
E24  26926544.373 6 141500338.054 6     -3246.828 6        38.135               
E25  23689022.981 7 124487032.831 7     -1237.845 7        47.963               
E36  25288315.386 7 132891229.514 7      1845.995 7        44.944               
> 2025 01 06 18 46 14.0000000  0  7                                             
E02  25072938.506 7 131759285.770 7      1534.123 7        43.921               
E10  24604091.162 7 129295468.492 7     -1994.001 7        46.576               
E11  23509680.684 7 123544613.376 7      -562.411 7        44.096               
E12  26538049.898 6 139458786.679 6     -2837.533 6        37.240               
E24  26927163.026 6 141503584.311 6     -3248.099 6        38.180               
E25  23689255.922 7 124488270.805 7     -1238.987 7        47.970               
E36  25287961.302 7 132889384.538 7      1844.136 7        44.738               
> 2025 01 06 18 46 15.0000000  0  7                                             
E02  25072647.027 7 131757752.588 7      1532.155 7        44.019               
E10  24604470.691 7 129297462.659 7     -1994.316 7        46.120               
E11  23509787.853 7 123545176.549 7      -564.289 7        43.770               
E12  26538587.603 6 139461624.946 6     -2836.667 6        37.681               
E24  26927780.794 6 141506831.007 6     -3248.591 6        38.311               
E25  23689491.203 7 124489509.493 7     -1239.029 7        47.701               
E36  25287611.900 7 132887540.113 7      1844.968 7        44.863               
> 2025 01 06 18 46 16.0000000  0  7                                             
E02  25072354.618 7 131756219.646 7      1533.446 7        43.915               
E10  24604848.031 7 129299457.024 7     -1994.422 7        46.457               
E11  23509892.977 7 123545739.965 7      -563.915 7        43.795               
E12  26539127.507 6 139464463.282 6     -2838.814 6        37.490               
E24  26928399.232 6 141510077.808 6     -3246.639 6        38.445               
E25  23689724.894 7 124490748.516 7     -1238.847 7        47.788               
E36  25287258.978 7 132885695.876 7      1843.603 7        44.927               
> 2025 01 06 18 46 17.0000000  0  7                                             
E02  25072062.844 7 131754686.993 7      1531.983 7        44.124               
E10  24605226.747 7 129301451.632 7     -1994.559 7        46.547               
E11  23509999.977 7 123546303.752 7      -564.373 7        44.206               
E12  26539669.850 6 139467301.722 6     -2836.909 6        37.588               
E24  26929012.997 6 141513324.772 6     -3245.716 6        38.511               
E25  23689959.988 7 124491987.953 7     -1238.932 7        47.877               
E36  25286907.289 7 132883851.900 7      1844.381 7        45.007               
> 2025 01 06 18 46 18.0000000  0  7                                             
E02  25071770.578 7 131753154.670 7      1533.181 7        44.333               
E10  24605604.320 7 129303446.571 7     -1995.338 7        46.383               
E11  23510107.441 7 123546867.977 7      -563.486 7        44.094               
E12  26540206.734 6 139470140.359 6     -2838.273 6        37.718               
E24  26929627.084 6 141516571.938 6     -3247.392 6        38.240               
E25  23690194.644 7 124493227.856 7     -1240.105 7        47.731               
E36  25286555.215 7 132882008.266 7      1843.443 7        44.881               
> 2025 01 06 18 46 19.0000000  0  7                                             
E02  25071477.437 7 131751622.626 7      1533.000 7        44.394               
E10  24605984.867 7 129305441.731 7     -1994.479 7        46.480               
E11  23510212.252 7 123547432.549 7      -563.489 7        44.092               
E12  26540747.924 6 139472979.073 6     -2838.161 6        37.752               
E24  26930245.950 6 141519819.287 6     -3245.365 6        38.011               
E25  23690430.247 7 124494468.147 7     -1239.740 7        47.403               
E36  25286204.527 7 132880164.842 7      1843.781 7        44.972               
> 2025 01 06 18 46 20.0000000  0  7                                             
E02  25071184.697 7 131750090.563 7      1531.448 7        44.375               
E10  24606362.645 7 129307436.862 7     -1995.945 7        46.238               
E11  23510318.921 7 123547997.170 7      -565.076 7        43.863               
E12  26541286.246 6 139475817.635 6     -2841.655 6        37.731               
E24  26930862.208 6 141523066.471 6     -3248.034 6        38.195               
E25  23690664.144 7 124495708.544 7     -1240.141 7        47.821               
E36  25285852.034 7 132878321.397 7      1843.193 7        44.324               
> 2025 01 06 18 46 21.0000000  0  7                                             
E02  25070892.083 7 131748558.757 7      1530.547 7        44.372               
E10  24606741.504 7 129309432.217 7     -1995.212 7        46.234               
E11  23510425.635 7 123548562.087 7      -565.450 7        43.690               
E12  26541825.998 6 139478656.271 6     -2840.620 6        37.540               
E24  26931481.531 6 141526313.799 6     -3246.528 6        38.227               
E25  23690898.469 7 124496949.322 7     -1239.962 7        47.455               
E36  25285499.388 7 132876478.183 7      1842.626 7        44.332               
> 2025 01 06 18 46 22.0000000  0  7                                             
E02  25070598.888 7 131747027.366 7      1531.896 7        44.822               
E10  24607120.953 7 129311427.962 7     -1996.117 7        46.462               
E11  23510532.268 7 123549127.517 7      -564.587 7        43.826               
E12  26542360.397 6 139481495.187 6     -2838.582 6        37.424               
E24  26932101.559 6 141529561.420 6     -3248.193 6        38.381               
E25  23691134.912 7 124498190.652 7     -1242.319 7        47.746               
E36  25285149.629 7 132874635.370 7      1842.234 7        44.602               
> 2025 01 06 18 46 23.0000000  0  7                                             
E02  25070306.748 7 131745496.281 7      1531.072 7        44.608               
E10  24607498.874 7 129313423.971 7     -1996.233 7        46.444               
E11  23510637.847 7 123549693.344 7      -564.814 7        43.684               
E12  26542902.928 6 139484334.226 6     -2838.165 6        37.127               
E24  26932718.219 6 141532809.219 6     -3246.096 6        38.444               
E25  23691369.273 7 124499432.391 7     -1241.165 7        47.412               
E36  25284796.984 7 132872792.811 7      1843.112 7        44.524               
> 2025 01 06 18 46 24.0000000  0  7                                             
E02  25070013.928 7 131743965.347 7      1529.846 7        44.623               
E10  24607878.251 7 129315420.113 7     -1996.423 7        46.568               
E11  23510745.490 7 123550259.388 7      -566.739 7        43.808               
E12  26543440.500 6 139487173.278 6     -2839.148 6        37.156               
E24  26933332.556 6 141536057.041 6     -3248.326 6        38.649               
E25  23691603.902 7 124500674.409 7     -1242.639 7        47.326               
E36  25284443.687 7 132870950.397 7      1841.319 7        44.433               
> 2025 01 06 18 46 25.0000000  0  7                                             
E02  25069723.601 7 131742435.255 7      1529.672 7        44.333               
E10  24608257.477 7 129317417.062 7     -1996.398 7        46.525               
E11  23510852.749 7 123550826.323 7      -567.017 7        43.517               
E12  26543979.813 6 139490012.960 6     -2840.168 6        37.078               
E24  26933951.244 6 141539305.582 6     -3248.100 6        38.867               
E25  23691839.979 7 124501917.395 7     -1242.832 7        47.255               
E36  25284094.794 7 132869108.795 7      1841.902 7        44.204               
> 2025 01 06 18 46 26.0000000  0  7                                             
E02  25069429.271 7 131740904.957 7      1530.748 7        44.390               
E10  24608635.746 7 129319413.766 7     -1995.967 7        46.600               
E11  23510959.347 7 123551393.119 7      -565.654 7        43.558               
E12  26544522.138 6 139492852.329 6     -2841.299 6        36.876               
E24  26934568.101 6 141542553.787 6     -3248.763 6        38.745               
E25  23692074.188 7 124503160.293 7     -1242.451 7        47.509               
E36  25283739.174 7 132867266.950 7      1841.045 7        44.328               
> 2025 01 06 18 46 27.0000000  0  7                                             
E02  25069136.934 7 131739375.035 7      1529.459 7        44.371               
E10  24609013.354 7 129321410.838 7     -1997.896 7        46.495               
E11  23511066.981 7 123551960.393 7      -566.912 7        43.778               
E12  26545059.379 6 139495691.868 6     -2839.015 6        36.808               
E24  26935187.548 6 141545802.255 6     -3247.169 6        38.629               
E25  23692310.265 7 124504403.688 7     -1244.449 7        47.683               
E36  25283392.059 7 132865425.471 7      1840.495 7        44.658               
> 2025 01 06 18 46 28.0000000  0  7                                             
E02  25068845.035 7 131737845.368 7      1529.452 7        44.278               
E10  24609393.777 7 129323408.132 7     -1997.349 7        46.448               
E11  23511173.033 7 123552527.988 7      -568.171 7        43.752               
E12  26545599.104 6 139498531.530 6     -2838.562 6        36.651               
E24  26935803.476 6 141549050.814 6     -3248.715 6        38.772               
E25  23692545.716 7 124505647.473 7     -1243.295 7        47.509               
E36  25283038.583 7 132863584.204 7      1840.725 7        44.875               
> 2025 01 06 18 46 29.0000000  0  7                                             
E02  25068554.877 7 131736316.324 7      1528.870 7        44.474               
E10  24609772.520 7 129325406.009 7     -1998.213 7        46.522               
E11  23511279.470 7 123553096.263 7      -568.602 7        43.439               
E12  26546138.945 6 139501371.642 6     -2840.376 6        36.887               
E24  26936419.850 6 141552299.925 6     -3249.922 6        38.946               
E25  23692781.828 7 124506891.998 7     -1245.221 7        47.199               
E36  25282688.368 7 132861743.547 7      1840.015 7        44.409               
> 2025 01 06 18 46 30.0000000  0  7                                             
E02  25068261.593 7 131734788.131 7      1527.487 7        44.247               
E10  24610152.478 7 129327404.697 7     -1998.120 7        46.809               
E11  23511387.873 7 123553665.447 7      -569.788 7        43.335               
E12  26546677.553 6 139504212.421 6     -2838.579 6        36.941               
E24  26937038.904 6 141555549.743 6     -3248.514 6        38.618               
E25  23693016.645 7 124508137.487 7     -1245.676 7        46.933               
E36  25282336.768 7 132859903.692 7      1840.486 7        44.064               
> 2025 01 06 18 46 31.0000000  0  7                                             
E02  25067970.123 7 131733259.052 7      1530.250 7        44.092               
E10  24610531.596 7 129329402.485 7     -1997.856 7        46.821               
E11  23511493.827 7 123554233.850 7      -567.666 7        43.293               
E12  26547214.205 6 139507052.181 6     -2840.296 6        36.884               
E24  26937652.955 6 141558798.551 6     -3249.507 6        38.733               
E25  23693252.713 7 124509382.225 7     -1244.941 7        46.897               
E36  25281984.998 7 132858062.949 7      1840.751 7        44.564               
> 2025 01 06 18 46 32.0000000  0  7                                             
E02  25067676.374 7 131731729.879 7      1528.894 7        43.823               
E10  24610911.402 7 129331400.165 7     -1998.567 7        46.690               
E11  23511600.183 7 123554802.235 7      -569.156 7        43.487               
E12  26547753.135 6 139509891.675 6     -2838.713 6        36.914               
E24  26938271.009 6 141562047.145 6     -3249.225 6        38.731               
E25  23693488.611 7 124510626.983 7     -1245.770 7        46.929               
E36  25281634.506 7 132856222.079 7      1841.206 7        44.546               
> 2025 01 06 18 46 33.0000000  0  7                                             
E02  25067385.904 7 131730201.512 7      1528.902 7        43.704               
E10  24611290.082 7 129333398.582 7     -1998.371 7        46.597               
E11  23511707.558 7 123555371.481 7      -569.755 7        43.536               
E12  26548290.930 6 139512731.790 6     -2839.508 6        36.958               
E24  26938890.019 6 141565296.390 6     -3249.428 6        38.892               
E25  23693725.045 7 124511872.657 7     -1246.336 7        47.215               
E36  25281283.621 7 132854381.994 7      1839.717 7        44.392               
> 2025 01 06 18 46 34.0000000  0  7                                             
E02  25067094.103 7 131728673.629 7      1527.354 7        43.530               
E10  24611670.478 7 129335397.476 7     -1999.570 7        46.672               
E11  23511815.550 7 123555941.250 7      -569.764 7        43.797               
E12  26548833.505 6 139515572.257 6     -2842.554 6        36.788               
E24  26939506.822 6 141568546.009 6     -3250.489 6        38.846               
E25  23693959.486 7 124513118.943 7     -1247.383 7        47.303               
E36  25280931.637 7 132852542.356 7      1839.162 7        44.292               
> 2025 01 06 18 46 35.0000000  0  7                                             
E02  25066801.560 7 131727146.042 7      1529.132 7        43.436               
E10  24612048.560 7 129337396.626 7     -1999.058 7        46.452               
E11  23511920.986 7 123556511.438 7      -570.770 7        43.294               
E12  26549371.193 6 139518412.838 6     -2843.430 6        36.714               
E24  26940123.303 6 141571795.796 6     -3250.540 6        38.350               
E25  23694196.144 7 124514365.657 7     -1246.997 7        47.384               
E36  25280581.967 7 132850702.980 7      1839.475 7        44.788               
> 2025 01 06 18 46 36.0000000  0  7                                             
E02  25066510.054 7 131725618.682 7      1529.211 7        43.657               
E10  24612428.321 7 129339395.987 7     -2000.230 7        46.426               
E11  23512028.817 7 123557081.912 7      -570.050 7        43.350               
E12  26549913.053 6 139521253.449 6     -2839.674 6        36.586               
E24  26940741.357 6 141575045.686 6     -3249.822 6        38.566               
E25  23694431.514 7 124515612.723 7     -1247.078 7        47.312               
E36  25280232.592 7 132848863.835 7      1838.829 7        44.673               
> 2025 01 06 18 46 37.0000000  0  7                                             
E02  25066219.727 7 131724091.280 7      1528.338 7        43.556               
E10  24612807.511 7 129341395.265 7     -1999.263 7        46.627               
E11  23512138.461 7 123557652.401 7      -570.037 7        43.248               
E12  26550452.108 6 139524093.897 6     -2838.955 6        36.501               
E24  26941356.846 6 141578295.408 6     -3248.524 6        38.519               
E25  23694668.574 7 124516859.856 7     -1246.881 7        47.578               
E36  25279882.306 7 132847024.600 7      1839.696 7        44.256               
> 2025 01 06 18 46 38.0000000  0  7                                             
E02  25065928.292 7 131722564.039 7      1526.762 7        43.622               
E10  24613188.174 7 129343394.677 7     -1999.904 7        46.529               
E11  23512245.952 7 123558223.121 7      -571.991 7        43.371               
E12  26550993.968 6 139526934.353 6     -2840.621 6        36.119               
E24  26941976.696 6 141581545.175 6     -3249.068 6        38.684               
E25  23694904.615 7 124518107.285 7     -1247.676 7        47.347               
E36  25279528.651 7 132845185.521 7      1837.748 7        44.456               
> 2025 01 06 18 46 39.0000000  0  7                                             
E02  25065636.160 7 131721037.423 7      1526.686 7        44.044               
E10  24613565.407 7 129345394.685 7     -2000.012 7        46.677               
E11  23512352.005 7 123558794.530 7      -570.424 7        43.674               
E12  26551532.728 6 139529775.226 6     -2840.549 6        36.431               
E24  26942590.497 6 141584795.419 6     -3249.712 6        38.414               
E25  23695141.245 7 124519355.443 7     -1248.643 7        47.476               
E36  25279179.267 7 132843347.007 7      1838.426 7        44.929               
> 2025 01 06 18 46 40.0000000  0  7                                             
E02  25065345.360 7 131719511.138 7      1525.812 7        44.109               
E10  24613946.688 7 129347394.991 7     -2001.098 7        46.512               
E11  23512459.639 7 123559366.375 7      -571.177 7        43.507               
E12  26552071.890 6 139532616.321 6     -2840.809 6        36.635               
E24  26943209.096 6 141588045.888 6     -3249.954 6        38.622               
E25  23695379.127 7 124520604.061 7     -1248.867 7        47.350               
E36  25278825.996 7 132841508.818 7      1837.543 7        44.642               
> 2025 01 06 18 46 41.0000000  0  7                                             
E02  25065054.532 7 131717985.324 7      1525.856 7        44.272               
E10  24614324.859 7 129349395.732 7     -2000.540 7        46.381               
E11  23512569.372 7 123559938.763 7      -573.272 7        43.551               
E12  26552609.247 6 139535457.687 6     -2840.527 6        37.060               
E24  26943828.409 6 141591296.705 6     -3250.358 6        38.741               
E25  23695615.007 7 124521853.274 7     -1249.140 7        47.114               
E36  25278474.763 7 132839671.079 7      1838.146 7        44.790               
> 2025 01 06 18 46 42.0000000  0  7                                             
E02  25064761.061 7 131716459.597 7      1524.582 7        44.137               
E10  24614704.361 7 129351396.526 7     -2000.964 7        46.589               
E11  23512675.559 7 123560511.276 7      -573.795 7        43.023               
E12  26553150.276 6 139538298.976 6     -2841.851 6        37.060               
E24  26944443.220 6 141594547.459 6     -3251.286 6        38.724               
E25  23695851.601 7 124523102.693 7     -1249.680 7        47.099               
E36  25278124.396 7 132837833.378 7      1837.227 7        44.716               
> 2025 01 06 18 46 43.0000000  0  7                                             
E02  25064469.358 7 131714934.282 7      1525.828 7        44.426               
E10  24615085.141 7 129353397.701 7     -2001.472 7        46.819               
E11  23512783.801 7 123561084.286 7      -573.110 7        42.618               
E12  26553691.788 6 139541140.521 6     -2842.262 6        36.659               
E24  26945062.846 6 141597798.526 6     -3251.988 6        38.638               
E25  23696088.223 7 124524352.639 7     -1250.812 7        47.257               
E36  25277775.235 7 132835996.081 7      1836.519 7        44.607               
> 2025 01 06 18 46 44.0000000  0  7                                             
E02  25064180.237 7 131713409.423 7      1524.208 7        44.002               
E10  24615463.964 7 129355399.301 7     -2002.240 7        46.960               
E11  23512889.514 7 123561657.815 7      -573.563 7        42.932               
E12  26554229.583 6 139543982.333 6     -2842.432 6        36.710               
E24  26945680.801 6 141601049.882 6     -3250.787 6        38.488               
E25  23696325.917 7 124525603.158 7     -1251.496 7        47.269               
E36  25277425.145 7 132834159.190 7      1836.017 7        44.999               
> 2025 01 06 18 46 45.0000000  0  7                                             
E02  25063886.399 7 131711885.501 7      1524.040 7        44.380               
E10  24615846.174 7 129357401.806 7     -2002.791 7        46.938               
E11  23512999.212 7 123562232.370 7      -574.449 7        43.338               
E12  26554765.538 6 139546824.937 6     -2843.420 6        36.470               
E24  26946295.487 6 141604302.088 6     -3251.405 6        38.533               
E25  23696563.083 7 124526854.747 7     -1252.138 7        47.176               
E36  25277074.323 7 132832323.239 7      1835.558 7        44.464               
> 2025 01 06 18 46 46.0000000  0  7                                             
E02  25063596.778 7 131710362.045 7      1524.068 7        44.655               
E10  24616225.140 7 129359404.758 7     -2002.727 7        47.270               
E11  23513107.016 7 123562807.455 7      -576.133 7        43.403               
E12  26555306.201 6 139549667.844 6     -2843.267 6        36.781               
E24  26946914.515 6 141607554.639 6     -3254.005 6        38.671               
E25  23696800.062 7 124528106.937 7     -1252.835 7        47.222               
E36  25276722.625 7 132830487.718 7      1834.919 7        44.498               
> 2025 01 06 18 46 47.0000000  0  7                                             
E02  25063303.851 7 131708838.369 7      1523.680 7        44.359               
E10  24616605.965 7 129361407.443 7     -2001.912 7        46.945               
E11  23513215.534 7 123563382.358 7      -573.849 7        43.416               
E12  26555847.641 6 139552510.345 6     -2839.539 6        36.958               
E24  26947534.177 6 141610806.791 6     -3251.427 6        38.522               
E25  23697037.524 7 124529358.990 7     -1252.235 7        47.192               
E36  25276371.695 7 132828651.936 7      1836.736 7        44.471               
> 2025 01 06 18 46 48.0000000  0  7                                             
E02  25063015.775 7 131707313.629 7      1524.291 7        44.411               
E10  24616985.199 7 129363409.050 7     -2001.234 7        47.009               
E11  23513323.177 7 123563956.313 7      -573.500 7        43.665               
E12  26556388.930 6 139555351.625 6     -2840.272 6        36.971               
E24  26948155.080 6 141614057.812 6     -3251.192 6        38.062               
E25  23697273.448 7 124530610.135 7     -1250.878 7        47.508               
E36  25276020.631 7 132826815.080 7      1837.389 7        44.710               
> 2025 01 06 18 46 49.0000000  0  7                                             
E02  25062724.305 7 131705788.916 7      1524.160 7        44.426               
E10  24617365.961 7 129365410.641 7     -2002.163 7        47.386               
E11  23513433.518 7 123564530.355 7      -574.234 7        43.875               
E12  26556932.791 6 139558192.779 6     -2844.498 6        37.360               
E24  26948768.479 6 141617308.690 6     -3252.581 6        38.199               
E25  23697511.017 7 124531861.424 7     -1252.620 7        47.571               
E36  25275671.256 7 132824978.220 7      1836.185 7        44.987               
> 2025 01 06 18 46 50.0000000  0  7                                             
E02  25062432.039 7 131704265.260 7      1523.530 7        44.535               
E10  24617745.043 7 129367413.253 7     -2003.001 7        47.249               
E11  23513541.742 7 123565105.512 7      -576.915 7        43.460               
E12  26557467.531 6 139561034.802 6     -2843.342 6        37.162               
E24  26949383.227 6 141620560.496 6     -3251.008 6        38.441               
E25  23697747.907 7 124533113.870 7     -1252.552 7        47.460               
E36  25275322.649 7 132823142.383 7      1836.134 7        45.164               
> 2025 01 06 18 46 51.0000000  0  7                                             
E02  25062141.873 7 131702742.015 7      1523.189 7        44.265               
E10  24618124.519 7 129369416.250 7     -2003.463 7        46.936               
E11  23513649.412 7 123565681.146 7      -576.712 7        43.571               
E12  26558005.174 6 139563877.078 6     -2842.137 6        37.185               
E24  26949999.718 6 141623812.630 6     -3252.102 6        38.316               
E25  23697985.583 7 124534366.869 7     -1253.201 7        47.221               
E36  25274970.638 7 132821306.937 7      1834.700 7        44.945               
> 2025 01 06 18 46 52.0000000  0  7                                             
E02  25061850.474 7 131701219.231 7      1523.526 7        44.063               
E10  24618507.148 7 129371419.671 7     -2003.008 7        46.805               
E11  23513758.449 7 123566257.316 7      -576.145 7        43.604               
E12  26558549.437 6 139566719.643 6     -2841.420 6        37.375               
E24  26950621.068 6 141627065.095 6     -3253.106 6        38.641               
E25  23698222.133 7 124535620.440 7     -1254.297 7        47.353               
E36  25274618.958 7 132819471.930 7      1834.901 7        44.995               
> 2025 01 06 18 46 53.0000000  0  7                                             
E02  25061561.076 7 131699696.623 7      1522.420 7        44.086               
E10  24618885.730 7 129373423.247 7     -2003.568 7        46.811               
E11  23513867.780 7 123566833.748 7      -575.486 7        43.511               
E12  26559086.026 6 139569562.241 6     -2841.145 6        37.261               
E24  26951236.290 6 141630317.555 6     -3251.614 6        38.534               
