     3.02           OBSERVATION DATA    G                   RINEX VERSION / TYPE
G = GPS  R = GLONASS  E = GALILEO  S = GEO  M = MIXED       COMMENT             
GNSS-SDR            jmfriedt            20250106 185845 UTC PGM / RUN BY / DATE 
GPS OBSERVATION DATA FILE GENERATED BY GNSS-SDR             COMMENT             
GNSS-SDR VERSION 0.0.19                                     COMMENT             
See https://gnss-sdr.org                                    COMMENT             
DEFAULT MARKER NAME                                         MARKER NAME         
jmfriedt            CTTC                                    OBSERVER / AGENCY   
GNSS-SDR            Software Receiver   0.0.19              REC # / TYPE / VERS 
Antenna number      Antenna type                            ANT # / TYPE        
        0.0000        0.0000        0.0000                  APPROX POSITION XYZ 
        0.0000        0.0000        0.0000                  ANTENNA: DELTA H/E/N
G    4 C1C L1C D1C S1C                                      SYS / # / OBS TYPES 
DBHZ                                                        SIGNAL STRENGTH UNIT
  2025    01    06    18    45   18.1000000     GPS         TIME OF FIRST OBS   
                                                            END OF HEADER       
> 2025 01 06 18 45 19.0000000  0  5                                             
G26  21744913.979 8 114270309.996 8     -2964.636 8        48.546               
G16  20529633.034 7 107883956.370 7      -949.374 7        46.657               
G18  22129819.381 7 116292970.055 7     -2775.933 7        47.182               
G27  21036759.587 8 110548940.512 8      1475.335 8        49.110               
G23  21779792.069 8 114453579.700 8       933.989 8        48.204               
> 2025 01 06 18 45 20.0000000  0  5                                             
G26  21745476.469 8 114273276.129 8     -2966.695 8        48.545               
G16  20529810.929 7 107884905.327 7      -949.021 7        47.036               
G18  22130343.176 7 116295744.233 7     -2774.409 7        47.045               
G27  21036474.612 8 110547464.232 8      1475.627 8        49.588               
G23  21779613.058 8 114452645.403 8       933.645 8        48.081               
> 2025 01 06 18 45 21.0000000  0  5                                             
G26  21746038.361 8 114276242.856 8     -2965.352 8        48.557               
G16  20529989.646 7 107885855.096 7      -950.831 7        47.507               
G18  22130872.992 7 116298518.904 7     -2775.755 7        47.680               
G27  21036198.419 8 110545988.453 8      1475.324 8        49.083               
G23  21779432.080 8 114451711.896 8       931.587 8        48.272               
> 2025 01 06 18 45 22.0000000  0  5                                             
G26  21746602.504 8 114279210.016 8     -2967.225 8        48.879               
G16  20530168.712 7 107886805.485 7      -948.947 7        47.449               
G18  22131399.977 7 116301293.886 7     -2775.388 7        47.466               
G27  21035913.730 8 110544513.032 8      1476.496 8        49.359               
G23  21779252.309 8 114450778.990 8       932.628 8        48.012               
> 2025 01 06 18 45 23.0000000  0  5                                             
G26  21747168.049 8 114282177.459 8     -2967.777 8        48.562               
G16  20530351.932 7 107887756.392 7      -950.378 7        47.776               
G18  22131927.247 7 116304069.057 7     -2776.241 7        47.599               
G27  21035628.665 8 110543037.814 8      1474.960 8        49.086               
G23  21779076.567 7 114449846.581 7       931.862 7        47.876               
> 2025 01 06 18 45 24.0000000  0  5                                             
G26  21747730.369 8 114285145.669 8     -2968.972 8        48.555               
G16  20530528.763 7 107888708.247 7      -951.530 7        47.087               
G18  22132454.562 8 116306844.879 8     -2777.592 8        48.262               
G27  21035349.006 8 110541563.279 8      1474.416 8        48.749               
G23  21778896.679 7 114448915.118 7       930.901 7        47.819               
> 2025 01 06 18 45 25.0000000  0  5                                             
G26  21748295.522 8 114288114.589 8     -2967.392 8        48.900               
G16  20530709.884 7 107889661.041 7      -952.592 7        46.882               
G18  22132981.734 7 116309621.307 7     -2776.847 7        47.314               
G27  21035067.319 8 110540089.373 8      1473.969 8        48.631               
G23  21778715.488 7 114447984.550 7       929.730 7        47.946               
> 2025 01 06 18 45 26.0000000  0  5                                             
G26  21748859.459 8 114291083.801 8     -2969.528 8        48.280               
G16  20530893.613 7 107890614.336 7      -953.540 7        47.293               
G18  22133507.807 7 116312397.921 7     -2776.042 7        47.848               
G27  21034785.212 8 110538615.696 8      1473.327 8        48.824               
G23  21778540.166 7 114447054.474 7       929.419 7        47.534               
> 2025 01 06 18 45 27.0000000  0  5                                             
G26  21749424.121 8 114294053.302 8     -2968.969 8        49.021               
G16  20531073.116 7 107891568.130 7      -953.973 7        46.720               
G18  22134036.301 7 116315174.708 7     -2775.688 7        47.403               
G27  21034503.658 8 110537142.211 8      1472.122 8        49.279               
G23  21778364.835 7 114446124.868 7       929.425 7        47.112               
> 2025 01 06 18 45 28.0000000  0  5                                             
G26  21749989.094 8 114297023.414 8     -2970.106 8        49.110               
G16  20531249.144 7 107892522.738 7      -954.687 7        46.314               
G18  22134561.713 7 116317952.005 7     -2776.140 7        46.608               
G27  21034225.071 8 110535669.260 8      1472.747 8        48.756               
G23  21778184.894 7 114445196.062 7       927.862 7        47.055               
> 2025 01 06 18 45 29.0000000  0  5                                             
G26  21750554.390 8 114299993.229 8     -2969.963 8        49.023               
G16  20531432.918 7 107893477.253 7      -953.790 7        46.853               
G18  22135089.278 7 116320728.891 7     -2777.521 7        47.724               
G27  21033942.098 8 110534195.932 8      1473.926 8        48.344               
G23  21778006.856 7 114444267.149 7       929.267 7        47.626               
> 2025 01 06 18 45 30.0000000  0  5                                             
G26  21751116.344 8 114302963.245 8     -2970.551 8        49.245               
G16  20531611.573 7 107894432.191 7      -954.062 7        47.423               
G18  22135619.041 7 116323505.872 7     -2777.305 7        47.662               
G27  21033661.170 8 110532722.733 8      1472.974 8        48.823               
G23  21777830.399 7 114443338.635 7       927.714 7        47.527               
> 2025 01 06 18 45 31.0000000  0  5                                             
G26  21751681.711 8 114305934.155 8     -2971.251 8        49.216               
G16  20531790.826 7 107895388.224 7      -956.076 7        46.818               
G18  22136145.042 7 116326283.635 7     -2778.395 7        47.802               
G27  21033374.104 8 110531250.343 8      1472.077 8        48.427               
G23  21777652.048 7 114442411.194 7       927.567 7        47.573               
> 2025 01 06 18 45 32.0000000  0  5                                             
G26  21752247.927 8 114308905.391 8     -2970.926 8        48.950               
G16  20531973.992 7 107896344.797 7      -957.040 7        46.780               
G18  22136670.204 7 116329061.623 7     -2777.711 7        47.436               
G27  21033096.911 8 110529778.197 8      1473.084 8        48.619               
G23  21777475.342 7 114441484.270 7       926.630 7        47.704               
> 2025 01 06 18 45 33.0000000  0  5                                             
G26  21752810.667 8 114311876.971 8     -2972.264 8        49.059               
G16  20532154.559 7 107897301.934 7      -957.753 7        46.572               
G18  22137197.849 7 116331839.847 7     -2778.952 7        47.398               
G27  21032816.644 8 110528306.325 8      1472.696 8        48.874               
G23  21777293.962 8 114440557.889 8       926.969 8        48.263               
> 2025 01 06 18 45 34.0000000  0  5                                             
G26  21753376.007 8 114314849.011 8     -2973.159 8        49.213               
G16  20532335.170 7 107898259.731 7      -958.519 7        46.998               
G18  22137727.657 7 116334618.419 7     -2779.240 7        47.693               
G27  21032533.849 8 110526834.834 8      1473.137 8        48.424               
G23  21777116.478 7 114439632.157 7       926.824 7        47.415               
> 2025 01 06 18 45 35.0000000  0  5                                             
G26  21753939.632 8 114317821.420 8     -2972.285 8        48.379               
G16  20532515.486 7 107899218.107 7      -957.425 7        47.114               
G18  22138255.713 7 116337397.253 7     -2778.633 7        47.228               
G27  21032251.366 8 110525363.637 8      1471.097 8        48.156               
G23  21776943.417 7 114438706.985 7       924.426 7        47.586               
> 2025 01 06 18 45 36.0000000  0  5                                             
G26  21754504.221 8 114320794.167 8     -2972.938 8        49.165               
G16  20532698.009 7 107900177.035 7      -957.984 7        46.905               
G18  22138782.045 7 116340176.323 7     -2778.636 7        47.509               
G27  21031970.456 8 110523892.701 8      1470.325 8        48.891               
G23  21776766.165 7 114437782.348 7       924.596 7        47.809               
> 2025 01 06 18 45 37.0000000  0  5                                             
G26  21755069.106 8 114323767.346 8     -2975.410 8        49.130               
G16  20532876.905 7 107901136.593 7      -960.647 7        46.404               
G18  22139309.610 7 116342955.709 7     -2779.603 7        47.188               
G27  21031689.448 8 110522422.103 8      1469.176 8        48.832               
G23  21776586.992 7 114436858.318 7       924.291 7        47.923               
> 2025 01 06 18 45 38.0000000  0  5                                             
G26  21755633.043 8 114326741.239 8     -2973.856 8        48.966               
G16  20533061.965 7 107902097.083 7      -962.050 7        46.621               
G18  22139837.917 7 116345735.711 7     -2780.020 7        47.784               
G27  21031410.799 8 110520952.143 8      1470.312 8        49.297               
G23  21776412.858 7 114435935.205 7       921.946 7        47.143               
> 2025 01 06 18 45 39.0000000  0  5                                             
G26  21756201.912 8 114329715.340 8     -2974.236 8        49.389               
G16  20533237.278 7 107903057.984 7      -959.139 7        45.935               
G18  22140366.232 7 116348515.803 7     -2780.352 7        47.462               
G27  21031126.735 8 110519482.322 8      1469.448 8        48.512               
G23  21776237.063 7 114435012.487 7       920.241 7        47.235               
> 2025 01 06 18 45 40.0000000  0  5                                             
G26  21756766.672 8 114332689.554 8     -2974.072 8        49.146               
G16  20533415.924 7 107904019.204 7      -961.623 7        45.731               
G18  22140890.429 7 116351295.906 7     -2780.453 7        47.763               
G27  21030845.878 8 110518012.526 8      1469.399 8        48.365               
G23  21776061.759 8 114434090.068 8       921.886 8        48.439               
> 2025 01 06 18 45 41.0000000  0  5                                             
G26  21757328.438 8 114335663.874 8     -2974.220 8        49.087               
G16  20533602.494 7 107904980.761 7      -962.279 7        46.627               
G18  22141419.808 7 116354076.017 7     -2780.429 7        47.781               
G27  21030564.271 8 110516542.773 8      1468.827 8        48.883               
G23  21775883.828 8 114433167.956 8       920.697 8        48.535               
> 2025 01 06 18 45 42.0000000  0  5                                             
G26  21757890.991 8 114338639.004 8     -2974.992 8        48.667               
G16  20533784.437 7 107905943.323 7      -961.767 7        46.567               
G18  22141950.089 7 116356856.814 7     -2780.609 7        47.493               
G27  21030284.192 8 110515073.732 8      1468.750 8        48.819               
G23  21775707.416 8 114432246.842 8       920.011 8        48.450               
> 2025 01 06 18 45 43.0000000  0  5                                             
G26  21758458.645 8 114341614.832 8     -2975.687 8        48.327               
G16  20533970.033 7 107906906.792 7      -964.602 7        45.952               
G18  22142481.004 7 116359638.200 7     -2781.307 7        47.309               
G27  21030003.961 8 110513605.328 8      1467.540 8        48.867               
G23  21775529.879 7 114431326.612 7       920.717 7        47.827               
> 2025 01 06 18 45 44.0000000  0  5                                             
G26  21759020.822 8 114344591.060 8     -2976.977 8        49.136               
G16  20534151.038 7 107907870.872 7      -963.301 7        45.007               
G18  22143006.148 7 116362419.878 7     -2783.145 7        47.612               
G27  21029723.587 8 110512137.233 8      1467.437 8        49.384               
G23  21775352.001 7 114430406.979 7       919.875 7        47.803               
> 2025 01 06 18 45 45.0000000  0  5                                             
G26  21759586.529 8 114347567.811 8     -2977.461 8        48.678               
G16  20534328.656 7 107908835.697 7      -964.841 7        45.817               
G18  22143533.838 7 116365201.972 7     -2783.341 7        47.639               
G27  21029446.832 8 110510669.587 8      1467.234 8        48.841               
G23  21775176.787 7 114429488.057 7       916.468 7        47.987               
> 2025 01 06 18 45 46.0000000  0  5                                             
G26  21760154.147 8 114350545.255 8     -2978.873 8        49.144               
G16  20534515.548 7 107909801.417 7      -966.863 7        45.885               
G18  22144062.413 7 116367984.653 7     -2785.833 7        47.570               
G27  21029163.563 8 110509202.562 8      1468.410 8        48.477               
G23  21774998.829 8 114428570.027 8       916.714 8        48.093               
> 2025 01 06 18 45 47.0000000  0  5                                             
G26  21760716.173 8 114353522.969 8     -2976.884 8        48.879               
G16  20534696.534 7 107910767.635 7      -965.510 7        46.047               
G18  22144589.040 7 116370767.502 7     -2783.263 7        47.201               
G27  21028887.094 8 110507735.733 8      1467.318 8        48.840               
G23  21774823.936 7 114427652.462 7       917.760 7        47.940               
> 2025 01 06 18 45 48.0000000  0  5                                             
G26  21761282.317 8 114356501.145 8     -2978.484 8        48.339               
G16  20534883.882 7 107911734.506 7      -965.693 7        46.086               
G18  22145116.274 7 116373550.704 7     -2784.477 7        47.286               
G27  21028604.620 8 110506269.278 8      1466.424 8        48.481               
G23  21774649.070 7 114426735.544 7       916.521 7        47.603               
> 2025 01 06 18 45 49.0000000  0  5                                             
G26  21761848.702 8 114359479.317 8     -2979.962 8        48.308               
G16  20535065.083 7 107912701.580 7      -966.722 7        46.297               
G18  22145643.545 7 116376333.787 7     -2783.141 7        47.972               
G27  21028325.569 8 110504802.749 8      1467.171 8        48.716               
G23  21774474.266 7 114425818.816 7       916.423 7        47.693               
> 2025 01 06 18 45 50.0000000  0  5                                             
G26  21762415.785 8 114362458.279 8     -2979.454 8        48.548               
G16  20535252.091 7 107913669.675 7      -969.885 7        46.146               
G18  22146177.766 7 116379117.561 7     -2785.352 7        46.932               
G27  21028044.346 7 110503336.932 7      1465.245 7        47.977               
G23  21774296.559 8 114424903.081 8       916.321 8        48.351               
> 2025 01 06 18 45 51.0000000  0  5                                             
G26  21762982.099 8 114365437.865 8     -2980.719 8        48.483               
G16  20535433.006 7 107914638.585 7      -970.065 7        46.998               
G18  22146705.295 7 116381901.844 7     -2784.030 7        47.707               
G27  21027766.009 8 110501871.655 8      1465.249 8        49.167               
G23  21774120.906 8 114423988.146 8       914.943 8        48.159               
> 2025 01 06 18 45 52.0000000  0  5                                             
G26  21763546.063 8 114368417.633 8     -2978.328 8        48.388               
G16  20535611.330 7 107915607.902 7      -969.490 7        45.443               
G18  22147236.309 7 116384686.210 7     -2784.594 7        47.399               
G27  21027486.511 8 110500406.494 8      1465.348 8        49.090               
G23  21773945.066 7 114423073.600 7       914.930 7        47.515               
> 2025 01 06 18 45 53.0000000  0  5                                             
G26  21764112.788 8 114371397.517 8     -2980.770 8        48.670               
G16  20535799.330 7 107916577.532 7      -970.167 7        45.599               
G18  22147761.042 7 116387470.575 7     -2783.505 7        47.358               
G27  21027207.870 8 110498941.359 8      1466.054 8        48.946               
G23  21773770.361 7 114422159.354 7       911.985 7        47.750               
> 2025 01 06 18 45 54.0000000  0  5                                             
G26  21764679.254 8 114374377.463 8     -2979.954 8        48.042               
G16  20535980.754 7 107917547.435 7      -971.837 7        46.831               
G18  22148290.554 7 116390254.887 7     -2784.230 7        46.727               
G27  21026930.052 8 110497476.217 8      1465.781 8        48.656               
G23  21773594.288 7 114421245.363 7       913.378 7        47.392               
> 2025 01 06 18 45 55.0000000  0  5                                             
G26  21765244.514 8 114377357.569 8     -2979.943 8        48.186               
G16  20536163.367 7 107918517.724 7      -971.486 7        46.624               
G18  22148816.592 7 116393039.260 7     -2784.493 7        47.379               
G27  21026648.945 8 110496011.152 8      1464.869 8        48.621               
G23  21773419.020 7 114420331.725 7       912.203 7        47.516               
> 2025 01 06 18 45 56.0000000  0  5                                             
G26  21765809.139 8 114380338.524 8     -2981.409 8        48.154               
G16  20536350.098 7 107919489.065 7      -970.213 7        46.524               
G18  22149345.979 7 116395824.372 7     -2785.448 7        47.528               
G27  21026370.260 8 110494546.863 8      1464.803 8        49.249               
G23  21773247.379 7 114419419.131 7       912.737 7        47.436               
> 2025 01 06 18 45 57.0000000  0  5                                             
G26  21766373.202 8 114383320.338 8     -2981.876 8        48.729               
G16  20536533.148 7 107920461.489 7      -971.962 7        46.265               
G18  22149873.911 7 116398610.246 7     -2785.730 7        47.565               
G27  21026087.777 8 110493083.367 8      1463.489 8        49.712               
G23  21773069.073 7 114418507.594 7       912.722 7        47.758               
> 2025 01 06 18 45 58.0000000  0  5                                             
G26  21766937.773 7 114386302.653 7     -2981.912 7        47.895               
G16  20536716.913 7 107921434.626 7      -972.498 7        46.310               
G18  22150404.496 7 116401396.509 7     -2784.906 7        47.170               
G27  21025810.656 8 110491620.285 8      1462.889 8        49.467               
G23  21772895.502 7 114417596.749 7       910.849 7        47.911               
> 2025 01 06 18 45 59.0000000  0  5                                             
G26  21767509.278 8 114389285.328 8     -2983.110 8        48.485               
G16  20536901.777 7 107922408.332 7      -973.226 7        46.515               
G18  22150929.336 7 116404183.023 7     -2785.749 7        46.527               
G27  21025531.881 8 110490157.498 8      1464.580 8        49.346               
G23  21772721.127 7 114416686.468 7       909.250 7        47.419               
> 2025 01 06 18 46 00.0000000  0  5                                             
G26  21768073.537 8 114392268.648 8     -2983.839 8        48.106               
G16  20537086.731 7 107923382.887 7      -975.576 7        46.596               
G18  22151460.966 7 116406970.070 7     -2787.288 7        46.527               
G27  21025249.961 8 110488695.271 8      1461.960 8        49.891               
G23  21772547.833 7 114415777.008 7       909.211 7        47.302               
> 2025 01 06 18 46 01.0000000  0  5                                             
G26  21768639.163 8 114395252.681 8     -2985.024 8        48.207               
G16  20537272.247 7 107924358.361 7      -977.502 7        46.602               
G18  22151985.457 7 116409757.721 7     -2787.670 7        46.936               
G27  21024973.554 8 110487233.685 8      1461.411 8        49.390               
G23  21772374.406 7 114414868.465 7       908.239 7        46.830               
> 2025 01 06 18 46 02.0000000  0  5                                             
G26  21769208.846 8 114398236.875 8     -2984.076 8        48.061               
G16  20537458.156 7 107925334.217 7      -975.723 7        46.110               
G18  22152520.617 7 116412545.432 7     -2788.770 7        46.230               
G27  21024693.431 8 110485772.186 8      1461.628 8        49.275               
G23  21772195.546 7 114413960.271 7       909.764 7        47.300               
> 2025 01 06 18 46 03.0000000  0  5                                             
G26  21769776.205 7 114401221.382 7     -2984.451 7        47.818               
G16  20537640.483 7 107926310.604 7      -978.012 7        46.623               
G18  22153045.350 7 116415333.353 7     -2788.449 7        46.787               
G27  21024413.164 8 110484310.928 8      1461.627 8        49.711               
G23  21772026.978 7 114413052.592 7       906.145 7        47.608               
> 2025 01 06 18 46 04.0000000  0  5                                             
G26  21770342.573 7 114404206.180 7     -2984.849 7        47.755               
G16  20537826.553 7 107927287.501 7      -977.997 7        46.737               
G18  22153578.222 7 116418121.457 7     -2788.460 7        46.771               
G27  21024134.336 8 110482849.889 8      1462.622 8        49.268               
G23  21771852.639 7 114412145.401 7       907.262 7        47.695               
> 2025 01 06 18 46 05.0000000  0  5                                             
G26  21770911.165 7 114407191.005 7     -2984.545 7        47.748               
G16  20538011.587 7 107928264.619 7      -976.467 7        47.016               
G18  22154106.841 7 116420909.461 7     -2787.752 7        46.963               
G27  21023852.586 8 110481388.790 8      1463.696 8        49.431               
G23  21771677.147 7 114411238.426 7       906.266 7        47.966               
> 2025 01 06 18 46 06.0000000  0  5                                             
G26  21771478.122 8 114410175.849 8     -2985.763 8        48.094               
G16  20538193.824 7 107929241.968 7      -977.874 7        47.295               
G18  22154636.711 7 116423697.387 7     -2788.835 7        47.271               
G27  21023576.912 8 110479927.640 8      1460.088 8        49.413               
G23  21771503.845 8 114410331.653 8       906.975 8        48.064               
> 2025 01 06 18 46 07.0000000  0  5                                             
G26  21772044.025 8 114413161.511 8     -2986.375 8        48.603               
G16  20538382.208 7 107930220.364 7      -978.817 7        46.709               
G18  22155165.581 7 116426486.034 7     -2788.182 7        47.336               
G27  21023294.912 8 110478467.235 8      1460.208 8        49.886               
G23  21771330.247 7 114409425.913 7       904.727 7        47.795               
> 2025 01 06 18 46 08.0000000  0  5                                             
G26  21772613.243 7 114416148.116 7     -2985.757 7        47.945               
G16  20538565.866 7 107931199.898 7      -980.945 7        47.534               
G18  22155696.049 7 116429275.512 7     -2790.064 7        47.511               
G27  21023017.075 8 110477007.697 8      1458.005 8        49.585               
G23  21771157.632 8 114408521.296 8       903.583 8        48.204               
> 2025 01 06 18 46 09.0000000  0  5                                             
G26  21773181.621 8 114419135.930 8     -2988.557 8        48.459               
G16  20538749.988 7 107932180.863 7      -982.341 7        47.477               
G18  22156225.669 7 116432066.078 7     -2789.841 7        47.438               
G27  21022739.221 8 110475549.287 8      1457.410 8        49.536               
G23  21770987.680 8 114407618.093 8       902.597 8        48.124               
> 2025 01 06 18 46 10.0000000  0  5                                             
G26  21773744.129 8 114422123.630 8     -2987.829 8        48.094               
G16  20538937.470 7 107933161.930 7      -981.480 7        47.518               
G18  22156757.335 7 116434856.436 7     -2789.876 7        47.153               
G27  21022459.642 8 110474090.703 8      1458.658 8        49.006               
G23  21770810.017 8 114406714.971 8       901.472 8        48.120               
> 2025 01 06 18 46 11.0000000  0  5                                             
G26  21774315.482 8 114425111.362 8     -2987.619 8        48.248               
G16  20539124.800 7 107934143.231 7      -982.676 7        47.478               
G18  22157285.660 7 116437646.701 7     -2788.672 7        46.800               
G27  21022178.232 8 110472632.063 8      1459.717 8        49.242               
G23  21770637.340 7 114405812.068 7       900.630 7        47.891               
> 2025 01 06 18 46 12.0000000  0  5                                             
G26  21774880.009 8 114428099.610 8     -2988.196 8        48.482               
G16  20539310.003 7 107935125.248 7      -981.590 7        47.456               
G18  22157817.844 7 116440437.383 7     -2791.286 7        46.880               
G27  21021901.039 8 110471173.855 8      1458.373 8        49.276               
G23  21770466.137 7 114404909.880 7       900.630 7        46.804               
> 2025 01 06 18 46 13.0000000  0  5                                             
G26  21775449.531 8 114431088.047 8     -2988.719 8        48.301               
G16  20539496.761 8 107936107.686 8      -984.311 8        48.228               
G18  22158345.105 7 116443228.148 7     -2788.193 7        47.413               
G27  21021624.194 8 110469715.779 8      1458.264 8        49.113               
G23  21770294.648 7 114404008.076 7       901.950 7        47.759               
> 2025 01 06 18 46 14.0000000  0  5                                             
G26  21776020.767 7 114434076.811 7     -2990.058 7        47.781               
G16  20539682.072 7 107937090.671 7      -983.534 7        47.822               
G18  22158874.591 7 116446019.131 7     -2791.801 7        47.473               
G27  21021343.427 8 110468257.954 8      1458.366 8        49.436               
G23  21770128.368 8 114403106.805 8       900.865 8        48.319               
> 2025 01 06 18 46 15.0000000  0  5                                             
G26  21776584.767 8 114437066.313 8     -2989.824 8        48.460               
G16  20539867.151 7 107938074.598 7      -985.491 7        47.003               
G18  22159409.536 7 116448810.748 7     -2791.029 7        47.581               
G27  21021066.787 8 110466800.784 8      1458.452 8        49.025               
G23  21769951.724 8 114402206.459 8       901.039 8        48.024               
> 2025 01 06 18 46 16.0000000  0  5                                             
G26  21777152.046 8 114440056.165 8     -2990.951 8        48.447               
G16  20540053.364 7 107939059.090 7      -986.058 7        46.783               
G18  22159937.628 7 116451602.600 7     -2791.720 7        47.295               
G27  21020788.737 8 110465343.894 8      1457.013 8        48.961               
G23  21769780.663 7 114401306.664 7       900.448 7        47.462               
> 2025 01 06 18 46 17.0000000  0  5                                             
G26  21777721.523 7 114443046.449 7     -2990.042 7        47.847               
G16  20540239.988 7 107940044.219 7      -985.578 7        47.417               
G18  22160472.394 7 116454394.778 7     -2792.155 7        46.912               
G27  21020508.461 8 110463887.359 8      1455.270 8        48.418               
G23  21769607.084 7 114400407.490 7       897.933 7        47.563               
> 2025 01 06 18 46 18.0000000  0  5                                             
G26  21778285.246 8 114446037.220 8     -2991.577 8        49.114               
G16  20540427.836 7 107941030.056 7      -987.369 7        47.371               
G18  22161001.192 7 116457187.336 7     -2793.609 7        47.028               
G27  21020232.733 8 110462431.242 8      1456.617 8        48.749               
G23  21769432.736 8 114399508.997 8       898.292 8        48.033               
> 2025 01 06 18 46 19.0000000  0  5                                             
G26  21778855.125 8 114449028.377 8     -2990.137 8        48.133               
G16  20540612.968 7 107942016.498 7      -983.891 7        47.323               
G18  22161530.160 7 116459980.180 7     -2792.935 7        47.393               
G27  21019954.316 8 110460975.446 8      1456.554 8        49.422               
G23  21769262.238 8 114398611.104 8       899.498 8        48.472               
> 2025 01 06 18 46 20.0000000  0  5                                             
G26  21779422.806 8 114452019.685 8     -2991.420 8        48.710               
G16  20540802.147 7 107943003.277 7      -986.144 7        47.666               
G18  22162062.907 8 116462773.054 8     -2792.757 8        48.194               
G27  21019676.497 8 110459519.703 8      1454.538 8        49.912               
G23  21769088.409 8 114397713.535 8       896.697 8        48.784               
> 2025 01 06 18 46 21.0000000  0  5                                             
G26  21779991.756 8 114455011.367 8     -2992.138 8        48.227               
G16  20540983.411 7 107943990.672 7      -988.067 7        47.273               
G18  22162589.990 7 116465566.200 7     -2790.383 7        47.683               
G27  21019398.142 8 110458064.279 8      1455.455 8        49.290               
G23  21768919.314 8 114396816.554 8       897.465 8        48.342               
> 2025 01 06 18 46 22.0000000  0  5                                             
G26  21780560.598 8 114458003.626 8     -2992.927 8        48.360               
G16  20541171.437 7 107944978.849 7      -989.275 7        46.879               
G18  22163122.362 7 116468359.810 7     -2792.584 7        47.699               
G27  21019120.449 8 110456609.353 8      1453.717 8        48.916               
G23  21768746.583 8 114395920.341 8       896.769 8        48.131               
> 2025 01 06 18 46 23.0000000  0  5                                             
G26  21781129.896 8 114460996.308 8     -2992.453 8        48.469               
G16  20541359.804 7 107945967.659 7      -988.215 7        47.463               
G18  22163651.857 7 116471153.736 7     -2794.802 7        47.385               
G27  21018841.138 8 110455154.774 8      1454.989 8        49.533               
G23  21768577.515 8 114395024.746 8       894.781 8        48.947               
> 2025 01 06 18 46 24.0000000  0  5                                             
G26  21781702.286 8 114463989.282 8     -2992.178 8        48.515               
G16  20541545.749 7 107946956.990 7      -989.261 7        47.870               
G18  22164182.307 7 116473947.857 7     -2794.724 7        47.456               
G27  21018562.372 8 110453700.423 8      1455.465 8        49.888               
G23  21768404.892 8 114394129.649 8       895.726 8        48.625               
> 2025 01 06 18 46 25.0000000  0  5                                             
G26  21782266.840 8 114466983.244 8     -2994.403 8        48.231               
G16  20541737.108 7 107947947.494 7      -992.671 7        47.337               
G18  22164716.341 7 116476742.849 7     -2793.633 7        47.305               
G27  21018287.574 8 110452246.982 8      1453.935 8        50.447               
G23  21768234.135 8 114393235.726 8       892.248 8        48.681               
> 2025 01 06 18 46 26.0000000  0  5                                             
G26  21782835.218 8 114469977.136 8     -2994.918 8        49.012               
G16  20541926.600 7 107948938.170 7      -990.745 7        47.311               
G18  22165245.148 7 116479537.665 7     -2793.713 7        47.563               
G27  21018009.960 8 110450793.394 8      1454.224 8        50.429               
G23  21768065.273 8 114392341.932 8       894.017 8        48.438               
> 2025 01 06 18 46 27.0000000  0  5                                             
G26  21783406.455 8 114472971.544 8     -2993.746 8        48.440               
G16  20542110.928 7 107949929.562 7      -992.215 7        46.743               
G18  22165775.483 7 116482332.886 7     -2794.627 7        46.916               
G27  21017733.947 8 110449340.263 8      1452.805 8        50.402               
G23  21767895.070 8 114391448.857 8       892.694 8        48.487               
> 2025 01 06 18 46 28.0000000  0  5                                             
G26  21783971.866 7 114475966.351 7     -2996.365 7        47.969               
G16  20542298.329 7 107950921.567 7      -992.395 7        47.242               
G18  22166304.513 7 116485128.403 7     -2794.327 7        47.623               
G27  21017457.155 8 110447887.451 8      1453.219 8        50.024               
G23  21767724.368 8 114390556.370 8       891.522 8        48.114               
> 2025 01 06 18 46 29.0000000  0  5                                             
G26  21784544.238 8 114478961.924 8     -2997.941 8        48.368               
G16  20542481.407 7 107951914.540 7      -994.167 7        47.135               
G18  22166837.403 7 116487924.563 7     -2798.142 7        47.589               
G27  21017178.586 8 110446435.317 8      1450.260 8        49.707               
G23  21767555.809 8 114389664.845 8       890.284 8        48.345               
> 2025 01 06 18 46 30.0000000  0  5                                             
G26  21785110.114 7 114481958.450 7     -2997.937 7        47.985               
G16  20542673.909 7 107952908.709 7      -993.316 7        47.239               
G18  22167369.114 7 116490721.596 7     -2796.001 7        47.430               
G27  21016897.962 8 110444984.088 8      1452.373 8        49.740               
G23  21767383.507 8 114388774.488 8       889.345 8        48.344               
> 2025 01 06 18 46 31.0000000  0  5                                             
G26  21785680.270 8 114484954.265 8     -2994.463 8        48.390               
G16  20542862.865 7 107953902.354 7      -990.988 7        47.599               
G18  22167900.118 7 116493517.788 7     -2793.475 7        47.613               
G27  21016625.067 8 110443532.064 8      1452.926 8        49.463               
G23  21767212.894 8 114387883.600 8       890.480 8        48.714               
> 2025 01 06 18 46 32.0000000  0  5                                             
G26  21786246.128 7 114487950.112 7     -2996.408 7        47.745               
G16  20543048.650 7 107954896.257 7      -994.310 7        46.777               
G18  22168433.017 7 116496313.909 7     -2793.620 7        46.509               
G27  21016347.900 8 110442080.000 8      1453.120 8        49.163               
G23  21767037.965 7 114386992.951 7       888.783 7        47.708               
> 2025 01 06 18 46 33.0000000  0  5                                             
G26  21786819.402 8 114490946.899 8     -2997.259 8        48.534               
G16  20543233.523 7 107955891.313 7      -995.773 7        46.555               
G18  22168961.994 7 116499110.868 7     -2797.458 7        47.242               
G27  21016070.064 8 110440628.810 8      1451.064 8        49.579               
G23  21766867.083 8 114386103.434 8       888.565 8        48.728               
> 2025 01 06 18 46 34.0000000  0  5                                             
G26  21787386.931 8 114493944.308 8     -2998.662 8        48.898               
G16  20543422.532 7 107956887.195 7      -994.262 7        47.005               
G18  22169492.642 7 116501908.333 7     -2797.957 7        47.266               
G27  21015793.308 8 110439178.155 8      1451.743 8        49.120               
G23  21766699.731 8 114385214.742 8       887.918 8        48.690               
> 2025 01 06 18 46 35.0000000  0  5                                             
G26  21787954.666 7 114496942.146 7     -2998.153 7        47.957               
G16  20543614.052 7 107957883.745 7      -996.394 7        47.313               
G18  22170023.235 7 116504706.130 7     -2797.120 7        47.818               
G27  21015513.283 8 110437727.873 8      1449.948 8        48.673               
G23  21766528.662 8 114384326.690 8       887.661 8        48.248               
> 2025 01 06 18 46 36.0000000  0  5                                             
G26  21788525.813 7 114499940.364 7     -2999.306 7        47.583               
G16  20543800.900 7 107958880.875 7      -998.578 7        47.437               
G18  22170557.421 7 116507504.189 7     -2797.605 7        47.923               
G27  21015235.518 8 110436277.889 8      1450.305 8        48.884               
G23  21766359.005 8 114383439.197 8       887.012 8        48.004               
> 2025 01 06 18 46 37.0000000  0  5                                             
G26  21789100.517 8 114502938.668 8     -2999.728 8        48.260               
G16  20543988.614 7 107959878.301 7      -999.567 7        46.330               
G18  22171088.595 7 116510302.224 7     -2797.367 7        47.636               
G27  21014959.566 8 110434827.918 8      1451.063 8        49.293               
G23  21766192.153 8 114382551.994 8       887.448 8        48.193               
> 2025 01 06 18 46 38.0000000  0  5                                             
G26  21789662.980 8 114505937.276 8     -2999.608 8        48.331               
G16  20544183.225 7 107960876.254 7      -997.853 7        46.784               
G18  22171619.591 7 116513100.463 7     -2799.350 7        47.977               
G27  21014679.657 8 110433378.197 8      1448.889 8        49.011               
G23  21766018.430 7 114381665.298 7       886.171 7        47.905               
> 2025 01 06 18 46 39.0000000  0  5                                             
G26  21790231.555 8 114508936.628 8     -2999.993 8        48.379               
G16  20544371.520 7 107961875.167 7      -998.658 7        47.638               
G18  22172149.417 7 116515899.341 7     -2799.007 7        47.566               
G27  21014405.457 8 110431929.131 8      1448.630 8        48.968               
G23  21765848.397 7 114380779.539 7       886.108 7        47.847               
> 2025 01 06 18 46 40.0000000  0  5                                             
G26  21790804.418 7 114511936.463 7     -3000.751 7        47.992               
G16  20544557.242 7 107962874.772 7     -1001.838 7        47.318               
G18  22172682.289 7 116518698.582 7     -2800.801 7        47.503               
G27  21014128.898 8 110430480.484 8      1448.173 8        49.245               
G23  21765677.632 8 114379894.463 8       884.002 8        48.168               
> 2025 01 06 18 46 41.0000000  0  5                                             
G26  21791372.340 8 114514936.901 8     -3001.587 8        48.602               
G16  20544747.815 7 107963875.209 7     -1000.267 7        46.449               
G18  22173210.846 7 116521498.329 7     -2799.890 7        47.756               
G27  21013848.051 8 110429032.373 8      1449.543 8        49.378               
G23  21765510.834 8 114379010.197 8       884.715 8        48.142               
> 2025 01 06 18 46 42.0000000  0  5                                             
G26  21791940.870 8 114517937.556 8     -3001.338 8        48.283               
G16  20544936.610 7 107964876.057 7     -1001.448 7        47.300               
G18  22173743.405 7 116524298.185 7     -2802.529 7        47.242               
G27  21013572.376 8 110427584.398 8      1448.109 8        49.232               
G23  21765341.739 8 114378126.342 8       884.256 8        48.567               
> 2025 01 06 18 46 43.0000000  0  5                                             
G26  21792513.080 8 114520938.769 8     -3002.910 8        48.349               
G16  20545123.511 7 107965877.674 7     -1001.593 7        47.280               
G18  22174273.945 7 116527098.480 7     -2802.652 7        47.366               
G27  21013297.569 8 110426136.910 8      1447.784 8        49.355               
G23  21765171.519 8 114377243.241 8       881.912 8        48.587               
> 2025 01 06 18 46 44.0000000  0  5                                             
G26  21793082.298 8 114523940.558 8     -3001.717 8        48.193               
G16  20545314.317 7 107966880.086 7     -1003.805 7        46.600               
G18  22174807.479 7 116529899.256 7     -2800.012 7        46.992               
G27  21013019.955 8 110424689.934 8      1445.482 8        49.388               
G23  21765004.756 8 114376360.918 8       881.619 8        49.132               
> 2025 01 06 18 46 45.0000000  0  5                                             
G26  21793653.723 8 114526943.433 8     -3003.280 8        48.638               
G16  20545503.594 7 107967883.811 7     -1005.043 7        46.975               
G18  22175337.000 7 116532701.008 7     -2801.160 7        46.557               
G27  21012742.726 8 110423243.969 8      1445.839 8        49.530               
G23  21764833.571 8 114375479.882 8       880.205 8        48.396               
> 2025 01 06 18 46 46.0000000  0  5                                             
G26  21794222.923 7 114529946.916 7     -3002.759 7        47.850               
G16  20545695.293 7 107968888.364 7     -1004.860 7        46.462               
G18  22175871.740 7 116535503.262 7     -2802.411 7        46.889               
G27  21012468.080 8 110421798.547 8      1444.531 8        48.865               
G23  21764663.601 7 114374599.655 7       878.807 7        47.588               
> 2025 01 06 18 46 47.0000000  0  5                                             
G26  21794791.586 7 114532950.299 7     -3002.567 7        47.663               
G16  20545885.929 7 107969893.003 7     -1003.683 7        47.263               
G18  22176403.844 7 116538305.289 7     -2802.712 7        46.264               
G27  21012192.682 8 110420352.941 8      1445.775 8        48.789               
G23  21764495.694 7 114373719.519 7       880.904 7        47.025               
> 2025 01 06 18 46 48.0000000  0  5                                             
G26  21795362.332 7 114535952.765 7     -3001.975 7        47.430               
G16  20546075.760 7 107970896.969 7     -1003.342 7        46.776               
G18  22176936.778 7 116541106.314 7     -2800.348 7        46.271               
G27  21011916.007 8 110418906.364 8      1446.515 8        48.709               
G23  21764325.027 7 114372838.680 7       882.650 7        47.259               
> 2025 01 06 18 46 49.0000000  0  5                                             
G26  21795930.754 7 114538955.392 7     -3003.918 7        47.562               
G16  20546266.879 7 107971901.303 7     -1005.699 7        47.132               
G18  22177466.827 7 116543907.389 7     -2803.913 7        46.881               
G27  21011638.698 8 110417459.876 8      1445.213 8        49.403               
G23  21764161.588 7 114371958.198 7       879.897 7        47.868               
> 2025 01 06 18 46 50.0000000  0  5                                             
G26  21796504.868 7 114541959.210 7     -3004.144 7        47.710               
G16  20546457.139 7 107972907.030 7     -1005.524 7        46.864               
G18  22177999.378 7 116546709.519 7     -2801.522 7        46.473               
G27  21011363.997 8 110416014.495 8      1444.957 8        49.189               
G23  21763989.804 8 114371079.097 8       877.264 8        48.159               
> 2025 01 06 18 46 51.0000000  0  5                                             
G26  21797074.524 7 114544963.587 7     -3006.631 7        47.758               
G16  20546646.810 7 107973913.529 7     -1006.424 7        47.304               
G18  22178532.411 7 116549512.124 7     -2803.395 7        46.400               
G27  21011090.378 8 110414569.605 8      1443.796 8        49.220               
G23  21763822.577 8 114370200.756 8       878.982 8        48.063               
> 2025 01 06 18 46 52.0000000  0  5                                             
G26  21797646.949 8 114547968.535 8     -3004.903 8        48.151               
G16  20546836.865 7 107974920.842 7     -1007.881 7        46.753               
G18  22179064.425 7 116552315.196 7     -2803.570 7        46.629               
G27  21010808.262 8 110413125.238 8      1443.602 8        49.693               
G23  21763650.767 7 114369323.205 7       876.289 7        47.795               
> 2025 01 06 18 46 53.0000000  0  5                                             
G26  21798216.292 8 114550973.798 8     -3006.476 8        48.288               
G16  20547031.244 7 107975928.679 7     -1008.951 7        47.130               
G18  22179598.307 7 116555118.475 7     -2804.970 7        46.816               
G27  21010534.535 8 110411681.099 8      1443.967 8        49.430               
G23  21763485.067 8 114368446.168 8       877.092 8        48.213               
> 2025 01 06 18 46 54.0000000  0  5                                             
G26  21798786.340 8 114553979.345 8     -3005.001 8        48.319               
G16  20547219.834 7 107976936.998 7     -1009.777 7        47.557               
G18  22180128.793 7 116557921.914 7     -2804.947 7        47.136               
G27  21010260.737 8 110410237.168 8      1444.072 8        49.446               
G23  21763314.338 8 114367569.593 8       875.706 8        48.039               
> 2025 01 06 18 46 55.0000000  0  5                                             
G26  21799358.935 8 114556985.248 8     -3005.898 8        48.462               
G16  20547410.773 7 107977945.887 7     -1009.612 7        46.437               
G18  22180666.999 7 116560725.612 7     -2803.822 7        47.447               
G27  21009978.925 8 110408793.522 8      1442.992 8        49.498               
G23  21763146.932 7 114366693.591 7       874.494 7        47.785               
> 2025 01 06 18 46 56.0000000  0  5                                             
G26  21799928.153 8 114559991.351 8     -3006.916 8        48.516               
G16  20547605.733 7 107978955.213 7     -1011.347 7        47.045               
G18  22181196.780 8 116563529.401 8     -2803.666 8        48.409               
G27  21009707.923 8 110407350.013 8      1443.329 8        49.328               
G23  21762977.882 7 114365817.988 7       874.989 7        47.901               
> 2025 01 06 18 46 57.0000000  0  5                                             
G26  21800500.114 8 114562997.935 8     -3006.608 8        48.675               
G16  20547791.526 7 107979965.195 7     -1009.060 7        46.922               
G18  22181728.500 7 116566333.547 7     -2803.430 7        46.655               
G27  21009431.087 8 110405906.908 8      1442.532 8        48.391               
G23  21762809.663 8 114364943.058 8       875.173 8        48.414               
> 2025 01 06 18 46 58.0000000  0  5                                             
G26  21801072.191 8 114566005.095 8     -3006.760 8        48.436               
G16  20547983.779 7 107980976.003 7     -1010.712 7        46.965               
G18  22182258.039 7 116569138.188 7     -2805.821 7        47.454               
G27  21009157.620 8 110404464.322 8      1442.199 8        48.671               
G23  21762641.846 8 114364068.915 8       874.851 8        48.143               
> 2025 01 06 18 46 59.0000000  0  5                                             
G26  21801644.285 8 114569012.483 8     -3007.281 8        48.773               
G16  20548170.948 7 107981987.242 7     -1010.409 7        47.978               
G18  22182791.662 7 116571942.936 7     -2803.404 7        47.556               
G27  21008881.945 8 110403021.894 8      1442.162 8        49.469               
G23  21762474.386 7 114363195.205 7       871.913 7        47.844               
> 2025 01 06 18 47 00.0000000  0  5                                             
G26  21802214.236 8 114572020.221 8     -3005.819 8        48.742               
G16  20548366.525 7 107982999.055 7     -1011.187 7        47.217               
G18  22183326.794 7 116574747.932 7     -2804.618 7        47.192               
G27  21008608.630 8 110401579.742 8      1442.227 8        49.485               
G23  21762308.258 7 114362322.045 7       872.291 7        47.632               
> 2025 01 06 18 47 01.0000000  0  5                                             
G26  21802787.215 8 114575028.213 8     -3008.379 8        48.412               
G16  20548558.742 7 107984011.340 7     -1012.862 7        47.324               
G18  22183855.521 7 116577553.074 7     -2805.259 7        47.807               
G27  21008332.759 8 110400137.776 8      1441.898 8        49.142               
G23  21762140.119 7 114361449.331 7       871.760 7        47.843               
> 2025 01 06 18 47 02.0000000  0  5                                             
G26  21803358.300 8 114578036.945 8     -3007.436 8        48.569               
G16  20548750.164 7 107985024.572 7     -1011.663 7        47.179               
G18  22184388.402 7 116580358.842 7     -2805.873 7        47.515               
G27  21008055.789 8 110398696.486 8      1442.905 8        49.477               
G23  21761974.768 7 114360577.572 7       869.164 7        47.270               
> 2025 01 06 18 47 03.0000000  0  5                                             
G26  21803930.466 8 114581046.271 8     -3009.370 8        48.496               
G16  20548941.380 7 107986038.629 7     -1013.174 7        46.937               
G18  22184923.660 7 116583165.101 7     -2805.708 7        47.397               
G27  21007780.740 8 110397255.718 8      1442.420 8        49.343               
G23  21761807.613 7 114359706.602 7       869.414 7        46.994               
> 2025 01 06 18 47 04.0000000  0  5                                             
G26  21804500.166 8 114584055.878 8     -3010.642 8        48.373               
G16  20549132.713 7 107987053.155 7     -1015.734 7        47.005               
G18  22185454.539 7 116585971.517 7     -2806.280 7        47.399               
G27  21007503.073 8 110395815.154 8      1439.315 8        49.547               
G23  21761641.842 7 114358836.109 7       870.102 7        47.442               
> 2025 01 06 18 47 05.0000000  0  5                                             
G26  21805074.217 8 114587065.842 8     -3010.858 8        48.818               
G16  20549323.232 7 107988068.271 7     -1014.685 7        47.139               
G18  22185993.478 8 116588778.194 8     -2807.654 8        48.162               
G27  21007227.712 8 110394374.889 8      1440.346 8        48.874               
G23  21761473.587 7 114357966.178 7       871.126 7        47.802               
> 2025 01 06 18 47 06.0000000  0  5                                             
G26  21805647.393 8 114590076.452 8     -3010.970 8        49.319               
G16  20549516.888 7 107989084.255 7     -1018.070 7        47.764               
G18  22186523.205 8 116591585.419 8     -2806.717 8        48.372               
G27  21006952.582 8 110392935.193 8      1439.785 8        49.462               
G23  21761307.646 7 114357097.109 7       869.214 7        47.822               
> 2025 01 06 18 47 07.0000000  0  5                                             
G26  21806220.194 8 114593087.577 8     -3008.791 8        49.024               
G16  20549707.720 7 107990100.959 7     -1016.226 7        47.823               
G18  22187054.273 7 116594393.037 7     -2806.990 7        47.402               
G27  21006676.595 8 110391495.944 8      1438.519 8        49.208               
G23  21761141.661 8 114356228.747 8       866.587 8        48.336               
> 2025 01 06 18 47 08.0000000  0  5                                             
G26  21806790.081 8 114596098.906 8     -3011.458 8        48.594               
G16  20549903.198 7 107991118.093 7     -1015.730 7        47.650               
G18  22187590.227 7 116597200.766 7     -2808.366 7        47.740               
G27  21006399.741 8 110390056.849 8      1438.267 8        49.512               
G23  21760976.596 7 114355360.794 7       868.243 7        47.956               
> 2025 01 06 18 47 09.0000000  0  5                                             
G26  21807361.658 8 114599110.524 8     -3012.308 8        48.401               
G16  20550096.443 7 107992135.729 7     -1017.675 7        47.380               
G18  22188122.840 7 116600008.668 7     -2808.311 7        47.712               
G27  21006126.345 8 110388617.956 8      1438.584 8        49.296               
G23  21760813.076 7 114354493.334 7       867.841 7        47.905               
> 2025 01 06 18 47 10.0000000  0  5                                             
G26  21807934.905 8 114602122.482 8     -3013.285 8        49.124               
G16  20550286.846 7 107993153.922 7     -1019.576 7        46.958               
G18  22188655.158 8 116602816.797 8     -2809.455 8        48.505               
G27  21005854.272 8 110387179.339 8      1437.755 8        49.291               
G23  21760644.473 7 114353626.415 7       865.995 7        47.684               
> 2025 01 06 18 47 11.0000000  0  5                                             
G26  21808505.257 8 114605135.047 8     -3013.103 8        49.228               
G16  20550480.001 7 107994172.935 7     -1019.995 7        46.983               
G18  22189189.683 8 116605625.424 8     -2808.846 8        48.473               
G27  21005577.347 8 110385741.265 8      1437.939 8        49.285               
G23  21760475.682 7 114352760.305 7       865.779 7        47.893               
> 2025 01 06 18 47 12.0000000  0  5                                             
G26  21809078.460 8 114608148.143 8     -3011.900 8        48.964               
G16  20550669.976 7 107995192.707 7     -1020.505 7        47.440               
G18  22189725.522 8 116608434.484 8     -2810.167 8        48.577               
G27  21005303.039 8 110384303.655 8      1436.439 8        49.603               
G23  21760312.458 7 114351894.928 7       865.521 7        47.341               
> 2025 01 06 18 47 13.0000000  0  5                                             
G26  21809652.413 8 114611161.591 8     -3013.916 8        48.726               
G16  20550868.340 7 107996213.041 7     -1020.430 7        47.601               
G18  22190258.555 8 116611243.787 8     -2808.563 8        48.142               
G27  21005031.305 8 110382866.326 8      1437.715 8        49.036               
G23  21760146.035 7 114351030.108 7       865.779 7        47.893               
> 2025 01 06 18 47 14.0000000  0  5                                             
G26  21810221.908 8 114614175.295 8     -3013.701 8        49.112               
G16  20551060.619 7 107997233.829 7     -1022.228 7        47.246               
G18  22190790.373 8 116614053.221 8     -2810.732 8        48.272               
G27  21004755.389 8 110381429.174 8      1437.331 8        49.893               
G23  21759979.960 7 114350165.740 7       863.127 7        46.695               
> 2025 01 06 18 47 15.0000000  0  5                                             
G26  21810796.227 8 114617189.627 8     -3014.589 8        49.143               
G16  20551255.133 7 107998255.490 7     -1021.811 7        47.226               
G18  22191327.292 8 116616863.181 8     -2808.942 8        48.195               
G27  21004483.199 8 110379992.603 8      1436.105 8        49.352               
G23  21759815.592 7 114349302.215 7       862.454 7        46.986               
> 2025 01 06 18 47 16.0000000  0  5                                             
G26  21811370.073 8 114620204.333 8     -3014.745 8        49.239               
G16  20551448.386 7 107999277.740 7     -1023.420 7        47.335               
G18  22191857.118 7 116619673.423 7     -2810.434 7        47.461               
G27  21004208.508 8 110378556.335 8      1436.947 8        49.717               
G23  21759647.962 8 114348439.258 8       862.377 8        48.135               
> 2025 01 06 18 47 17.0000000  0  5                                             
G26  21811943.043 8 114623219.075 8     -3014.572 8        48.525               
G16  20551635.385 7 108000300.234 7     -1024.090 7        47.003               
G18  22192394.555 7 116622483.579 7     -2811.417 7        47.871               
G27  21003932.941 8 110377120.023 8      1435.892 8        49.730               
G23  21759482.924 7 114347576.552 7       861.966 7        47.661               
> 2025 01 06 18 47 18.0000000  0  5                                             
G26  21812514.637 8 114626234.845 8     -3016.890 8        49.274               
G16  20551835.224 7 108001323.979 7     -1024.519 7        46.553               
G18  22192927.749 7 116625294.657 7     -2809.708 7        47.292               
G27  21003662.055 8 110375684.683 8      1435.241 8        49.680               
G23  21759317.225 7 114346715.068 7       862.416 7        47.344               
> 2025 01 06 18 47 19.0000000  0  5                                             
G26  21813088.394 8 114629251.329 8     -3016.598 8        49.316               
G16  20552029.915 7 108002348.647 7     -1024.203 7        46.459               
G18  22193461.738 8 116628106.345 8     -2810.724 8        48.149               
