     3.04           OBSERVATION DATA    M: Mixed            RINEX VERSION / TYPE
CONVBIN demo5 b34g                      20250106 185316 UTC PGM / RUN BY / DATE 
log: sortie.rtcm3                                           COMMENT             
format: RTCM 3                                              COMMENT             
format: RTCM 3                                              COMMENT             
log: sortie.rtcm3                                           COMMENT             
0000                                                        MARKER NAME         
                                                            MARKER NUMBER       
                                                            MARKER TYPE         
                                                            OBSERVER / AGENCY   
                    RTKBase U-blox_ZED-F2.4.1 1.13          REC # / TYPE / VERS 
                    ADVNULLANTENNA                          ANT # / TYPE        
  4313726.9591   452872.5035  4661056.3655                  APPROX POSITION XYZ 
        0.0000        0.0000        0.0000                  ANTENNA: DELTA H/E/N
G    4 C1C L1C C2X L2X                                      SYS / # / OBS TYPES 
R    4 C1C L1C C2C L2C                                      SYS / # / OBS TYPES 
E    4 C1B L1B C7X L7X                                      SYS / # / OBS TYPES 
C    4 C2I L2I C7I L7I                                      SYS / # / OBS TYPES 
  2025    01    06    18    43   47.0000000     GPS         TIME OF FIRST OBS   
  2025    01    06    18    49   37.0000000     GPS         TIME OF LAST OBS    
G L1C                                                       SYS / PHASE SHIFT   
G L2X  0.00000                                              SYS / PHASE SHIFT   
R L1C                                                       SYS / PHASE SHIFT   
R L2C                                                       SYS / PHASE SHIFT   
E L1X  0.00000                                              SYS / PHASE SHIFT   
E L7X  0.00000                                              SYS / PHASE SHIFT   
C L2I                                                       SYS / PHASE SHIFT   
C L7I                                                       SYS / PHASE SHIFT   
 11 R06 -4 R07  5 R08  6 R13 -2 R14 -7 R15  0 R17  4 R22 -3 GLONASS SLOT / FRQ #
    R23  3 R24  2 R26 -6                                    GLONASS SLOT / FRQ #
 C1C    0.000 C1P    0.000 C2C    0.000 C2P    0.000        GLONASS COD/PHS/BIS 
                                                            END OF HEADER       
> 2025 01 06 18 43 47.0000000  0 17                     
E02  24926921.018   130991769.6271   24926921.530   100370496.6911 
E10  24359354.515   128008953.0581   24359354.708    98084943.4081 
E11  23305180.727   122469873.5941   23305178.519    93840824.6511 
E12  26269426.186   138046527.9271   26269424.572   105776636.0231 
E14  21955255.685   115376201.3571   21955256.739    88404898.1311 
E16  24377168.951   128103538.9401   24377170.245    98157420.7191 
E24  26647189.976   140032270.5661   26647191.103   107297243.0141 
E25  23465956.630   123314066.4281   23465958.560    94488383.3211 
E36  25150601.829   132167309.9831   25150604.916   101271620.2301 
C08  38571227.140   200850038.2431   38571217.505   155309899.8941 
C13  38347809.385   199687155.4471   38347808.559   154410961.5741 
C27  23363764.023   121662299.7161                                 
C29  24171681.805   125868348.0881                                 
C30  21570311.029   112322070.3501                                 
C32  25902230.012   134879265.7711                                 
C33  26657824.837   138813782.5451                                 
C36  22882537.204   119154969.2081                                 
> 2025 01 06 18 43 48.0000000  0 38                     
G26  21504253.404   113005343.940    21504253.520    88056265.406  
G10  23268159.846   122274750.112    23268159.081    95279477.351  
G27  20872959.161   109687754.468    20872957.912    85471498.340  
G07  25001292.295   131382468.231    25001290.070   102375889.953  
G08  23372601.108   122824070.396    23372601.253    95706840.449  
G23  21606817.025   113544079.396    21606815.046    88476440.566  
G29  25440963.920   133693008.820    25440962.967   104176775.143  
G15  24782666.663   130234211.599    24782665.943   101480654.886  
G31  25710421.333   135108953.766    25710425.357   105279818.571  
G18  21892392.614   115046047.522    21892389.937    89645699.210  
G16  20324064.529   106804228.507                                  
R14  19797258.678   105529995.782    19797260.027    82078782.903  
R22  24129680.815   128806017.035    24129680.061   100182636.762  
R15  22630109.114   120927944.350    22630109.765    94055076.598  
R06  24339488.940   129879742.792                                  
R24  19963786.333   106755279.624    19963785.373    83032532.789  
R13  21509680.489   114861326.104                                  
R07  22706200.702   121547739.341    22706198.790    94537624.345  
R08  23098418.971   123691770.949    23098415.412    96204095.023  
R23  20429490.802   109283982.169                                  
R17  23802314.122   127370660.429    23802314.160    99066223.059  
E02  24926512.255   130989621.035    24926512.594   100368850.369  
E10  24359617.550   128010334.861    24359617.724    98086002.188  
E11  23305168.667   122469809.684    23305166.412    93840775.672  
E12  26269853.538   138048773.485    26269851.854   105778356.640  
E14  21956171.498   115381013.952    21956172.588    88408585.700  
E16  24377520.869   128105388.265    24377522.188    98158837.738  
E24  26647693.958   140034919.033    26647695.097   107299272.356  
E25  23466071.763   123314671.030    23466073.737    94488846.579  
E36  25150134.471   132164853.499    25150137.512   101269737.989  
C08  38571337.444   200850612.948    38571327.894   155310344.288  
C13  38347867.102   199687455.622    38347866.085   154411193.688  
C27  23364159.867   121664361.720                                  
C29  24171168.210   125865673.338                                  
C30  21570254.531   112321777.162                                  
C32  25901616.743   134876072.517                                  
C33  26658064.607   138815031.509                                  
C36  22882796.250   119156317.781                                  
> 2025 01 06 18 43 49.0000000  0 38                     
G26  21504701.129   113007696.695    21504701.364    88058098.722  
G10  23267502.749   122271296.838    23267501.938    95276786.472  
G27  20872562.945   109685672.585    20872561.711    85469876.089  
G07  25000968.369   131380765.884    25000966.142   102374563.458  
G08  23371973.946   122820774.536    23371974.147    95704272.248  
G23  21606519.312   113542515.066    21606517.245    88475221.612  
G29  25441532.877   133695998.376    25441531.803   104179104.675  
G15  24782299.124   130232280.839    24782298.538   101479150.354  
G31  25711030.135   135112152.095    25711034.110   105282310.832  
G18  21892805.701   115048218.128    21892802.908    89647390.598  
G16  20324124.842   106804545.324                                  
R14  19797175.213   105529551.258    19797176.685    82078437.164  
R22  24130322.861   128809443.664    24130321.982   100185301.923  
R15  22629376.624   120924030.035    22629377.304    94052032.126  
R06  24339936.362   129882129.836                                  
R24  19963473.518   106753606.932    19963472.519    83031231.809  
R13  21510389.272   114865110.959                                  
R07  22706096.140   121547178.974    22706094.160    94537188.499  
R08  23097790.412   123688404.872    23097786.889    96201476.963  
R23  20429897.704   109286158.859                                  
R17  23801628.559   127366992.084    23801628.705    99063369.894  
E02  24926103.414   130987472.883    24926103.930   100367204.386  
E10  24359880.368   128011717.084    24359880.775    98087061.298  
E11  23305156.589   122469746.289    23305154.162    93840727.100  
E12  26270280.941   138051019.358    26270279.210   105780077.500  
E14  21957087.321   115385827.338    21957088.647    88412273.866  
E16  24377873.047   128107238.087    24377874.164    98160255.127  
E24  26648198.062   140037567.832    26648199.160   107301301.963  
E25  23466187.027   123315276.213    23466188.820    94489310.292  
E36  25149667.086   132162397.449    25149670.065   101267856.086  
C08  38571448.009   200851187.940    38571438.314   155310788.911  
C13  38347924.701   199687756.117    38347923.818   154411426.048  
C27  23364556.051   121666424.053                                  
C29  24170654.730   125862998.915                                  
C30  21570198.285   112321484.453                                  
C32  25901003.598   134872879.554                                  
C33  26658304.539   138816281.136                                  
C36  22883055.275   119157667.014                                  
> 2025 01 06 18 43 50.0000000  0 38                     
G26  21505148.989   113010049.937    21505149.170    88059932.420  
G10  23266845.634   122267843.835    23266844.794    95274095.831  
G27  20872166.810   109683591.084    20872165.545    85468254.146  
G07  25000644.657   131379064.066    25000642.322   102373237.379  
G08  23371346.775   122817478.817    23371346.961    95701704.151  
G23  21606221.772   113540951.405    21606219.767    88474003.169  
G29  25442101.832   133698988.050    25442100.732   104181434.297  
G15  24781931.744   130230350.640    24781931.186   101477646.344  
G31  25711638.836   135115350.454    25711642.899   105284802.992  
G18  21893218.787   115050389.115    21893215.902    89649082.267  
G16  20324185.313   106804862.828                                  
R14  19797092.008   105529107.707    19797093.392    82078092.186  
R22  24130964.792   128812870.281    24130963.904   100187967.063  
R15  22628644.273   120920116.169    22628644.940    94048988.022  
R06  24340383.769   129884517.535                                  
R24  19963160.758   106751934.759    19963159.831    83029931.230  
R13  21511098.182   114868896.284                                  
R07  22705991.709   121546619.500    22705989.599    94536753.357  
R08  23097161.902   123685039.312    23097158.433    96198859.321  
R23  20430304.714   109288335.892                                  
R17  23800943.086   127363323.932    23800943.267    99060516.909  
E02  24925694.580   130985325.073    24925695.166   100365558.658  
E10  24360143.713   128013099.636    24360143.842    98088120.659  
E11  23305144.727   122469683.312    23305142.231    93840678.849  
E12  26270708.272   138053265.414    26270706.511   105781798.512  
E14  21958003.502   115390641.386    21958004.685    88415962.574  
E16  24378225.059   128109088.281    24378226.180    98161672.810  
E24  26648702.206   140040216.869    26648703.232   107303331.740  
E25  23466302.169   123315881.860    23466304.041    94489774.355  
E36  25149199.777   132159941.709    25149202.748   101265974.419  
C08  38571558.445   200851763.161    38571548.793   155311233.703  
C13  38347982.537   199688056.810    38347981.516   154411658.562  
C27  23364952.194   121668486.584                                  
C29  24170141.282   125860324.706                                  
C30  21570142.207   112321192.111                                  
C32  25900390.469   134869686.776                                  
C33  26658544.409   138817531.309                                  
C36  22883314.473   119159016.779                                  
> 2025 01 06 18 43 51.0000000  0 38                     
G26  21505596.920   113012403.517    21505597.049    88061766.384  
G10  23266188.584   122264391.002    23266187.743    95271405.318  
G27  20871770.707   109681509.845    20871769.521    85466632.400  
G07  25000320.852   131377362.666    25000318.613   102371911.593  
G08  23370719.752   122814183.122    23370719.853    95699136.075  
G23  21605924.328   113539388.257    21605922.366    88472785.135  
G29  25442670.767   133701977.656    25442669.690   104183763.849  
G15  24781564.405   130228420.789    24781563.930   101476142.571  
G31  25712247.431   135118548.486    25712251.552   105287294.990  
G18  21893632.010   115052560.336    21893629.091    89650774.132  
G16  20324245.844   106805180.872                                  
R14  19797009.010   105528664.967    19797010.334    82077747.828  
R22  24131606.756   128816296.765    24131605.885   100190632.115  
R15  22627911.928   120916202.643    22627912.572    94045944.166  
R06  24340831.336   129886905.733                                  
R24  19962848.093   106750262.957    19962847.153    83028630.938  
R13  21511807.113   114872681.968                                  
R07  22705887.362   121546060.767    22705885.388    94536318.791  
R08  23096533.357   123681674.096    23096530.094    96196241.916  
R23  20430711.690   109290513.144                                  
R17  23800257.616   127359655.840    23800257.712    99057663.943  
E02  24925285.796   130983177.433    24925286.446   100363913.075  
E10  24360406.628   128014482.349    24360406.931    98089180.144  
E11  23305132.692   122469620.609    23305130.367    93840630.799  
E12  26271135.598   138055511.482    26271134.057   105783519.534  
E14  21958919.992   115395456.067    21958920.847    88419651.737  
E16  24378577.019   128110938.710    24378578.302    98163090.667  
E24  26649206.256   140042865.956    26649207.439   107305361.571  
E25  23466417.460   123316487.814    23466419.348    94490238.662  
E36  25148732.417   132157486.137    25148735.510   101264092.879  
C08  38571668.885   200852338.423    38571659.344   155311678.529  
C13  38348040.367   199688357.556    38348039.301   154411891.116  
C27  23365348.322   121670549.171                                  
C29  24169627.845   125857650.541                                  
C30  21570086.114   112320899.970                                  
C32  25899777.318   134866494.014                                  
C33  26658784.542   138818781.870                                  
C36  22883573.854   119160366.949                                  
> 2025 01 06 18 43 52.0000000  0 38                     
G26  21506044.877   113014757.474    21506044.883    88063600.631  
G10  23265531.512   122260938.322    23265530.641    95268714.924  
G27  20871374.701   109679428.875    20871373.597    85465010.851  
G07  24999997.314   131375661.681    24999994.979   102370586.157  
G08  23370092.550   122810887.453    23370092.725    95696568.038  
G23  21605626.877   113537825.658    21605625.059    88471567.530  
G29  25443239.791   133704967.219    25443238.575   104186093.424  
G15  24781197.110   130226491.390    24781196.970   101474639.188  
G31  25712856.195   135121746.347    25712860.302   105289786.754  
G18  21894045.274   115054731.805    21894042.297    89652466.190  
G16  20324306.412   106805499.490                                  
R14  19796925.976   105528223.032    19796927.504    82077404.106  
R22  24132248.692   128819723.118    24132247.818   100193297.056  
R15  22627179.648   120912289.479    22627180.378    94042900.585  
R06  24341278.850   129889294.460                                  
R24  19962535.424   106748591.550    19962534.595    83027330.961  
R13  21512516.161   114876467.998                                  
R07  22705783.114   121545502.821    22705781.190    94535884.837  
R08  23095904.951   123678309.222    23095901.758    96193624.802  
R23  20431118.804   109292690.631                                  
R17  23799572.226   127355987.824    23799572.263    99054811.062  
E02  24924877.254   130981030.009    24924877.831   100362267.648  
E10  24360669.870   128015865.265    24360670.198    98090239.780  
E11  23305120.947   122469558.190    23305118.471    93840582.983  
E12  26271563.028   138057757.626    26271561.489   105785240.600  
E14  21959836.308   115400271.236    21959837.147    88423341.273  
E16  24378929.356   128112789.373    24378930.452    98164508.717  
E24  26649710.309   140045515.156    26649711.578   107307391.478  
E25  23466532.932   123317094.100    23466534.736    94490703.220  
E36  25148265.109   132155030.744    25148268.122   101262211.479  
C08  38571779.462   200852913.781    38571769.868   155312123.434  
C13  38348098.202   199688658.350    38348097.102   154412123.724  
C27  23365744.396   121672611.830                                  
C29  24169114.297   125854976.454                                  
C30  21570030.019   112320608.076                                  
C32  25899164.110   134863301.310                                  
C33  26659024.753   138820032.852                                  
C36  22883833.148   119161717.536                                  
> 2025 01 06 18 43 53.0000000  0 38                     
G26  21506492.961   113017112.037    21506492.847    88065435.351  
G10  23264874.555   122257486.067    23264873.685    95266024.851  
G27  20870978.810   109677348.426    20870977.715    85463389.735  
G07  24999673.844   131373961.378    24999671.457   102369261.242  
G08  23369465.488   122807592.105    23369465.689    95694000.235  
G23  21605329.621   113536263.844    21605327.788    88470350.527  
G29  25443808.758   133707957.024    25443807.502   104188423.132  
G15  24780830.037   130224562.697    24780829.966   101473136.256  
G31  25713464.741   135124944.238    25713468.969   105292278.619  
G18  21894458.561   115056903.797    21894455.617    89654158.651  
G16  20324367.274   106805818.920                                  
R14  19796843.303   105527782.164    19796844.715    82077061.208  
R22  24132890.689   128823149.583    24132889.783   100195962.080  
R15  22626447.504   120908376.919    22626448.192    94039857.491  
R06  24341726.725   129891684.016                                  
R24  19962222.993   106746920.795    19962222.136    83026031.487  
R13  21513225.298   114880254.596                                  
R07  22705679.115   121544945.924    22705677.245    94535451.696  
R08  23095276.638   123674944.959    23095273.598    96191008.146  
R23  20431525.909   109294868.607                                  
R17  23798886.911   127352320.128    23798886.715    99051958.404  
E02  24924468.608   130978883.041    24924469.355   100360622.566  
E10  24360933.151   128017248.630    24360933.366    98091299.756  
E11  23305109.064   122469496.336    23305106.689    93840535.585  
E12  26271990.646   138060004.055    26271988.997   105786961.906  
E14  21960752.785   115405087.195    21960753.594    88427031.425  
E16  24379281.685   128114640.546    24379282.737    98165927.143  
E24  26650214.506   140048164.708    26650215.685   107309421.646  
E25  23466648.304   123317700.985    23466650.238    94491168.234  
E36  25147797.898   132152575.794    25147801.081   101260330.417  
C08  38571890.024   200853489.438    38571880.475   155312568.572  
C13  38348156.100   199688959.495    38348154.913   154412356.588  
C27  23366140.489   121674674.806                                  
C29  24168600.799   125852302.704                                  
C30  21569974.080   112320316.657                                  
C32  25898550.983   134860108.898                                  
C33  26659265.121   138821284.520                                  
C36  22884092.766   119163068.777                                  
> 2025 01 06 18 43 54.0000000  0 38                     
G26  21506940.991   113019466.996    21506941.027    88067270.398  
G10  23264217.639   122254034.016    23264216.818    95263334.936  
G27  20870583.013   109675268.295    20870581.881    85461768.854  
G07  24999350.366   131372261.539    24999348.001   102367936.713  
G08  23368838.485   122804296.831    23368838.519    95691432.503  
G23  21605032.529   113534702.614    21605030.643    88469133.989  
G29  25444377.814   133710946.846    25444376.408   104190752.816  
G15  24780463.013   130222634.419    24780463.080   101471633.700  
G31  25714073.280   135128141.902    25714077.492   105294770.327  
G18  21894871.900   115059076.080    21894868.967    89655851.330  
G16  20324428.123   106806138.965                                  
R14  19796760.611   105527342.186    19796762.265    82076718.992  
R22  24133532.664   128826575.949    24133531.666   100198627.022  
R15  22625715.542   120904464.782    22625716.098    94036814.716  
R06  24342174.697   129894074.179                                  
R24  19961910.705   106745250.461    19961909.803    83024732.330  
R13  21513934.618   114884041.592                                  
R07  22705575.221   121544389.854    22705573.393    94535019.189  
R08  23094648.312   123671581.132    23094645.447    96188391.848  
R23  20431933.096   109297046.867                                  
R17  23798201.442   127348652.554    23798201.284    99049105.853  
E02  24924059.993   130976736.328    24924060.760   100358977.676  
E10  24361196.180   128018632.211    24361196.555    98092359.904  
E11  23305097.396   122469434.792    23305094.947    93840488.429  
E12  26272418.159   138062250.625    26272416.395   105788683.291  
E14  21961669.599   115409903.783    21961670.075    88430722.051  
E16  24379633.904   128116492.008    24379635.036    98167345.792  
E24  26650718.720   140050814.399    26650719.951   107311451.924  
E25  23466763.841   123318308.239    23466765.773    94491633.530  
E36  25147330.954   132150121.075    25147333.799   101258449.520  
C08  38572000.443   200854065.239    38571991.033   155313013.808  
C13  38348213.801   199689260.759    38348212.769   154412589.532  
C27  23366536.582   121676737.900                                  
C29  24168087.250   125849629.066                                  
C30  21569918.258   112320025.517                                  
C32  25897937.948   134856916.584                                  
C33  26659505.523   138822536.623                                  
C36  22884352.288   119164420.484                                  
> 2025 01 06 18 43 55.0000000  0 38                     
G26  21507389.334   113021822.379    21507389.269    88069105.750  
G10  23263560.695   122250582.169    23263559.992    95260645.188  
G27  20870187.226   109673188.468    20870186.135    85460148.214  
G07  24999027.057   131370562.165    24999024.589   102366612.531  
G08  23368211.476   122801001.636    23368211.350    95688864.809  
G23  21604735.512   113533141.962    21604733.598    88467917.898  
G29  25444946.761   133713936.635    25444945.304   104193082.562  
G15  24780095.961   130220706.640    24780096.225   101470131.530  
G31  25714681.529   135131339.473    25714686.038   105297261.904  
G18  21895285.346   115061248.654    21895282.361    89657544.258  
G16  20324489.120   106806459.609                                  
R14  19796678.256   105526903.100    19796679.857    82076377.487  
R22  24134174.518   128830002.209    24134173.528   100201291.895  
R15  22624983.577   120900553.053    22624984.150    94033772.263  
R06  24342622.782   129896464.934                                  
R24  19961598.382   106743580.593    19961597.499    83023433.544  
R13  21514643.872   114887828.943                                  
R07  22705471.471   121543834.586    22705469.671    94534587.317  
R08  23094020.102   123668217.725    23094017.315    96185775.857  
R23  20432340.306   109299225.391                                  
R17  23797516.127   127344985.080    23797515.811    99046253.403  
E02  24923651.656   130974589.846    24923652.222   100357332.978  
E10  24361459.698   128020016.026    24361459.899    98093420.230  
E11  23305085.879   122469373.568    23305083.318    93840441.513  
E12  26272845.651   138064497.258    26272843.799   105790404.736  
E14  21962586.314   115414720.905    21962586.778    88434413.091  
E16  24379986.185   128118343.758    24379987.362    98168764.665  
E24  26651222.915   140053464.195    26651224.196   107313482.294  
E25  23466879.420   123318915.865    23466881.300    94492099.115  
E36  25146864.064   132147666.562    25146866.711   101256568.797  
C08  38572110.948   200854641.127    38572101.630   155313459.123  
C13  38348271.610   199689562.133    38348270.706   154412822.578  
C27  23366932.849   121678801.106                                  
C29  24167573.732   125846955.542                                  
C30  21569862.292   112319734.644                                  
C32  25897324.880   134853724.354                                  
C33  26659746.101   138823789.193                                  
C36  22884611.946   119165772.632                                  
> 2025 01 06 18 43 56.0000000  0 38                     
G26  21507837.554   113024178.182    21507837.651    88070941.439  
G10  23262903.830   122247130.562    23262903.075    95257955.637  
G27  20869791.480   109671108.991    20869790.385    85458527.834  
G07  24998703.876   131368863.289    24998701.249   102365288.718  
G08  23367584.382   122797706.563    23367584.352    95686297.226  
G23  21604438.728   113531581.930    21604436.811    88466702.287  
G29  25445515.647   133716926.480    25445514.211   104195412.301  
G15  24779729.175   130218779.327    24779729.478   101468629.757  
G31  25715290.125   135134536.919    25715294.673   105299753.371  
G18  21895698.832   115063421.559    21895695.832    89659237.422  
G16  20324550.285   106806780.902                                  
R14  19796596.068   105526464.929    19796597.645    82076036.695  
R22  24134816.458   128833428.423    24134815.496   100203956.741  
R15  22624251.589   120896641.753    22624252.219    94030730.143  
R06  24343070.882   129898856.276                                  
R24  19961286.116   106741911.232    19961285.336    83022135.156  
R13  21515353.233   114891616.718                                  
R07  22705367.924   121543280.162    22705366.007    94534156.091  
R08  23093392.039   123664854.780    23093389.372    96183160.229  
R23  20432747.585   109301404.211                                  
R17  23796830.737   127341317.760    23796830.522    99043401.055  
E02  24923243.275   130972443.638    24923243.985   100355688.480  
E10  24361723.149   128021400.106    24361723.462    98094480.762  
E11  23305074.414   122469312.729    23305071.687    93840394.897  
E12  26273273.243   138066744.030    26273271.393   105792126.277  
E14  21963502.918   115419538.569    21963503.668    88438104.581  
E16  24380338.782   128120195.816    24380339.892    98170183.776  
E24  26651727.406   140056114.165    26651728.446   107315512.787  
E25  23466995.131   123319523.907    23466997.049    94492565.016  
E36  25146397.083   132145212.318    25146399.843   101254688.273  
C08  38572221.629   200855217.189    38572212.274   155313904.587  
C13  38348329.484   199689863.675    38348328.644   154413055.760  
C27  23367329.137   121680864.468                                  
C29  24167060.322   125844282.178                                  
C30  21569806.487   112319444.080                                  
C32  25896711.971   134850532.257                                  
C33  26659986.890   138825042.257                                  
C36  22884871.603   119167125.278                                  
> 2025 01 06 18 43 57.0000000  0 39                     
G26  21508285.925   113026534.501    21508286.184    88072777.536  
G10  23262247.061   122243679.278    23262246.266    95255266.343  
G27  20869395.851   109669029.938    20869394.579    85456907.791  
G07  24998380.723   131367164.991    24998378.023   102363965.368  
G08  23366957.447   122794411.672    23366957.307    95683729.788  
G23  21604141.904   113530022.589    21604140.080    88465487.211  
G29  25446084.686   133719916.449    25446083.239   104197742.127  
G15  24779362.474   130216852.591    24779362.917   101467128.400  
G31  25715898.589   135137734.168    25715903.034   105302244.814  
G18  21896112.347   115065594.868    21896109.551    89660930.906  
G16  20324611.512   106807102.907                                  
R14  19796513.997   105526027.755    19796515.638    82075696.667  
R22  24135458.318   128836854.659    24135457.442   100206621.596  
R15  22623519.707   120892730.932    22623520.356    94027688.402  
R06  24343519.249   129901248.349                                  
R24  19960974.085   106740242.410    19960973.239    83020837.180  
R26  22919103.444   122214458.120                                  
R13  21516062.702   114895404.994                                  
R07  22705264.533   121542726.673    22705262.609    94533725.613  
R08  23092764.037   123661492.354    23092761.386    96180545.007  
R23  20433154.886   109303583.408                                  
R17  23796145.380   127337650.677    23796145.394    99040548.893  
E02  24922834.860   130970297.803    24922835.509   100354044.265  
E10  24361986.524   128022784.532    24361986.860    98095541.552  
E11  23305063.006   122469252.344    23305060.263    93840348.624  
E12  26273700.642   138068991.005    26273698.958   105793848.000  
E14  21964419.795   115424356.929    21964420.405    88441796.552  
E16  24380691.172   128122048.287    24380692.385    98171603.201  
E24  26652231.666   140058764.395    26652232.781   107317543.490  
E25  23467111.115   123320132.434    23467112.915    94493031.293  
E36  25145930.091   132142758.413    25145932.817   101252808.006  
C08  38572332.305   200855793.488    38572322.893   155314350.209  
C13  38348387.314   199690165.442    38348386.627   154413289.101  
C27  23367725.395   121682928.037                                  
C29  24166546.950   125841609.029                                  
C30  21569750.746   112319153.903                                  
C32  25896099.008   134847340.344                                  
C33  26660227.703   138826295.891                                  
C36  22885131.524   119168478.493                                  
> 2025 01 06 18 43 58.0000000  0 38                     
G26  21508734.439   113028891.187    21508734.602    88074613.912  
G10  23261590.336   122240228.178    23261589.668    95252577.166  
G27  20869000.332   109666951.167    20868999.116    85455287.983  
G07  24998057.619   131365467.138    24998054.854   102362642.348  
G08  23366330.440   122791116.843    23366330.304    95681162.370  
G23  21603845.254   113528463.798    21603843.539    88464272.572  
G29  25446653.687   133722906.414    25446652.285   104200071.972  
G15  24778995.808   130214926.278    24778996.281   101465627.384  
G31  25716506.876   135140931.278    25716511.461   105304736.025  
G18  21896526.008   115067768.452    21896523.076    89662624.610  
G16  20324672.920   106807425.482                                  
R14  19796432.100   105525591.430    19796433.812    82075357.302  
R22  24136100.158   128840280.768    24136099.286   100209286.342  
R15  22622787.918   120888820.480    22622788.444    94024646.928  
R06  24343967.569   129903640.918                                  
R24  19960662.000   106738573.980    19960661.277    83019539.509  
R13  21516772.149   114899193.627                                  
R07  22705161.319   121542173.994    22705159.304    94533295.760  
R08  23092136.133   123658130.307    23092133.507    96177930.099  
R23  20433562.294   109305762.849                                  
R17  23795460.059   127333983.691    23795460.207    99037696.809  
E02  24922426.783   130968152.173    24922427.286   100352400.215  
E10  24362250.037   128024169.159    24362250.419    98096602.498  
E11  23305051.545   122469192.240    23305048.803    93840302.573  
E12  26274128.174   138071238.059    26274126.628   105795569.754  
E14  21965336.903   115429175.843    21965337.449    88445488.959  
E16  24381043.595   128123901.005    24381044.945    98173022.822  
E24  26652736.041   140061414.730    26652737.078   107319574.259  
E25  23467227.245   123320741.304    23467228.792    94493497.831  
E36  25145463.286   132140304.700    25145465.803   101250927.890  
C08  38572443.088   200856369.882    38572433.533   155314795.924  
C13  38348445.326   199690467.298    38348444.595   154413522.516  
C27  23368121.664   121684991.700                                  
C29  24166033.497   125838935.971                                  
C30  21569695.169   112318863.965                                  
C32  25895486.077   134844148.505                                  
C33  26660468.556   138827549.952                                  
C36  22885391.519   119169832.128                                  
> 2025 01 06 18 43 59.0000000  0 38                     
G26  21509183.018   113031248.409    21509183.076    88076450.714  
G10  23260933.726   122236777.406    23260933.061    95249888.258  
G27  20868604.914   109664872.839    20868603.490    85453668.495  
G07  24997734.648   131363769.856    24997731.924   102361319.803  
G08  23365703.556   122787822.224    23365703.342    95678595.123  
G23  21603548.747   113526905.704    21603547.102    88463058.483  
G29  25447222.665   133725896.477    25447221.213   104202401.886  
G15  24778629.234   130213000.531    24778629.855   101464126.803  
G31  25717115.199   135144128.408    25717119.841   105307227.295  
G18  21896939.733   115069942.442    21896936.760    89664318.632  
G16  20324734.421   106807748.802                                  
R14  19796350.376   105525156.112    19796352.199    82075018.724  
R22  24136742.035   128843706.916    24136741.162   100211951.128  
R15  22622056.214   120884910.573    22622056.741    94021605.892  
R06  24344416.202   129906034.206                                  
R24  19960350.117   106736906.085    19960349.332    83018242.262  
R13  21517481.762   114902982.763                                  
R07  22705058.031   121541622.270    22705056.255    94532866.648  
R08  23091508.406   123654768.803    23091505.723    96175315.584  
R23  20433969.845   109307942.692                                  
R17  23794774.898   127330316.946    23794775.008    99034844.906  
E02  24922018.603   130966006.916    24922019.097   100350756.454  
E10  24362513.580   128025554.144    24362513.813    98097663.720  
E11  23305040.092   122469132.580    23305037.463    93840256.861  
E12  26274555.567   138073485.332    26274554.318   105797291.698  
E14  21966254.079   115433995.388    21966254.599    88449181.860  
E16  24381396.306   128125754.147    24381397.535    98174442.761  
E24  26653240.329   140064065.322    26653241.457   107321605.234  
E25  23467342.893   123321350.680    23467344.671    94493964.756  
E36  25144996.342   132137851.335    25144998.902   101249048.042  
C08  38572553.739   200856946.525    38572544.294   155315241.805  
C13  38348503.357   199690769.405    38348502.554   154413756.129  
C27  23368518.033   121687055.598                                  
C29  24165520.337   125836263.156                                  
C30  21569639.673   112318574.425                                  
C32  25894873.104   134840956.874                                  
C33  26660709.529   138828804.610                                  
C36  22885651.674   119171186.344                                  
> 2025 01 06 18 44 00.0000000  0 38                     
G26  21509631.617   113033605.779    21509631.690    88078287.622  
G10  23260277.131   122233326.580    23260276.460    95247199.302  
G27  20868209.351   109662794.573    20868208.003    85452049.064  
G07  24997411.680   131362072.803    24997408.938   102359997.405  
G08  23365076.476   122784527.442    23365076.280    95676027.765  
G23  21603252.326   113525347.951    21603250.531    88461844.637  
G29  25447791.584   133728886.315    25447790.251   104204731.636  
G15  24778262.706   130211074.992    24778263.484   101462626.372  
G31  25717723.599   135147421.859    25717728.169   105309718.174  
G18  21897353.393   115072116.488    21897350.451    89666012.688  
G16  20324795.949   106808072.470                                  
R14  19796268.783   105524721.422    19796270.640    82074680.631  
R22  24137383.704   128847132.715    24137382.921   100214615.630  
R15  22621324.555   120881000.828    22621325.036    94018564.982  
R06  24344864.672   129908427.880                                  
R24  19960038.393   106735238.361    19960037.480    83016945.149  
R13  21518191.361   114906772.030                                  
R07  22704955.031   121541071.099    22704953.393    94532437.953  
R08  23090880.674   123651407.473    23090878.017    96172701.232  
R23  20434377.265   109310122.546                                  
R17  23794089.616   127326650.077    23794089.743    99031992.907  
E02  24921610.476   130963861.656    24921610.914   100349112.673  
E10  24362777.232   128026939.098    24362777.482    98098724.923  
E11  23305028.852   122469073.020    23305026.142    93840211.217  
E12  26274983.033   138075732.452    26274981.912   105799013.517  
E14  21967171.365   115438815.269    21967171.921    88452875.014  
E16  24381749.048   128127607.318    24381750.268    98175862.722  
E24  26653744.520   140066715.801    26653745.817   107323636.106  
E25  23467459.032   123321960.178    23467460.600    94494431.767  
E36  25144529.560   132135397.946    25144532.035   101247168.167  
C08  38572664.411   200857522.996    38572655.020   155315687.574  
C13  38348561.363   199691071.365    38348560.581   154413989.618  
C27  23368914.460   121689119.365                                  
C29  24165006.962   125833590.219                                  
C30  21569584.077   112318284.918                                  
C32  25894260.162   134837765.087                                  
C33  26660950.420   138830059.454                                  
C36  22885911.847   119172540.756                                  
> 2025 01 06 18 44 01.0000000  0 38                     
G26  21510080.288   113035963.590    21510080.394    88080124.871  
G10  23259620.501   122229876.004    23259619.813    95244510.554  
G27  20867813.937   109660716.644    20867812.633    85450429.904  
G07  24997088.803   131360376.234    24997086.073   102358675.412  
G08  23364449.493   122781232.770    23364449.419    95673460.498  
G23  21602955.992   113523790.803    21602954.251    88460631.286  
G29  25448360.595   133731876.180    25448359.271   104207061.405  
G15  24777896.377   130209149.951    24777897.128   101461126.363  
G31  25718331.934   135150521.602    25718336.444   105312208.921  
G18  21897767.234   115074290.845    21897764.263    89667706.997  
G16  20324857.675   106808396.773                                  
R14  19796187.518   105524287.647    19796189.236    82074343.254  
R22  24138025.457   128850558.454    24138024.648   100217280.099  
R15  22620592.814   120877091.520    22620593.462    94015524.402  
R06  24345313.424   129910822.127                                  
R24  19959726.581   106733571.120    19959725.732    83015648.396  
R13  21518901.068   114910561.706                                  
R07  22704852.204   121540520.772    22704850.539    94532009.926  
R08  23090252.958   123648046.579    23090250.434    96170087.200  
R23  20434784.859   109312302.701                                  
R17  23793404.397   127322983.351    23793404.570    99029141.016  
E02  24921202.202   130961716.671    24921202.698   100347469.119  
E10  24363040.805   128028324.323    24363040.879    98099786.327  
E11  23305017.561   122469013.813    23305014.891    93840165.859  
E12  26275410.719   138077979.704    26275409.546   105800735.440  
E14  21968088.818   115443635.752    21968089.289    88456568.622  
E16  24382101.671   128129460.819    24382102.933    98177282.937  
E24  26654249.028   140069366.431    26654250.218   107325667.120  
E25  23467574.881   123322570.077    23467576.643    94494899.098  
E36  25144062.777   132132944.807    25144065.307   101245288.495  
C08  38572775.087   200858099.647    38572765.687   155316133.488  
C13  38348619.262   199691373.451    38348618.631   154414223.202  
C27  23369310.839   121691183.268                                  
C29  24164493.655   125830917.420                                  
C30  21569528.493   112317995.706                                  
C32  25893647.184   134834573.425                                  
C33  26661191.534   138831314.794                                  
C36  22886172.164   119173895.662                                  
> 2025 01 06 18 44 02.0000000  0 38                     
G26  21510529.043   113038321.803    21510529.138    88081962.439  
G10  23258963.952   122226425.661    23258963.242    95241821.960  
G27  20867418.572   109658639.047    20867417.309    85448810.990  
G07  24996766.032   131358680.143    24996763.296   102357353.773  
G08  23363822.586   122777938.195    23363822.461    95670893.304  
G23  21602659.790   113522234.257    21602658.034    88459418.382  
G29  25448929.686   133734866.053    25448928.246   104209391.170  
G15  24777530.158   130207225.374    24777530.895   101459626.691  
G31  25718940.072   135153717.881    25718944.624   105314699.545  
G18  21898181.113   115076465.506    21898178.064    89669401.550  
G16  20324919.468   106808721.699                                  
R14  19796106.370   105523854.754    19796107.965    82074006.559  
R22  24138667.265   128853984.116    24138666.532   100219944.513  
R15  22619861.253   120873182.594    22619861.965    94012484.129  
R06  24345762.250   129913217.009                                  
R24  19959414.869   106731904.338    19959414.045    83014352.013  
R13  21519610.745   114914351.772                                  
R07  22704749.646   121539971.262    22704747.772    94531582.525  
R08  23089625.434   123644686.125    23089622.941    96167473.491  
R23  20435192.505   109314483.142                                  
R17  23792719.198   127319316.726    23792719.338    99026289.209  
E02  24920794.098   130959571.946    24920794.512   100345825.753  
E10  24363304.272   128029709.791    24363304.583    98100847.921  
E11  23305006.267   122468954.950    23305003.552    93840120.753  
E12  26275838.371   138080227.044    26275837.143   105802457.438  
E14  21969006.382   115448456.829    21969006.706    88460262.693  
E16  24382454.440   128131314.616    24382455.681    98178703.374  
E24  26654753.495   140072017.222    26654754.663   107327698.245  
E25  23467691.231   123323180.375    23467692.827    94495366.726  
E36  25143596.263   132130491.909    25143598.535   101243409.004  
C08  38572885.836   200858676.384    38572876.378   155316579.456  
C13  38348677.368   199691675.684    38348676.652   154414456.908  
C27  23369707.280   121693247.308                                  
C29  24163980.420   125828244.756                                  
C30  21569472.937   112317706.778                                  
C32  25893034.329   134831381.859                                  
C33  26661432.747   138832570.601                                  
C36  22886432.549   119175251.037                                  
> 2025 01 06 18 44 03.0000000  0 38                     
G26  21510977.939   113040680.473    21510977.895    88083800.371  
G10  23258307.347   122222975.564    23258306.684    95239133.571  
G27  20867023.363   109656561.807    20867022.159    85447192.375  
G07  24996443.398   131356984.563    24996440.658   102356032.580  
G08  23363195.672   122774643.747    23363195.590    95668326.227  
G23  21602363.698   113520678.335    21602362.019    88458205.978  
G29  25449498.575   133737855.991    25449497.230   104211720.986  
G15  24777163.966   130205301.277    24777164.740   101458127.390  
G31  25719548.453   135156914.154    25719552.757   105317190.091  
G18  21898594.983   115078640.525    21898591.909    89671096.370  
G16  20324981.343   106809047.278                                  
R14  19796025.472   105523422.759    19796026.896    82073670.565  
R22  24139308.998   128857409.728    24139308.244   100222608.861  
R15  22619129.854   120869274.078    22619130.556    94009444.171  
R06  24346211.411   129915612.503                                  
R24  19959103.123   106730238.046    19959102.412    83013056.012  
R13  21520320.485   114918142.245                                  
R07  22704647.044   121539422.615    22704645.309    94531155.803  
R08  23088997.839   123641326.127    23088995.538    96164860.180  
R23  20435600.287   109316663.905                                  
R17  23792034.019   127315650.256    23792034.114    99023437.507  
E02  24920386.018   130957427.516    24920386.517   100344182.615  
E10  24363567.999   128031095.537    24363568.387    98101909.731  
E11  23304995.034   122468896.447    23304992.407    93840075.933  
E12  26276266.085   138082474.560    26276264.792   105804179.555  
E14  21969923.925   115453278.632    21969924.224    88463957.329  
E16  24382807.216   128133168.746    24382808.601    98180124.069  
E24  26655258.024   140074668.180    26655259.089   107329729.506  
E25  23467807.496   123323791.097    23467809.088    94495834.682  
E36  25143129.435   132128039.281    25143131.676   101241529.718  
C08  38572996.645   200859253.328    38572987.142   155317025.576  
C13  38348735.415   199691978.083    38348734.679   154414690.745  
C27  23370103.696   121695311.497                                  
C29  24163466.979   125825572.265                                  
C30  21569417.627   112317418.178                                  
C32  25892421.371   134828190.441                                  
C33  26661674.097   138833826.921                                  
C36  22886692.860   119176606.926                                  
> 2025 01 06 18 44 04.0000000  0 38                     
G26  21511426.831   113043039.267    21511426.752    88085638.385  
G10  23257650.697   122219525.383    23257650.124    95236445.127  
G27  20866628.143   109654484.603    20866627.018    85445573.764  
G07  24996120.746   131355289.177    24996118.006   102354711.492  
G08  23362568.744   122771349.095    23362568.645    95665758.933  
G23  21602067.646   113519122.708    21602065.919    88456993.806  
G29  25450067.496   133740845.669    25450066.201   104214050.612  
G15  24776797.820   130203377.354    24776798.579   101456628.233  
G31  25720156.595   135160109.973    25720161.013   105319680.354  
G18  21899008.903   115080815.555    21899005.874    89672791.182  
G16  20325043.343   106809373.176                                  
R14  19795944.534   105522991.331    19795945.976    82073335.009  
R22  24139950.689   128860834.967    24139949.961   100225272.942  
R15  22618398.529   120865365.666    22618399.054    94006404.309  
R06  24346660.328   129918008.301                                  
R24  19958791.523   106728571.898    19958790.856    83011760.117  
R13  21521030.347   114921932.841                                  
R07  22704544.688   121538874.482    22704542.871    94530729.480  
R08  23088370.327   123637966.249    23088368.204    96162246.946  
R23  20436007.941   109318844.654                                  
R17  23791348.782   127311983.615    23791348.821    99020585.682  
E02  24919978.006   130955283.034    24919978.392   100342539.441  
E10  24363832.072   128032481.229    24363832.138    98102971.492  
E11  23304984.018   122468838.018    23304981.321    93840031.154  
E12  26276693.615   138084721.861    26276692.423   105805901.520  
E14  21970841.533   115458100.737    21970841.906    88467652.198  
E16  24383160.143   128135022.873    24383161.452    98181544.765  
E24  26655762.403   140077319.008    26655763.663   107331760.651  
E25  23467923.664   123324401.897    23467925.279    94496302.700  
E36  25142662.897   132125586.593    25142664.906   101239650.383  
C08  38573107.470   200859830.083    38573097.914   155317471.562  
C13  38348793.492   199692280.334    38348792.680   154414924.463  
C27  23370500.003   121697375.518                                  
C29  24162953.613   125822899.614                                  
C30  21569362.314   112317129.573                                  
C32  25891808.464   134824998.835                                  
C33  26661915.375   138835083.421                                  
C36  22886953.260   119177962.969                                  
> 2025 01 06 18 44 05.0000000  0 38                     
G26  21511875.776   113045398.358    21511875.580    88087476.640  
G10  23256994.165   122216075.318    23256993.592    95233756.779  
G27  20866232.861   109652407.605    20866231.841    85443955.330  
G07  24995798.095   131353594.174    24995795.495   102353390.677  
G08  23361941.814   122768054.441    23361941.729    95663191.690  
G23  21601771.797   113517567.562    21601770.055    88455782.014  
G29  25450636.494   133743835.232    25450635.096   104216380.156  
G15  24776431.729   130201453.792    24776432.553   101455129.383  
G31  25720764.703   135163305.454    25720768.898   105322170.292  
G18  21899422.850   115082990.770    21899419.792    89674486.160  
G16  20325105.574   106809699.585                                  
R14  19795863.820   105522560.682    19795865.183    82073000.063  
R22  24140592.310   128864259.996    24140591.586   100227936.858  
R15  22617667.274   120861457.561    22617667.692    94003364.678  
R06  24347109.351   129920404.537                                  
R24  19958480.017   106726906.097    19958479.248    83010464.502  
R13  21521740.144   114925723.684                                  
R07  22704442.317   121538327.066    22704440.686    94530303.719  
R08  23087742.965   123634606.690    23087740.784    96159633.946  
R23  20436415.669   109321025.579                                  
R17  23790663.727   127308317.025    23790663.659    99017733.911  
E02  24919569.947   130953138.703    24919570.379   100340896.396  
E10  24364095.506   128033867.054    24364095.898    98104033.359  
E11  23304972.990   122468779.805    23304970.227    93839986.556  
E12  26277121.209   138086969.177    26277120.142   105807623.478  
E14  21971759.074   115462923.253    21971759.596    88471347.348  
E16  24383513.059   128136877.198    24383514.259    98182965.614  
E24  26656266.953   140079969.868    26656268.074   107333791.827  
E25  23468040.170   123325012.988    23468041.523    94496770.932  
E36  25142196.110   132123134.035    25142198.265   101237771.156  
C08  38573218.236   200860406.862    38573208.656   155317917.560  
C13  38348851.526   199692582.580    38348850.711   154415158.172  
C27  23370896.383   121699439.563                                  
C29  24162440.369   125820226.971                                  
C30  21569306.937   112316841.134                                  
C32  25891195.572   134821807.210                                  
C33  26662156.734   138836340.274                                  
C36  22887213.728   119179319.379                                  
> 2025 01 06 18 44 06.0000000  0 38                     
G26  21512324.750   113047757.888    21512324.668    88089315.231  
G10  23256337.682   122212625.505    23256337.149    95231068.600  
G27  20865837.724   109650330.966    20865836.636    85442337.167  
G07  24995475.596   131351899.651    24995473.115   102352070.305  
G08  23361314.923   122764759.889    23361314.688    95660624.503  
G23  21601475.961   113516013.037    21601474.159    88454570.692  
G29  25451205.402   133746824.850    25451203.948   104218709.724  
G15  24776065.796   130199530.759    24776066.658   101453630.902  
G31  25721372.682   135166500.791    25721377.017   105324660.190  
G18  21899836.741   115085166.318    21899833.797    89676181.392  
G16  20325167.790   106810026.641                                  
R14  19795783.211   105522130.973    19795784.656    82072665.842  
R22  24141234.053   128867684.982    24141233.329   100230600.732  
R15  22616935.958   120857549.917    22616936.469    94000325.402  
R06  24347558.449   129922801.469                                  
R24  19958168.679   106725240.773    19958167.842    83009169.252  
R13  21522450.141   114929514.977                                  
R07  22704340.194   121537780.517    22704338.551    94529878.619  
R08  23087115.591   123631247.587    23087113.501    96157021.339  
R23  20436823.474   109323206.827                                  
R17  23789978.622   127304650.595    23789978.458    99014882.255  
E02  24919161.883   130950994.676    24919162.395   100339253.559  
E10  24364359.281   128035253.154    24364359.489    98105095.431  
E11  23304961.885   122468721.977    23304959.328    93839942.241  
E12  26277548.780   138089216.631    26277547.755   105809345.555  
E14  21972677.090   115467746.415    21972677.278    88475042.998  
E16  24383865.837   128138731.846    24383867.249    98184386.704  
E24  26656771.245   140082620.890    26656772.441   107335823.129  
E25  23468156.365   123325624.492    23468157.942    94497239.489  
E36  25141729.580   132120681.739    25141731.476   101235892.122  
C08  38573329.152   200860983.785    38573319.430   155318363.666  
C13  38348909.560   199692884.987    38348908.772   154415392.017  
C27  23371292.770   121701503.755                                  
C29  24161927.051   125817554.500                                  
C30  21569251.642   112316553.016                                  
C32  25890582.748   134818615.718                                  
C33  26662398.256   138837597.617                                  
C36  22887474.323   119180676.274                                  
> 2025 01 06 18 44 07.0000000  0 38                     
G26  21512773.849   113050117.839    21512773.755    88091154.153  
G10  23255681.172   122209175.947    23255680.694    95228380.629  
G27  20865442.703   109648254.666    20865441.537    85440719.272  
G07  24995153.169   131350205.651    24995150.751   102350750.284  
G08  23360688.054   122761465.466    23360687.863    95658057.432  
G23  21601180.299   113514459.123    21601178.504    88453359.849  
G29  25451774.333   133749814.514    25451772.859   104221039.336  
G15  24775699.996   130197608.243    24775700.800   101452132.795  
G31  25721980.738   135169696.014    25721985.208   105327149.894  
G18  21900250.802   115087342.199    21900247.788    89677876.881  
G16  20325230.097   106810354.322                                  
R14  19795702.589   105521702.180    19795704.146    82072332.331  
R22  24141875.743   128871109.899    24141874.968   100233264.543  
R15  22616204.751   120853642.697    22616205.386    93997286.453  
R06  24348007.788   129925198.984                                  
R24  19957857.346   106723575.913    19957856.467    83007874.354  
R13  21523160.246   114933306.695                                  
R07  22704238.241   121537234.837    22704236.550    94529454.201  
R08  23086488.336   123627888.961    23086486.269    96154409.064  
R23  20437231.198   109325388.381                                  
R17  23789293.475   127300984.310    23789293.263    99012030.688  
E02  24918753.952   130948850.897    24918754.451   100337610.931  
E10  24364623.008   128036639.503    24364623.211    98106157.704  
E11  23304951.060   122468664.470    23304948.273    93839898.186  
E12  26277976.432   138091464.198    26277975.439   105811067.719  
E14  21973594.959   115472570.152    21973595.275    88478739.124  
E16  24384218.894   128140586.801    24384220.107    98185808.036  
E24  26657275.908   140085272.075    26657277.096   107337854.563  
E25  23468272.707   123326236.389    23468274.266    94497708.348  
E36  25141262.897   132118229.692    25141265.025   101234013.280  
C08  38573439.946   200861560.853    38573430.280   155318809.901  
C13  38348967.678   199693187.540    38348966.891   154415625.983  
C27  23371689.085   121703568.088                                  
C29  24161413.788   125814882.161                                  
C30  21569196.325   112316265.194                                  
C32  25889970.053   134815424.345                                  
C33  26662639.756   138838855.456                                  
C36  22887734.969   119182033.657                                  
> 2025 01 06 18 44 08.0000000  0 38                     
G26  21513223.138   113052478.550    21513222.915    88092993.670  
G10  23255024.879   122205726.914    23255024.337    95225693.078  
G27  20865047.590   109646179.017    20865046.522    85439101.888  
G07  24994830.932   131348512.434    24994828.481   102349430.905  
G08  23360061.146   122758171.464    23360061.083    95655490.671  
G23  21600884.772   113512906.137    21600882.864    88452149.729  
G29  25452343.308   133752804.526    25452341.874   104223369.186  
G15  24775334.364   130195686.480    24775335.143   101450635.344  
G31  25722588.797   135172891.336    25722593.413   105329639.826  
G18  21900664.931   115089518.704    21900661.961    89679572.864  
G16  20325292.679   106810682.963                                  
R14  19795622.356   105521274.612    19795623.865    82071999.778  
R22  24142517.368   128874535.093    24142516.657   100235928.592  
R15  22615473.919   120849736.225    22615474.394    93994248.077  
R06  24348457.308   129927597.425                                  
R24  19957546.235   106721911.856    19957545.323    83006580.086  
R13  21523870.455   114937099.133                                  
R07  22704136.385   121536690.342    22704134.842    94529030.707  
R08  23085861.269   123624531.099    23085859.228    96151797.401  
R23  20437639.187   109327570.562                                  
R17  23788608.302   127297318.467    23788608.161    99009179.491  
E02  24918346.002   130946707.725    24918346.541   100335968.753  
E10  24364886.865   128038026.433    24364887.340    98107220.417  
E11  23304940.223   122468607.656    23304937.509    93839854.647  
E12  26278404.329   138093712.213    26278403.270   105812790.232  
E14  21974513.218   115477394.792    21974513.456    88482435.920  
E16  24384571.996   128142442.395    24384573.279    98187229.854  
E24  26657780.576   140087923.742    26657781.641   107339886.357  
E25  23468389.461   123326849.016    23468390.886    94498177.762  
E36  25140796.454   132115778.220    25140798.528   101232134.884  
C08  38573550.929   200862138.392    38573541.226   155319256.489  
C13  38349025.895   199693490.548    38349025.044   154415860.292  
C27  23372085.641   121705632.871                                  
C29  24160900.717   125812210.277                                  
C30  21569141.124   112315977.985                                  
C32  25889357.258   134812233.401                                  
C33  26662881.487   138840114.095                                  
C36  22887995.786   119183391.839                                  
> 2025 01 06 18 44 09.0000000  0 38                     
G26  21513672.510   113054839.844    21513672.336    88094833.629  
G10  23254368.592   122202278.264    23254368.027    95223005.823  
G27  20864652.654   109644103.869    20864651.592    85437484.878  
G07  24994508.945   131346819.881    24994506.385   102348112.012  
G08  23359434.382   122754877.728    23359434.399    95652924.136  
G23  21600589.382   113511353.909    21600587.469    88450940.198  
G29  25452912.282   133755794.707    25452910.862   104225699.225  
G15  24774968.819   130193765.369    24774969.522   101449138.370  
