     3.02           OBSERVATION DATA    G                   RINEX VERSION / TYPE
G = GPS  R = GLONASS  E = GALILEO  S = GEO  M = MIXED       COMMENT             
GNSS-SDR            jmfriedt            20240707 150210 UTC PGM / RUN BY / DATE 
GPS OBSERVATION DATA FILE GENERATED BY GNSS-SDR             COMMENT             
GNSS-SDR VERSION 0.0.19                                     COMMENT             
See https://gnss-sdr.org                                    COMMENT             
DEFAULT MARKER NAME                                         MARKER NAME         
jmfriedt            CTTC                                    OBSERVER / AGENCY   
GNSS-SDR            Software Receiver   0.0.19              REC # / TYPE / VERS 
Antenna number      Antenna type                            ANT # / TYPE        
        0.0000        0.0000        0.0000                  APPROX POSITION XYZ 
        0.0000        0.0000        0.0000                  ANTENNA: DELTA H/E/N
G    4 C1C L1C D1C S1C                                      SYS / # / OBS TYPES 
DBHZ                                                        SIGNAL STRENGTH UNIT
  2024    07    07    11    09   48.2600000     GPS         TIME OF FIRST OBS   
                                                            END OF HEADER       
> 2024 07 07 11 10 00.0000000  0  4                                             
G10  27003382.175 7 141903820.576 7     -2898.424 7        45.317               
G21  23908627.432 6 125640785.669 6       -58.790 6        39.437               
G08  24815606.787 6 130407033.326 6     -2454.194 6        40.978               
G32  25859160.277 7 135890933.061 7      -258.594 7        47.601               
> 2024 07 07 11 10 30.0000000  0  4                                             
G10  27019901.763 7 141990820.383 7     -2899.726 7        44.404               
G21  23908931.849 6 125642599.676 6       -60.066 6        39.447               
G08  24829613.957 6 130480879.814 6     -2473.473 6        39.211               
G32  25860663.937 8 135898908.827 8      -274.090 8        50.023               
     3.02           OBSERVATION DATA    G                   RINEX VERSION / TYPE
G = GPS  R = GLONASS  E = GALILEO  S = GEO  M = MIXED       COMMENT             
GNSS-SDR            jmfriedt            20240707 151136 UTC PGM / RUN BY / DATE 
GPS OBSERVATION DATA FILE GENERATED BY GNSS-SDR             COMMENT             
GNSS-SDR VERSION 0.0.19                                     COMMENT             
See https://gnss-sdr.org                                    COMMENT             
DEFAULT MARKER NAME                                         MARKER NAME         
jmfriedt            CTTC                                    OBSERVER / AGENCY   
GNSS-SDR            Software Receiver   0.0.19              REC # / TYPE / VERS 
Antenna number      Antenna type                            ANT # / TYPE        
        0.0000        0.0000        0.0000                  APPROX POSITION XYZ 
        0.0000        0.0000        0.0000                  ANTENNA: DELTA H/E/N
G    4 C1C L1C D1C S1C                                      SYS / # / OBS TYPES 
DBHZ                                                        SIGNAL STRENGTH UNIT
  2024    07    07    11    09   18.3000000     GPS         TIME OF FIRST OBS   
                                                            END OF HEADER       
> 2024 07 07 11 09 30.0000000  0  4                                             
G08  24801644.585 6 130333591.345 6     -2446.490 6        41.178               
G32  25857781.833 7 135883637.366 7      -240.214 7        47.902               
G21  23908382.832 6 125639379.846 6       -50.296 6        39.546               
G27  27388107.750 7 143925565.956 7     -3528.038 7        43.061               
> 2024 07 07 11 10 00.0000000  0  5                                             
G10  27003382.168 7 141903817.576 7     -2898.422 7        45.316               
G08  24815606.802 6 130407122.326 6     -2454.198 6        40.978               
G32  25859160.277 7 135891104.061 7      -258.594 7        47.600               
G21  23908627.388 6 125640970.669 6       -58.794 6        39.439               
G27  27408215.601 6 144031419.567 6     -3532.223 6        40.262               
> 2024 07 07 11 10 30.0000000  0  5                                             
G10  27019901.761 7 141990691.383 7     -2899.725 7        44.405               
G08  24829613.959 6 130480724.814 6     -2473.473 6        39.209               
G32  25860663.937 8 135898829.827 8      -274.090 8        50.023               
G21  23908931.849 6 125642784.676 6       -60.066 6        39.447               
G27  27428332.569 6 144137017.401 6     -3528.013 6        39.075               
