     3.02           OBSERVATION DATA    GPS                 RINEX VERSION / TYPE
G = GPS  R = GLONASS  E = GALILEO  S = GEO  M = MIXED       COMMENT
GPS OBSERVATION DATA FILE GENERATED BY GNSS-SDR             COMMENT
GNSS-SDR VERSION 0.0.19                                     COMMENT
See https://gnss-sdr.org                                    COMMENT
GNSS-SDR            jmfriedt            20250106 185845 UTC PGM / RUN BY / DATE
jmfriedt            CTTC                                    OBSERVER /AGENCY
DEFAULT MARKER NAME                                         MARKER NAME
        0.0000        0.0000        0.0000                  APPROX POSITION XYZ
Antenna number      Antenna type                            ANT # / TYPE
        0.0000        0.0000        0.0000                  ANTENNA: DELTA H/E/N
GNSS-SDR            Software Receiver   0.0.19              REC # / TYPE / VERS
  2025    01    06    18    45   37.10000000     GPS        TIME OF FIRST OBS
G    4 C1C L1C D1C S1C                                      SYS / # / OBS TYPES
                                                            END OF HEADER
> 2025 01 06 18 45 19.0000000  0  5
G16    199589.115     1048305.999                                  
G18    199589.719     1048086.778                                  
G23    199589.317     1049361.258                                  
G26    199585.187     1049113.657                                  
G27    199586.497     1049243.617
> 2025 01 06 18 45 20.0000000  0  5
G16    199695.595     1048879.658                                  
G18    199694.764     1048660.443                                  
G23    199697.198     1049934.915                                  
G26    199692.404     1049687.315                                  
G27    199691.594     1049817.275
> 2025 01 06 18 45 21.0000000  0  5
G16    199802.763     1049453.389                                  
G18    199805.758     1049234.168                                  
G23    199803.062     1050508.648                                  
G26    199798.929     1050261.040                                  
G27    199805.423     1050391.009
> 2025 01 06 18 45 22.0000000  0  5
G16    199910.189     1050026.944                                  
G18    199913.816     1049807.724                                  
G23    199909.959     1051082.199                                  
G26    199907.488     1050834.599                                  
G27    199910.712     1050964.564
> 2025 01 06 18 45 23.0000000  0  5
G16    200021.607     1050600.796                                  
G18    200022.072     1050381.580                                  
G23    200020.894     1051656.056                                  
G26    200017.562     1051408.446                                  
G27    200015.564     1051538.414
> 2025 01 06 18 45 24.0000000  0  5
G16    200126.504     1051175.019                                  
G18    200130.534     1050955.798                                  
G23    200127.583     1052230.276                                  
G26    200124.260     1051982.675                                  
G27    200125.749     1052112.639
> 2025 01 06 18 45 25.0000000  0  5
G16    200235.737     1051749.573                                  
G18    200238.695     1051530.349                                  
G23    200232.812     1052804.831                                  
G26    200233.874     1052557.223                                  
G27    200233.812     1052687.191
> 2025 01 06 18 45 26.0000000  0  5
G16    200347.412     1052323.825                                  
G18    200345.674     1052104.607                                  
G23    200343.768     1053379.081                                  
G26    200342.075     1053131.480                                  
G27    200341.369     1053261.448
> 2025 01 06 18 45 27.0000000  0  5
G16    200454.694     1052898.013                                  
G18    200455.088     1052678.786                                  
G23    200454.543     1053953.267                                  
G26    200450.847     1053705.662                                  
G27    200449.418     1053835.634
> 2025 01 06 18 45 28.0000000  0  5
G16    200558.299     1053472.379                                  
G18    200561.288     1053253.145                                  
G23    200560.719     1054527.625                                  
G26    200559.835     1054280.022                                  
G27    200560.448     1054409.994
> 2025 01 06 18 45 29.0000000  0  5
G16    200669.696     1054046.201                                  
G18    200669.633     1053826.979                                  
G23    200668.709     1055101.463                                  
G26    200669.220     1054853.848                                  
G27    200667.119     1054983.819
> 2025 01 06 18 45 30.0000000  0  5
G16    200775.864     1054619.774                                  
G18    200780.079     1054400.551                                  
G23    200778.104     1055675.036                                  
G26    200775.180     1055427.427                                  
G27    200775.726     1055557.400
> 2025 01 06 18 45 31.0000000  0  5
G16    200882.440     1055193.975                                  
G18    200886.752     1054974.744                                  
G23    200885.555     1056249.234                                  
G26    200884.412     1056001.621                                  
G27    200878.131     1056131.603
> 2025 01 06 18 45 32.0000000  0  5
G16    200992.808     1055767.794                                  
G18    200992.366     1055548.574                                  
G23    200994.408     1056823.054                                  
G26    200994.466     1056575.437                                  
G27    200990.292     1056705.423
> 2025 01 06 18 45 33.0000000  0  5
G16    201100.408     1056341.470                                  
G18    201100.482     1056122.244                                  
G23    201098.343     1057396.726                                  
G26    201100.894     1057149.109                                  
G27    201099.334     1057279.096
> 2025 01 06 18 45 34.0000000  0  5
G16    201208.026     1056915.151                                  
G18    201210.714     1056695.926                                  
G23    201206.213     1057970.406                                  
G26    201209.874     1057722.794                                  
G27    201205.743     1057852.779
> 2025 01 06 18 45 35.0000000  0  5
G16    201315.142     1057488.858                                  
G18    201319.235     1057269.634                                  
G23    201318.437     1058544.123                                  
G26    201317.081     1058296.507                                  
G27    201312.306     1058426.491
> 2025 01 06 18 45 36.0000000  0  5
G16    201424.467     1058062.468                                  
G18    201425.957     1057843.245                                  
G23    201426.312     1059117.737                                  
G26    201425.149     1058870.111                                  
G27    201420.552     1059000.103
> 2025 01 06 18 45 37.0000000  0  5
G16    201529.849     1058636.117                                  
G18    201533.782     1058416.886                                  
G23    201532.165     1059691.374                                  
G26    201533.430     1059443.750                                  
G27    201528.546     1059573.747
> 2025 01 06 18 45 38.0000000  0  5
G16    201641.294     1059210.033                                  
G18    201642.252     1058990.809                                  
G23    201642.928     1060265.295                                  
G26    201640.637     1060017.673                                  
G27    201638.806     1060147.669
> 2025 01 06 18 45 39.0000000  0  5
G16    201742.899     1059783.580                                  
G18    201750.600     1059564.354                                  
G23    201751.890     1060838.851                                  
G26    201752.857     1060591.223                                  
G27    201743.580     1060721.220
> 2025 01 06 18 45 40.0000000  0  5
G16    201847.752     1060356.905                                  
G18    201854.875     1060137.684                                  
G23    201861.220     1061412.174                                  
G26    201860.666     1061164.557                                  
G27    201851.516     1061294.546
> 2025 01 06 18 45 41.0000000  0  5
G16    201960.369     1060929.889                                  
G18    201964.314     1060710.669                                  
G23    201967.834     1061985.161                                  
G26    201965.453     1061737.534                                  
G27    201958.679     1061867.528
> 2025 01 06 18 45 42.0000000  0  5
G16    202068.335     1061503.290                                  
G18    202074.501     1061284.061                                  
G23    202075.853     1062558.563                                  
G26    202071.011     1062310.933                                  
G27    202067.374     1062440.927
> 2025 01 06 18 45 43.0000000  0  5
G16    202179.758     1062076.816                                  
G18    202185.241     1061857.586                                  
G23    202182.626     1063132.090                                  
G26    202181.642     1062884.463                                  
G27    202175.639     1063014.465
> 2025 01 06 18 45 44.0000000  0  5
G16    202286.407     1062650.197                                  
G18    202290.052     1062430.967                                  
G23    202288.880     1063705.471                                  
G26    202286.528     1063457.836                                  
G27    202283.759     1063587.841
> 2025 01 06 18 45 45.0000000  0  5
G16    202389.463     1063223.528                                  
G18    202397.437     1063004.298                                  
G23    202397.614     1064278.795                                  
G26    202395.000     1064031.168                                  
G27    202395.393     1064161.172
> 2025 01 06 18 45 46.0000000  0  5
G16    202501.739     1063797.240                                  
G18    202505.616     1063578.004                                  
G23    202503.561     1064852.508                                  
G26    202505.250     1064604.869                                  
G27    202500.447     1064734.879
> 2025 01 06 18 45 47.0000000  0  5
G16    202608.078     1064370.984                                  
G18    202611.820     1064151.756                                  
G23    202612.417     1065426.261                                  
G26    202609.838     1065178.626                                  
G27    202612.306     1065308.632
> 2025 01 06 18 45 48.0000000  0  5
G16    202720.532     1064944.752                                  
G18    202718.616     1064725.522                                  
G23    202721.165     1066000.020                                  
G26    202718.393     1065752.390                                  
G27    202718.127     1065882.395
> 2025 01 06 18 45 49.0000000  0  5
G16    202826.831     1065517.995                                  
G18    202825.396     1065298.761                                  
G23    202830.052     1066573.271                                  
G26    202827.135     1066325.644                                  
G27    202827.243     1066455.640
> 2025 01 06 18 45 50.0000000  0  5
G16    202938.810     1066091.525                                  
G18    202939.019     1065872.286                                  
G23    202935.735     1067146.794                                  
G26    202936.574     1066899.152                                  
G27    202934.177     1067029.167
> 2025 01 06 18 45 51.0000000  0  5
G16    203044.442     1066665.138                                  
G18    203045.913     1066445.907                                  
G23    203043.329     1067720.411                                  
G26    203045.055     1067472.771                                  
G27    203043.735     1067602.785
> 2025 01 06 18 45 52.0000000  0  5
G16    203147.413     1067238.644                                  
G18    203156.202     1067019.409                                  
G23    203150.675     1068293.919                                  
G26    203151.125     1068046.278                                  
G27    203152.179     1068176.294
> 2025 01 06 18 45 53.0000000  0  5
G16    203260.075     1067812.099                                  
G18    203260.249     1067592.856                                  
G23    203258.965     1068867.372                                  
G26    203259.975     1068619.730                                  
G27    203261.472     1068749.738
> 2025 01 06 18 45 54.0000000  0  5
G16    203365.913     1068384.936                                  
G18    203368.924     1068165.700                                  
G23    203365.841     1069440.214                                  
G26    203368.363     1069192.573                                  
G27    203371.499     1069322.589
> 2025 01 06 18 45 55.0000000  0  5
G16    203472.739     1068957.501                                  
G18    203474.066     1068738.265                                  
G23    203473.378     1070012.777                                  
G26    203475.477     1069765.134                                  
G27    203478.169     1069895.151
> 2025 01 06 18 45 56.0000000  0  5
G16    203583.707     1069530.647                                  
G18    203582.595     1069311.408                                  
G23    203584.380     1070585.921                                  
G26    203581.956     1070338.277                                  
G27    203587.248     1070468.296
> 2025 01 06 18 45 57.0000000  0  5
G16    203690.807     1070104.071                                  
G18    203689.611     1069884.839                                  
G23    203688.638     1071159.350                                  
G26    203687.723     1070911.708                                  
G27    203692.578     1071041.726
> 2025 01 06 18 45 58.0000000  0  5
G16    203798.542     1070677.454                                  
G18    203799.137     1070458.220                                  
G23    203797.523     1071732.732                                  
G26    203793.844     1071485.087                                  
G27    203803.031     1071615.109
> 2025 01 06 18 45 59.0000000  0  5
G16    203907.201     1071250.790                                  
G18    203902.847     1071031.556                                  
G23    203905.427     1072306.078                                  
G26    203906.809     1072058.424                                  
G27    203911.697     1072188.451
> 2025 01 06 18 46  0.0000000  0  5
G16    204015.851     1071824.432                                  
G18    204013.279     1071605.186                                  
G23    204014.310     1072879.713                                  
G26    204012.463     1072632.058                                  
G27    204017.203     1072762.081
> 2025 01 06 18 46  1.0000000  0  5
G16    204124.930     1072398.223                                  
G18    204116.601     1072178.982                                  
G23    204122.903     1073453.505                                  
G26    204119.409     1073205.851                                  
G27    204128.087     1073335.880
> 2025 01 06 18 46  2.0000000  0  5
G16    204234.273     1072971.841                                  
G18    204230.401     1072752.604                                  
G23    204226.104     1074027.127                                  
G26    204230.291     1073779.467                                  
G27    204235.155     1073909.501
> 2025 01 06 18 46  3.0000000  0  5
G16    204339.895     1073545.300                                  
G18    204333.680     1073326.056                                  
G23    204339.460     1074600.583                                  
G26    204338.821     1074352.926                                  
G27    204342.019     1074482.959
> 2025 01 06 18 46  4.0000000  0  5
G16    204449.093     1074118.735                                  
G18    204445.094     1073899.495                                  
G23    204446.801     1075174.020                                  
G26    204446.335     1074926.362                                  
G27    204450.316     1075056.398
> 2025 01 06 18 46  5.0000000  0  5
G16    204557.227     1074691.810                                  
G18    204552.177     1074472.571                                  
G23    204552.942     1075747.096                                  
G26    204555.946     1075499.437                                  
G27    204555.708     1075629.470
> 2025 01 06 18 46  6.0000000  0  5
G16    204662.386     1075264.404                                  
G18    204660.501     1075045.158                                  
G23    204661.127     1076319.684                                  
G26    204663.909     1076072.031                                  
G27    204667.031     1076202.066
> 2025 01 06 18 46  7.0000000  0  5
G16    204773.523     1075837.273                                  
G18    204767.708     1075618.026                                  
G23    204768.882     1076892.553                                  
G26    204770.687     1076644.894                                  
G27    204771.864     1076774.936
> 2025 01 06 18 46  8.0000000  0  5
G16    204879.887     1076410.465                                  
G18    204876.404     1076191.217                                  
G23    204877.417     1077465.749                                  
G26    204880.750     1077218.091                                  
G27    204880.750     1077348.128
> 2025 01 06 18 46  9.0000000  0  5
G16    204986.522     1076984.503                                  
G18    204984.277     1076765.252                                  
G23    204988.574     1078039.784                                  
G26    204989.796     1077792.121                                  
G27    204989.620     1077922.163
> 2025 01 06 18 46 10.0000000  0  5
G16    205096.390     1077557.890                                  
G18    205094.112     1077338.640                                  
G23    205091.931     1078613.182                                  
G26    205092.791     1078365.514                                  
G27    205096.694     1078495.556
> 2025 01 06 18 46 11.0000000  0  5
G16    205205.942     1078130.813                                  
G18    205200.376     1077911.570                                  
G23    205200.125     1079186.104                                  
G26    205204.563     1078938.437                                  
G27    205201.916     1079068.484
> 2025 01 06 18 46 12.0000000  0  5
G16    205313.336     1078703.866                                  
G18    205310.532     1078484.631                                  
G23    205309.710     1079759.162                                  
G26    205309.480     1079511.491                                  
G27    205311.278     1079641.541
> 2025 01 06 18 46 13.0000000  0  5
G16    205422.233     1079276.754                                  
G18    205415.707     1079057.507                                  
G23    205418.804     1080332.045                                  
G26    205419.311     1080084.368                                  
G27    205420.896     1080214.425
> 2025 01 06 18 46 14.0000000  0  5
G16    205529.539     1079849.501                                  
G18    205523.118     1079630.251                                  
G23    205532.904     1080904.789                                  
G26    205530.831     1080657.113                                  
G27    205526.514     1080787.168
> 2025 01 06 18 46 15.0000000  0  5
G16    205636.451     1080422.686                                  
G18    205635.857     1080203.436                                  
G23    205636.658     1081477.976                                  
G26    205635.020     1081230.297                                  
G27    205636.276     1081360.358
> 2025 01 06 18 46 16.0000000  0  5
G16    205744.503     1080995.928                                  
G18    205741.804     1080776.682                                  
G23    205745.831     1082051.217                                  
G26    205742.458     1081803.549                                  
G27    205744.520     1081933.603
> 2025 01 06 18 46 17.0000000  0  5
G16    205852.717     1081569.052                                  
G18    205854.262     1081349.811                                  
G23    205852.426     1082624.348                                  
G26    205851.990     1082376.676                                  
G27    205850.496     1082506.730
> 2025 01 06 18 46 18.0000000  0  5
G16    205962.043     1082142.471                                  
G18    205960.687     1081923.232                                  
G23    205958.161     1083197.768                                  
G26    205955.678     1082950.095                                  
G27    205960.915     1083080.149
> 2025 01 06 18 46 19.0000000  0  5
G16    206068.522     1082715.930                                  
G18    206067.265     1082496.686                                  
G23    206067.653     1083771.230                                  
G26    206065.474     1083523.559                                  
G27    206068.683     1083653.614
> 2025 01 06 18 46 20.0000000  0  5
G16    206178.938     1083288.794                                  
G18    206177.473     1083069.550                                  
G23    206173.620     1084344.092                                  
G26    206172.961     1084096.425                                  
G27    206176.933     1084226.475
> 2025 01 06 18 46 21.0000000  0  5
G16    206281.291     1083861.466                                  
G18    206282.050     1083642.214                                  
G23    206284.200     1084916.759                                  
G26    206281.570     1084669.082                                  
G27    206284.525     1084799.139
> 2025 01 06 18 46 22.0000000  0  5
G16    206390.306     1084434.367                                  
G18    206391.859     1084215.112                                  
G23    206391.061     1085489.664                                  
G26    206390.013     1085241.984                                  
G27    206392.721     1085372.042
> 2025 01 06 18 46 23.0000000  0  5
G16    206499.556     1085007.246                                  
G18    206498.736     1084788.002                                  
G23    206501.435     1086062.545                                  
G26    206498.832     1085814.871                                  
G27    206499.242     1085944.934
> 2025 01 06 18 46 24.0000000  0  5
G16    206606.371     1085580.100                                  
G18    206606.582     1085360.846                                  
G23    206608.177     1086635.393                                  
G26    206610.708     1086387.712                                  
G27    206606.328     1086517.778
> 2025 01 06 18 46 25.0000000  0  5
G16    206718.399     1086153.366                                  
G18    206717.825     1085934.121                                  
G23    206716.620     1087208.667                                  
G26    206714.608     1086960.977                                  
G27    206717.288     1087091.046
> 2025 01 06 18 46 26.0000000  0  5
G16    206828.414     1086726.224                                  
G18    206823.814     1086506.970                                  
G23    206826.823     1087781.519                                  
G26    206822.316     1087533.832                                  
G27    206825.223     1087663.901
> 2025 01 06 18 46 27.0000000  0  5
G16    206933.166     1087299.328                                  
G18    206931.287     1087080.070                                  
G23    206935.647     1088354.623                                  
G26    206932.687     1088106.933                                  
G27    206934.858     1088237.011
> 2025 01 06 18 46 28.0000000  0  5
G16    207040.776     1087872.037                                  
G18    207037.215     1087652.782                                  
G23    207043.761     1088927.338                                  
G26    207037.074     1088679.651                                  
G27    207043.617     1088809.718
> 2025 01 06 18 46 29.0000000  0  5
G16    207144.005     1088444.860                                  
G18    207147.056     1088225.611                                  
G23    207153.852     1089500.166                                  
G26    207148.372     1089252.476                                  
G27    207150.229     1089382.546
> 2025 01 06 18 46 30.0000000  0  5
G16    207256.472     1089018.185                                  
G18    207255.604     1088798.928                                  
G23    207260.066     1090073.491                                  
G26    207253.196     1089825.797                                  
G27    207254.884     1089955.871
> 2025 01 06 18 46 31.0000000  0  5
G16    207365.249     1089590.535                                  
G18    207363.362     1089371.286                                  
G23    207367.918     1090645.837                                  
G26    207362.257     1090398.152                                  
G27    207367.277     1090528.227
> 2025 01 06 18 46 32.0000000  0  5
G16    207470.623     1090162.611                                  
G18    207473.035     1089943.359                                  
G23    207471.363     1091217.912                                  
G26    207466.891     1090970.223                                  
G27    207475.261     1091100.298
> 2025 01 06 18 46 33.0000000  0  5
G16    207575.173     1090735.249                                  
G18    207578.674     1090515.995                                  
G23    207578.642     1091790.552                                  
G26    207578.902     1091542.858                                  
G27    207582.525     1091672.937
> 2025 01 06 18 46 34.0000000  0  5
G16    207683.655     1091307.990                                  
G18    207685.934     1091088.742                                  
G23    207689.417     1092363.297                                  
G26    207685.003     1092115.605                                  
G27    207690.682     1092245.686
> 2025 01 06 18 46 35.0000000  0  5
G16    207794.561     1091880.931                                  
G18    207793.179     1091661.677                                  
G23    207796.376     1092936.236                                  
G26    207791.216     1092688.539                                  
G27    207795.659     1092818.622
> 2025 01 06 18 46 36.0000000  0  5
G16    207900.587     1092453.792                                  
G18    207903.927     1092234.535                                  
G23    207904.672     1093509.096                                  
G26    207900.851     1093261.395                                  
G27    207902.805     1093391.485
> 2025 01 06 18 46 37.0000000  0  5
G16    208007.437     1093026.274                                  
G18    208011.661     1092807.021                                  
G23    208015.549     1094081.586                                  
G26    208013.945     1093833.886                                  
G27    208011.686     1093963.974
> 2025 01 06 18 46 38.0000000  0  5
G16    208121.032     1093598.720                                  
G18    208119.098     1093379.466                                  
G23    208119.483     1094654.026                                  
G26    208114.772     1094406.330                                  
G27    208116.541     1094536.422
> 2025 01 06 18 46 39.0000000  0  5
G16    208228.250     1094171.551                                  
G18    208225.359     1093952.297                                  
G23    208227.034     1095226.855                                  
G26    208221.595     1094979.156                                  
G27    208227.128     1095109.251
> 2025 01 06 18 46 40.0000000  0  5
G16    208332.806     1094744.629                                  
G18    208334.560     1094525.365                                  
G23    208333.708     1095799.932                                  
G26    208332.618     1095552.230                                  
G27    208335.301     1095682.326
> 2025 01 06 18 46 41.0000000  0  5
G16    208442.127     1095318.243                                  
G18    208439.501     1095098.987                                  
G23    208444.351     1096373.543                                  
G26    208438.757     1096125.845                                  
G27    208439.207     1096255.937
> 2025 01 06 18 46 42.0000000  0  5
G16    208549.494     1095891.436                                  
G18    208548.378     1095672.182                                  
G23    208552.538     1096946.744                                  
G26    208545.437     1096699.048                                  
G27    208548.092     1096829.138
> 2025 01 06 18 46 43.0000000  0  5
G16    208654.910     1096464.538                                  
G18    208655.113     1096245.274                                  
G23    208659.422     1097519.845                                  
G26    208655.698     1097272.146                                  
G27    208657.935     1097402.238
> 2025 01 06 18 46 44.0000000  0  5
G16    208764.088     1097037.843                                  
G18    208764.751     1096818.592                                  
G23    208769.610     1098093.162                                  
G26    208762.850     1097845.456                                  
G27    208764.749     1097975.550
> 2025 01 06 18 46 45.0000000  0  5
G16    208871.598     1097612.014                                  
G18    208870.430     1097392.763                                  
G23    208875.414     1098667.329                                  
G26    208872.120     1098419.620                                  
G27    208871.804     1098549.719
> 2025 01 06 18 46 46.0000000  0  5
G16    208981.460     1098186.577                                  
G18    208981.238     1097967.315                                  
G23    208982.311     1099241.890                                  
G26    208979.025     1098994.180                                  
G27    208981.570     1099124.280
> 2025 01 06 18 46 47.0000000  0  5
G16    209089.972     1098760.196                                  
G18    209089.308     1098540.950                                  
G23    209091.084     1099815.515                                  
G26    209085.291     1099567.807                                  
G27    209090.417     1099697.915
> 2025 01 06 18 46 48.0000000  0  5
G16    209197.561     1099332.209                                  
G18    209198.128     1099112.952                                  
G23    209196.870     1100387.525                                  
G26    209193.540     1100139.819                                  
G27    209197.926     1100269.924
> 2025 01 06 18 46 49.0000000  0  5
G16    209306.266     1099903.706                                  
G18    209303.981     1099684.447                                  
G23    209309.715     1100959.016                                  
G26    209299.347     1100711.307                                  
G27    209304.489     1100841.413
> 2025 01 06 18 46 50.0000000  0  5
G16    209414.112     1100475.987                                  
G18    209412.259     1100256.728                                  
G23    209414.161     1101531.305                                  
G26    209410.791     1101283.592                                  
G27    209413.657     1101413.701
> 2025 01 06 18 46 51.0000000  0  5
G16    209521.192     1101048.347                                  
G18    209520.935     1100829.089                                  
G23    209523.057     1102103.660                                  
G26    209517.648     1101855.949                                  
G27    209523.946     1101986.057
> 2025 01 06 18 46 52.0000000  0  5
G16    209628.466     1101620.904                                  
G18    209628.478     1101401.645                                  
G23    209627.190     1102676.225                                  
G26    209627.229     1102428.509                                  
G27    209625.632     1102558.620
> 2025 01 06 18 46 53.0000000  0  5
G16    209740.019     1102193.122                                  
G18    209737.848     1101973.862                                  
G23    209737.322     1103248.432                                  
G26    209733.585     1103000.720                                  
G27    209735.631     1103130.830
> 2025 01 06 18 46 54.0000000  0  5
G16    209845.580     1102765.162                                  
G18    209843.681     1102545.901                                  
G23    209842.285     1103820.476                                  
G26    209840.586     1103572.756                                  
G27    209845.416     1103702.879
> 2025 01 06 18 46 55.0000000  0  5
G16    209953.356     1103337.142                                  
G18    209957.239     1103117.877                                  
G23    209950.398     1104392.458                                  
G26    209950.023     1104144.728                                  
G27    209947.151     1104274.853
> 2025 01 06 18 46 56.0000000  0  5
G16    210064.972     1103908.848                                  
G18    210062.199     1103689.585                                  
G23    210056.632     1104964.164                                  
G26    210056.026     1104716.449                                  
G27    210059.637     1104846.561
> 2025 01 06 18 46 57.0000000  0  5
G16    210167.409     1104480.631                                  
G18    210169.143     1104261.364                                  
G23    210163.716     1105535.950                                  
G26    210164.593     1105288.217                                  
G27    210166.135     1105418.343
> 2025 01 06 18 46 58.0000000  0  5
G16    210276.117     1105052.592                                  
G18    210273.860     1104833.331                                  
G23    210271.218     1106107.918                                  
G26    210273.325     1105860.193                                  
G27    210276.199     1105990.315
> 2025 01 06 18 46 59.0000000  0  5
G16    210379.635     1105624.551                                  
G18    210382.445     1105405.287                                  
G23    210378.826     1106679.875                                  
G26    210381.876     1106432.149                                  
G27    210383.901     1106562.270
> 2025 01 06 18 47  0.0000000  0  5
G16    210491.483     1106196.502                                  
G18    210492.678     1105977.237                                  
G23    210487.516     1107251.828                                  
G26    210488.324     1107004.097                                  
G27    210493.901     1107134.223
> 2025 01 06 18 47  1.0000000  0  5
G16    210599.920     1106768.259                                  
G18    210596.345     1106548.985                                  
G23    210594.211     1107823.573                                  
G26    210597.684     1107575.845                                  
G27    210601.241     1107705.971
> 2025 01 06 18 47  2.0000000  0  5
G16    210707.295     1107340.416                                  
G18    210704.233     1107121.151                                  
G23    210703.644     1108395.737                                  
G26    210705.144     1108148.003                                  
G27    210707.305     1108278.132
> 2025 01 06 18 47  3.0000000  0  5
G16    210814.563     1107912.949                                  
G18    210814.452     1107693.680                                  
G23    210811.101     1108968.265                                  
G26    210813.595     1108720.534                                  
G27    210815.376     1108850.663
> 2025 01 06 18 47  4.0000000  0  5
G16    210921.757     1108485.418                                  
G18    210920.043     1108266.151                                  
G23    210919.867     1109540.740                                  
G26    210919.506     1109293.010                                  
G27    210920.743     1109423.138
> 2025 01 06 18 47  5.0000000  0  5
G16    211028.037     1109057.760                                  
G18    211033.742     1108838.485                                  
G23    211026.125     1110113.083                                  
G26    211029.658     1109865.352                                  
G27    211028.357     1109995.484
> 2025 01 06 18 47  6.0000000  0  5
G16    211137.282     1109629.948                                  
G18    211138.250     1109410.679                                  
G23    211134.333     1110685.272                                  
G26    211138.739     1110437.536                                  
G27    211136.035     1110567.675
> 2025 01 06 18 47  7.0000000  0  5
G16    211243.551     1110202.276                                  
G18    211243.872     1109983.009                                  
G23    211242.549     1111257.603                                  
G26    211247.491     1111009.863                                  
G27    211242.879     1111140.001
> 2025 01 06 18 47  8.0000000  0  5
G16    211354.435     1110774.559                                  
G18    211354.549     1110555.298                                  
G23    211351.490     1111829.889                                  
G26    211353.250     1111582.149                                  
G27    211348.822     1111712.293
> 2025 01 06 18 47  9.0000000  0  5
G16    211462.888     1111346.737                                  
G18    211461.679     1111127.470                                  
G23    211461.990     1112402.066                                  
G26    211460.697     1112154.326                                  
G27    211458.120     1112284.467
> 2025 01 06 18 47 10.0000000  0  5
G16    211568.533     1111919.183                                  
G18    211568.594     1111699.913                                  
G23    211567.209     1112974.513                                  
G26    211569.756     1112726.775                                  
G27    211568.808     1112856.913
> 2025 01 06 18 47 11.0000000  0  5
G16    211676.695     1112491.814                                  
G18    211677.683     1112272.547                                  
G23    211672.228     1113547.140                                  
G26    211675.739     1113299.401                                  
G27    211674.419     1113429.546
> 2025 01 06 18 47 12.0000000  0  5
G16    211781.550     1113064.279                                  
G18    211787.887     1112845.011                                  
G23    211782.686     1114119.609                                  
G26    211784.463     1113871.865                                  
G27    211782.577     1114002.013
> 2025 01 06 18 47 13.0000000  0  5
G16    211894.618     1113636.738                                  
G18    211895.303     1113417.467                                  
G23    211889.656     1114692.065                                  
G26    211893.810     1114444.318                                  
G27    211893.389     1114574.466
> 2025 01 06 18 47 14.0000000  0  5
G16    212001.654     1114209.167                                  
G18    212001.409     1113989.897                                  
G23    211996.972     1115264.492                                  
G26    211998.757     1115016.756                                  
G27    212000.067     1115146.896
> 2025 01 06 18 47 15.0000000  0  5
G16    212110.882     1114782.247                                  
G18    212112.583     1114562.977                                  
G23    212106.009     1115837.582                                  
G26    212108.496     1115589.837                                  
G27    212110.238     1115719.982
> 2025 01 06 18 47 16.0000000  0  5
G16    212218.805     1115355.408                                  
G18    212216.670     1115136.136                                  
G23    212211.685     1116410.740                                  
G26    212217.768     1116162.988                                  
G27    212217.955     1116293.145
> 2025 01 06 18 47 17.0000000  0  5
G16    212320.202     1115928.249                                  
G18    212328.322     1115708.977                                  
G23    212319.787     1116983.589                                  
G26    212326.052     1116735.837                                  
G27    212324.688     1116865.990
> 2025 01 06 18 47 18.0000000  0  5
G16    212434.270     1116501.551                                  
G18    212435.695     1116282.275                                  
G23    212427.151     1117556.877                                  
G26    212432.854     1117309.133                                  
G27    212436.131     1117439.284
> 2025 01 06 18 47 19.0000000  0  5
G16    212543.128     1117074.865                                  
G18    212543.772     1116855.590                                  
G23    212534.391     1118130.198                                  
G26    212541.725     1117882.446                                  
G27    212541.004     1118012.601
> 2025 01 06 18 47 20.0000000  0  5
G16    212647.912     1117648.403                                  
G18    212649.771     1117429.122                                  
G23    212643.282     1118703.736                                  
G26    212649.769     1118455.985                                  
G27    212646.547     1118586.140
> 2025 01 06 18 47 21.0000000  0  5
G16    212757.365     1118221.691                                  
G18    212759.432     1118002.408                                  
G23    212751.876     1119277.024                                  
G26    212756.385     1119029.268                                  
G27    212757.571     1119159.429
> 2025 01 06 18 47 22.0000000  0  5
G16    212867.658     1118794.684                                  
G18    212863.076     1118575.405                                  
G23    212858.295     1119850.015                                  
G26    212868.987     1119602.266                                  
G27    212861.322     1119732.423
> 2025 01 06 18 47 23.0000000  0  5
G16    212971.646     1119367.471                                  
G18    212974.097     1119148.198                                  
G23    212969.217     1120422.808                                  
G26    212973.744     1120175.051                                  
G27    212974.146     1120305.215
> 2025 01 06 18 47 24.0000000  0  5
G16    213081.439     1119939.628                                  
G18    213080.107     1119720.351                                  
G23    213080.282     1120994.967                                  
G26    213082.550     1120747.206                                  
G27    213079.821     1120877.371
> 2025 01 06 18 47 25.0000000  0  5
G16    213187.861     1120511.683                                  
G18    213189.457     1120292.406                                  
G23    213187.373     1121567.025                                  
G26    213191.102     1121319.259                                  
G27    213188.220     1121449.425
> 2025 01 06 18 47 26.0000000  0  5
G16    213294.018     1121084.042                                  
G18    213295.733     1120864.769                                  
G23    213292.132     1122139.378                                  
G26    213296.906     1121891.619                                  
G27    213296.174     1122021.788
> 2025 01 06 18 47 27.0000000  0  5
G16    213401.370     1121656.706                                  
G18    213404.649     1121437.437                                  
G23    213399.896     1122712.051                                  
G26    213404.726     1122464.293                                  
G27    213402.302     1122594.458
> 2025 01 06 18 47 28.0000000  0  5
G16    213510.370     1122229.264                                  
G18    213508.019     1122009.985                                  
G23    213511.846     1123284.600                                  
G26    213512.429     1123036.841                                  
G27    213511.100     1123167.008
> 2025 01 06 18 47 29.0000000  0  5
G16    213617.991     1122801.909                                  
G18    213619.723     1122582.629                                  
G23    213618.799     1123857.250                                  
G26    213618.218     1123609.489                                  
G27    213618.612     1123739.657
> 2025 01 06 18 47 30.0000000  0  5
G16    213725.663     1123375.111                                  
G18    213728.904     1123155.829                                  
G23    213722.911     1124430.452                                  
G26    213728.146     1124182.686                                  
G27    213728.041     1124312.861
> 2025 01 06 18 47 31.0000000  0  5
G16    213832.682     1123947.037                                  
G18    213836.813     1123727.764                                  
G23    213832.774     1125002.385                                  
G26    213836.027     1124754.619                                  
G27    213834.913     1124884.791
> 2025 01 06 18 47 32.0000000  0  5
G16    213941.095     1124519.029                                  
G18    213946.218     1124299.744                                  
G23    213940.846     1125574.369                                  
G26    213942.174     1125326.607                                  
G27    213944.406     1125456.777
> 2025 01 06 18 47 33.0000000  0  5
G16    214049.721     1125090.690                                  
G18    214051.941     1124871.414                                  
G23    214050.966     1126146.032                                  
G26    214051.718     1125898.264                                  
G27    214052.696     1126028.443
> 2025 01 06 18 47 34.0000000  0  5
G16    214157.101     1125662.831                                  
G18    214160.669     1125443.552                                  
G23    214158.548     1126718.177                                  
G26    214156.023     1126470.409                                  
G27    214158.813     1126600.590
> 2025 01 06 18 47 35.0000000  0  5
G16    214267.133     1126235.557                                  
G18    214267.695     1126016.282                                  
G23    214263.598     1127290.906                                  
G26    214262.744     1127043.133                                  
G27    214263.828     1127173.320
> 2025 01 06 18 47 36.0000000  0  5
G16    214375.982     1126808.988                                  
G18    214376.083     1126589.720                                  
G23    214369.727     1127864.342                                  
G26    214371.821     1127616.577                                  
G27    214373.096     1127746.753
> 2025 01 06 18 47 37.0000000  0  5
G16    214482.041     1127382.223                                  
G18    214482.216     1127162.943                                  
G23    214479.979     1128437.566                                  
G26    214479.097     1128189.798                                  
G27    214480.296     1128319.981
> 2025 01 06 18 47 38.0000000  0  5
G16    214589.269     1127955.356                                  
G18    214592.299     1127736.082                                  
G23    214588.514     1129010.705                                  
G26    214585.679     1128762.933                                  
G27    214588.290     1128893.115
> 2025 01 06 18 47 39.0000000  0  5
G16    214696.943     1128528.695                                  
G18    214700.397     1128309.420                                  
G23    214697.564     1129584.048                                  
G26    214695.334     1129336.280                                  
G27    214696.003     1129466.465
> 2025 01 06 18 47 40.0000000  0  5
G16    214808.536     1129102.014                                  
G18    214807.651     1128882.731                                  
G23    214805.423     1130157.360                                  
G26    214802.853     1129909.585                                  
G27    214803.998     1130039.775
> 2025 01 06 18 47 41.0000000  0  5
G16    214913.562     1129674.843                                  
G18    214912.493     1129455.563                                  
G23    214909.836     1130730.196                                  
G26    214909.703     1130482.418                                  
G27    214912.758     1130612.606
> 2025 01 06 18 47 42.0000000  0  5
G16    215020.490     1130246.885                                  
G18    215020.392     1130027.595                                  
G23    215022.974     1131302.235                                  
G26    215019.371     1131054.446                                  
G27    215020.197     1131184.644
> 2025 01 06 18 47 43.0000000  0  5
G16    215128.055     1130819.005                                  
G18    215127.627     1130599.723                                  
G23    215125.982     1131874.357                                  
G26    215124.731     1131626.571                                  
G27    215127.548     1131756.769
> 2025 01 06 18 47 44.0000000  0  5
G16    215238.386     1131391.507                                  
G18    215237.284     1131172.222                                  
G23    215235.305     1132446.859                                  
G26    215232.260     1132199.077                                  
G27    215236.979     1132329.273
> 2025 01 06 18 47 45.0000000  0  5
G16    215343.839     1131964.393                                  
G18    215345.252     1131745.109                                  
G23    215342.009     1133019.742                                  
G26    215345.911     1132771.962                                  
G27    215346.325     1132902.158
> 2025 01 06 18 47 46.0000000  0  5
G16    215452.326     1132536.628                                  
G18    215454.082     1132317.351                                  
G23    215447.509     1133591.982                                  
G26    215452.107     1133344.209                                  
G27    215449.640     1133474.407
> 2025 01 06 18 47 47.0000000  0  5
G16    215562.576     1133108.295                                  
G18    215562.015     1132889.002                                  
G23    215559.923     1134163.637                                  
G26    215560.200     1133915.847                                  
G27    215559.429     1134046.053
> 2025 01 06 18 47 48.0000000  0  5
G16    215670.808     1133680.418                                  
G18    215666.547     1133461.130                                  
G23    215665.918     1134735.767                                  
G26    215668.920     1134487.988                                  
G27    215670.161     1134618.187
> 2025 01 06 18 47 49.0000000  0  5
G16    215777.921     1134253.463                                  
G18    215774.506     1134034.180                                  
G23    215777.591     1135308.818                                  
G26    215775.379     1135061.036                                  
G27    215773.006     1135191.233
> 2025 01 06 18 47 50.0000000  0  5
G16    215886.731     1134826.126                                  
G18    215884.541     1134606.829                                  
G23    215883.821     1135881.478                                  
G26    215881.798     1135633.691                                  
G27    215883.355     1135763.892
> 2025 01 06 18 47 51.0000000  0  5
G16    215989.167     1135398.538                                  
G18    215991.492     1135179.257                                  
G23    215992.338     1136453.894                                  
G26    215992.617     1136206.108                                  
G27    215989.168     1136336.316
> 2025 01 06 18 47 52.0000000  0  5
G16    216101.606     1135971.033                                  
G18    216100.079     1135751.745                                  
G23    216101.148     1137026.389                                  
G26    216100.295     1136778.591                                  
G27    216097.397     1136908.803
> 2025 01 06 18 47 53.0000000  0  5
G16    216206.925     1136543.020                                  
G18    216205.195     1136323.733                                  
G23    216207.106     1137598.376                                  
G26    216205.694     1137350.585                                  
G27    216207.703     1137480.793
> 2025 01 06 18 47 54.0000000  0  5
G16    216318.138     1137114.735                                  
G18    216315.116     1136895.441                                  
G23    216311.165     1138170.093                                  
G26    216317.539     1137922.301                                  
G27    216312.071     1138052.505
> 2025 01 06 18 47 55.0000000  0  5
G16    216426.340     1137687.263                                  
G18    216424.893     1137467.976                                  
G23    216420.310     1138742.622                                  
G26    216422.320     1138494.829                                  
G27    216423.032     1138625.040
> 2025 01 06 18 47 56.0000000  0  5
G16    216532.529     1138260.174                                  
G18    216529.628     1138040.886                                  
G23    216528.749     1139315.537                                  
G26    216530.703     1139067.741                                  
G27    216529.931     1139197.949
> 2025 01 06 18 47 57.0000000  0  5
G16    216638.849     1138833.687                                  
G18    216641.634     1138614.397                                  
G23    216636.842     1139889.045                                  
G26    216641.141     1139641.248                                  
G27    216634.431     1139771.470
> 2025 01 06 18 47 58.0000000  0  5
G16    216749.380     1139407.242                                  
G18    216746.104     1139187.951                                  
G23    216746.357     1140462.602                                  
G26    216746.193     1140214.806                                  
G27    216746.879     1140345.020
> 2025 01 06 18 47 59.0000000  0  5
G16    216853.617     1139980.180                                  
G18    216856.009     1139760.886                                  
G23    216853.116     1141035.539                                  
G26    216859.116     1140787.735                                  
G27    216855.888     1140917.962
> 2025 01 06 18 48  0.0000000  0  5
G16    216961.099     1140552.872                                  
G18    216962.879     1140333.583                                  
G23    216965.686     1141608.233                                  
G26    216964.708     1141360.430                                  
G27    216962.550     1141490.656
> 2025 01 06 18 48  1.0000000  0  5
G16    217069.234     1141125.043                                  
G18    217070.460     1140905.752                                  
G23    217073.952     1142180.407                                  
G26    217071.478     1141932.603                                  
G27    217069.259     1142062.831
> 2025 01 06 18 48  2.0000000  0  5
G16    217173.536     1141697.355                                  
G18    217177.341     1141478.064                                  
G23    217183.898     1142752.717                                  
G26    217179.599     1142504.914                                  
G27    217175.919     1142635.140
> 2025 01 06 18 48  3.0000000  0  5
G16    217283.585     1142269.805                                  
G18    217284.655     1142050.517                                  
G23    217288.710     1143325.174                                  
G26    217288.785     1143077.374                                  
G27    217282.892     1143207.598
> 2025 01 06 18 48  4.0000000  0  5
G16    217390.510     1142841.958                                  
G18    217389.875     1142622.663                                  
G23    217395.981     1143897.325                                  
G26    217393.156     1143649.518                                  
G27    217392.417     1143779.749
> 2025 01 06 18 48  5.0000000  0  5
G16    217499.531     1143413.843                                  
G18    217500.443     1143194.557                                  
G23    217505.116     1144469.213                                  
G26    217502.305     1144221.406                                  
G27    217502.163     1144351.634
> 2025 01 06 18 48  6.0000000  0  5
G16    217609.398     1143985.793                                  
G18    217607.705     1143766.498                                  
G23    217613.482     1145041.163                                  
G26    217609.598     1144793.354                                  
G27    217605.702     1144923.587
> 2025 01 06 18 48  7.0000000  0  5
G16    217715.033     1144557.851                                  
G18    217715.501     1144338.550                                  
G23    217720.969     1145613.207                                  
G26    217715.118     1145365.401                                  
G27    217718.568     1145495.636
> 2025 01 06 18 48  8.0000000  0  5
G16    217823.085     1145129.354                                  
G18    217825.558     1144910.056                                  
G23    217827.922     1146184.718                                  
G26    217825.382     1145936.909                                  
G27    217827.091     1146067.146
> 2025 01 06 18 48  9.0000000  0  5
G16    217929.443     1145701.701                                  
G18    217931.243     1145482.407                                  
G23    217935.304     1146757.071                                  
G26    217935.060     1146509.263                                  
G27    217933.130     1146639.493
> 2025 01 06 18 48 10.0000000  0  5
G16    218039.318     1146273.041                                  
G18    218039.822     1146053.746                                  
G23    218038.840     1147328.411                                  
G26    218041.272     1147080.605                                  
G27    218041.538     1147210.841
> 2025 01 06 18 48 11.0000000  0  5
