     3.02           OBSERVATION DATA    GAL                 RINEX VERSION / TYPE
G = GPS  R = GLONASS  E = GALILEO  S = GEO  M = MIXED       COMMENT
GALILEO OBSERVATION DATA FILE GENERATED BY GNSS-SDR         COMMENT
GNSS-SDR VERSION 0.0.19                                     COMMENT
See https://gnss-sdr.org                                    COMMENT
GNSS-SDR            jmfriedt            20250106 190622 UTC PGM / RUN BY / DATE
jmfriedt            CTTC                                    OBSERVER /AGENCY
DEFAULT MARKER NAME                                         MARKER NAME
        0.0000        0.0000        0.0000                  APPROX POSITION XYZ
Antenna number      Antenna type                            ANT # / TYPE
        0.0000        0.0000        0.0000                  ANTENNA: DELTA H/E/N
GNSS-SDR            Software Receiver   0.0.19              REC # / TYPE / VERS
    18    18   137     7                                    LEAP SECONDS
  2025    01    06    18    45   25.14000000     GAL        TIME OF FIRST OBS
E    4 C1B L1B D1B S1B                                      SYS / # / OBS TYPES
                                                            END OF HEADER
> 2025 01 06 18 45  7.0000000  0  4
E11    198306.736     1041801.915                                  
E12    198309.359     1042330.389                                  
E24    198306.267     1041756.121                                  
E25    198306.402     1042489.468
> 2025 01 06 18 45  8.0000000  0  4
E11    198417.065     1042376.187                                  
E12    198413.931     1042904.661                                  
E24    198410.649     1042330.381                                  
E25    198415.558     1043063.733
> 2025 01 06 18 45  9.0000000  0  4
E11    198523.728     1042950.769                                  
E12    198520.445     1043479.245                                  
E24    198521.377     1042904.994                                  
E25    198523.610     1043638.333
> 2025 01 06 18 45 10.0000000  0  4
E11    198633.269     1043525.524                                  
E12    198627.696     1044053.999                                  
E24    198628.703     1043479.739                                  
E25    198631.312     1044213.078
> 2025 01 06 18 45 11.0000000  0  4
E11    198740.372     1044099.892                                  
E12    198739.377     1044628.372                                  
E24    198736.711     1044054.097                                  
E25    198738.652     1044787.451
> 2025 01 06 18 45 12.0000000  0  4
E11    198849.749     1044674.161                                  
E12    198847.900     1045202.627                                  
E24    198847.259     1044628.363                                  
E25    198847.952     1045361.705
> 2025 01 06 18 45 13.0000000  0  4
E11    198957.824     1045248.448                                  
E12    198954.593     1045776.935                                  
E24    198954.845     1045202.666                                  
E25    198957.022     1045936.008
> 2025 01 06 18 45 14.0000000  0  4
E11    199064.827     1045822.608                                  
E12    199060.978     1046351.099                                  
E24    199061.843     1045776.825                                  
E25    199065.229     1046510.165
> 2025 01 06 18 45 15.0000000  0  4
E11    199174.707     1046396.818                                  
E12    199172.589     1046925.288                                  
E24    199169.485     1046351.008                                  
E25    199171.660     1047084.359
> 2025 01 06 18 45 16.0000000  0  4
E11    199281.443     1046971.086                                  
E12    199281.865     1047499.553                                  
E24    199281.870     1046925.287                                  
E25    199280.594     1047658.636
> 2025 01 06 18 45 17.0000000  0  4
E11    199387.755     1047545.503                                  
E12    199388.007     1048073.989                                  
E24    199388.063     1047499.722                                  
E25    199389.377     1048233.061
> 2025 01 06 18 45 18.0000000  0  4
E11    199497.833     1048119.174                                  
E12    199497.304     1048647.659                                  
E24    199495.577     1048073.379                                  
E25    199496.378     1048806.732
> 2025 01 06 18 45 19.0000000  0  4
E11    199606.328     1048692.281                                  
E12    199604.966     1049220.747                                  
E24    199604.494     1048646.497                                  
E25    199605.054     1049379.832
> 2025 01 06 18 45 20.0000000  0  4
E11    199712.430     1049265.948                                  
E12    199712.205     1049794.400                                  
E24    199713.248     1049220.150                                  
E25    199713.189     1049953.482
> 2025 01 06 18 45 21.0000000  0  4
E11    199820.481     1049839.673                                  
E12    199820.905     1050368.131                                  
E24    199820.621     1049793.879                                  
E25    199821.486     1050527.215
> 2025 01 06 18 45 22.0000000  0  4
E11    199926.743     1050413.225                                  
E12    199927.600     1050941.697                                  
E24    199930.738     1050367.426                                  
E25    199929.141     1051100.778
> 2025 01 06 18 45 23.0000000  0  4
E11    200035.827     1050987.074                                  
E12    200038.850     1051515.553                                  
E24    200032.571     1050941.285                                  
E25    200038.596     1051674.632
> 2025 01 06 18 45 24.0000000  0  4
E11    200145.108     1051561.303                                  
E12    200144.805     1052089.768                                  
E24    200147.378     1051515.496                                  
E25    200146.251     1052248.848
> 2025 01 06 18 45 25.0000000  0  4
E11    200252.617     1052135.853                                  
E12    200251.432     1052664.319                                  
E24    200253.331     1052090.063                                  
E25    200253.929     1052823.402
> 2025 01 06 18 45 26.0000000  0  4
E11    200362.668     1052710.104                                  
E12    200363.854     1053238.555                                  
E24    200361.464     1052664.307                                  
E25    200361.957     1053397.653
> 2025 01 06 18 45 27.0000000  0  4
E11    200469.346     1053284.285                                  
E12    200470.328     1053812.747                                  
E24    200470.736     1053238.497                                  
E25    200469.111     1053971.844
> 2025 01 06 18 45 28.0000000  0  4
E11    200577.810     1053858.661                                  
E12    200575.640     1054387.112                                  
E24    200578.400     1053812.858                                  
E25    200579.455     1054546.203
> 2025 01 06 18 45 29.0000000  0  4
E11    200683.205     1054432.490                                  
E12    200689.951     1054960.935                                  
E24    200688.041     1054386.686                                  
E25    200686.198     1055120.032
> 2025 01 06 18 45 30.0000000  0  4
E11    200793.305     1055006.054                                  
E12    200795.677     1055534.523                                  
E24    200793.795     1054960.260                                  
E25    200793.507     1055693.608
> 2025 01 06 18 45 31.0000000  0  4
E11    200902.131     1055580.246                                  
E12    200901.099     1056108.712                                  
E24    200901.850     1055534.466                                  
E25    200902.285     1056267.808
> 2025 01 06 18 45 32.0000000  0  4
E11    201010.326     1056154.077                                  
E12    201009.575     1056682.547                                  
E24    201012.460     1056108.281                                  
E25    201009.739     1056841.621
> 2025 01 06 18 45 33.0000000  0  4
E11    201117.805     1056727.754                                  
E12    201116.978     1057256.214                                  
E24    201120.518     1056681.957                                  
E25    201118.750     1057415.293
> 2025 01 06 18 45 34.0000000  0  4
E11    201226.418     1057301.434                                  
E12    201224.845     1057829.903                                  
E24    201229.098     1057255.635                                  
E25    201225.941     1057988.979
> 2025 01 06 18 45 35.0000000  0  4
E11    201334.345     1057875.137                                  
E12    201334.278     1058403.606                                  
E24    201331.765     1057829.353                                  
E25    201335.442     1058562.694
> 2025 01 06 18 45 36.0000000  0  5
E11    201441.932     1058448.745                                  
E12    201442.206     1058977.213                                  
E24    201440.227     1058402.952                                  
E25    201443.599     1059136.303                                  
E36    201444.199     1058598.363
> 2025 01 06 18 45 37.0000000  0  5
E11    201552.133     1059022.402                                  
E12    201548.728     1059550.865                                  
E24    201550.934     1058976.580                                  
E25    201552.136     1059709.946                                  
E36    201552.636     1059172.013
> 2025 01 06 18 45 38.0000000  0  5
E11    201660.470     1059596.322                                  
E12    201655.404     1060124.762                                  
E24    201658.310     1059550.522                                  
E25    201659.211     1060283.866                                  
E36    201661.496     1059745.937
> 2025 01 06 18 45 39.0000000  0  5
E11    201767.825     1060169.849                                  
E12    201768.013     1060698.329                                  
E24    201770.511     1060124.064                                  
E25    201767.432     1060857.413                                  
E36    201770.113     1060319.482
> 2025 01 06 18 45 40.0000000  0  5
E11    201875.151     1060743.186                                  
E12    201874.907     1061271.632                                  
E24    201872.122     1060697.382                                  
E25    201874.314     1061430.734                                  
E36    201878.017     1060892.812
> 2025 01 06 18 45 41.0000000  0  5
E11    201983.277     1061316.182                                  
E12    201987.530     1061844.651                                  
E24    201983.967     1061270.369                                  
E25    201983.650     1062003.723                                  
E36    201986.306     1061465.800
> 2025 01 06 18 45 42.0000000  0  5
E11    202089.866     1061889.583                                  
E12    202091.958     1062418.034                                  
E24    202091.564     1061843.777                                  
E25    202090.503     1062577.125                                  
E36    202095.566     1062039.201
> 2025 01 06 18 45 43.0000000  0  5
E11    202198.817     1062463.093                                  
E12    202201.203     1062991.558                                  
E24    202196.911     1062417.308                                  
E25    202198.882     1063150.649                                  
E36    202203.700     1062612.721
> 2025 01 06 18 45 44.0000000  0  5
E11    202306.932     1063036.469                                  
E12    202309.110     1063564.928                                  
E24    202308.380     1062990.686                                  
E25    202306.098     1063724.032                                  
E36    202309.545     1063186.108
> 2025 01 06 18 45 45.0000000  0  5
E11    202417.356     1063609.815                                  
E12    202415.061     1064138.267                                  
E24    202414.696     1063563.999                                  
E25    202415.372     1064297.351                                  
E36    202417.410     1063759.436
> 2025 01 06 18 45 46.0000000  0  5
E11    202522.543     1064183.521                                  
E12    202522.471     1064711.965                                  
E24    202523.076     1064137.716                                  
E25    202522.729     1064871.064                                  
E36    202528.377     1064333.144
> 2025 01 06 18 45 47.0000000  0  5
E11    202630.232     1064757.271                                  
E12    202633.918     1065285.723                                  
E24    202631.734     1064711.466                                  
E25    202631.434     1065444.822                                  
E36    202634.410     1064906.907
> 2025 01 06 18 45 48.0000000  0  5
E11    202739.524     1065331.027                                  
E12    202742.169     1065859.490                                  
E24    202738.909     1065285.242                                  
E25    202739.063     1066018.575                                  
E36    202742.222     1065480.665
> 2025 01 06 18 45 49.0000000  0  5
E11    202849.106     1065904.291                                  
E12    202851.837     1066432.742                                  
E24    202849.879     1065858.481                                  
E25    202847.328     1066591.824                                  
E36    202849.069     1066053.918
> 2025 01 06 18 45 50.0000000  0  5
E11    202955.985     1066477.816                                  
E12    202955.969     1067006.258                                  
E24    202957.539     1066431.988                                  
E25    202953.415     1067165.350                                  
E36    202957.210     1066627.434
> 2025 01 06 18 45 51.0000000  0  5
E11    203062.115     1067051.423                                  
E12    203062.886     1067579.867                                  
E24    203061.202     1067005.611                                  
E25    203062.578     1067738.966                                  
E36    203064.689     1067201.054
> 2025 01 06 18 45 52.0000000  0  5
E11    203170.533     1067624.927                                  
E12    203168.569     1068153.399                                  
E24    203171.894     1067579.109                                  
E25    203171.713     1068312.473                                  
E36    203175.086     1067774.564
> 2025 01 06 18 45 53.0000000  0  5
E11    203279.198     1068198.376                                  
E12    203280.725     1068726.836                                  
E24    203279.310     1068152.568                                  
E25    203279.481     1068885.924                                  
E36    203277.498     1068348.016
> 2025 01 06 18 45 54.0000000  0  5
E11    203386.272     1068771.232                                  
E12    203385.284     1069299.671                                  
E24    203387.626     1068725.414                                  
E25    203386.588     1069458.766                                  
E36    203386.874     1068920.856
> 2025 01 06 18 45 55.0000000  0  5
E11    203496.410     1069343.795                                  
E12    203495.077     1069872.239                                  
E24    203494.678     1069297.963                                  
E25    203495.335     1070031.330                                  
E36    203495.475     1069493.415
> 2025 01 06 18 45 56.0000000  0  5
E11    203602.146     1069916.928                                  
E12    203600.696     1070445.383                                  
E24    203602.601     1069871.115                                  
E25    203604.785     1070604.473                                  
E36    203603.900     1070066.572
> 2025 01 06 18 45 57.0000000  0  5
E11    203710.329     1070490.354                                  
E12    203711.158     1071018.808                                  
E24    203710.846     1070444.550                                  
E25    203711.495     1071177.906                                  
E36    203710.731     1070640.003
> 2025 01 06 18 45 58.0000000  0  7
E02    203819.606     1071159.172                                  
E10    203818.219     1071386.768                                  
E11    203817.628     1071063.747                                  
E12    203821.848     1071592.186                                  
E24    203818.792     1071017.926                                  
E25    203819.847     1071751.283                                  
E36    203818.474     1071213.383
> 2025 01 06 18 45 59.0000000  0  7
E02    203927.774     1071732.514                                  
E10    203926.516     1071960.114                                  
E11    203926.435     1071637.096                                  
E12    203925.171     1072165.537                                  
E24    203927.124     1071591.279                                  
E25    203928.583     1072324.633                                  
E36    203923.942     1071786.723
> 2025 01 06 18 46  0.0000000  0  7
E02    204032.911     1072306.138                                  
E10    204035.072     1072533.746                                  
E11    204034.623     1072210.711                                  
E12    204032.772     1072739.162                                  
E24    204033.939     1072164.887                                  
E25    204036.229     1072898.253                                  
E36    204031.783     1072360.349
> 2025 01 06 18 46  1.0000000  0  7
E02    204143.800     1072879.936                                  
E10    204141.817     1073107.531                                  
E11    204144.299     1072784.504                                  
E12    204144.907     1073312.960                                  
E24    204141.942     1072738.689                                  
E25    204143.998     1073472.051                                  
E36    204140.754     1072934.146
> 2025 01 06 18 46  2.0000000  0  7
E02    204251.354     1073453.558                                  
E10    204249.627     1073681.158                                  
E11    204252.193     1073358.135                                  
E12    204248.766     1073886.582                                  
E24    204252.634     1073312.309                                  
E25    204252.129     1074045.677                                  
E36    204250.063     1073507.783
> 2025 01 06 18 46  3.0000000  0  7
E02    204362.598     1074027.019                                  
E10    204356.745     1074254.617                                  
E11    204359.081     1073931.603                                  
E12    204360.959     1074460.031                                  
E24    204357.173     1073885.774                                  
E25    204359.416     1074619.133                                  
E36    204357.160     1074081.231
> 2025 01 06 18 46  4.0000000  0  7
E02    204468.325     1074600.452                                  
E10    204465.561     1074828.057                                  
E11    204466.931     1074505.025                                  
E12    204468.232     1075033.471                                  
E24    204461.750     1074459.193                                  
E25    204468.475     1075192.570                                  
E36    204467.051     1074654.670
> 2025 01 06 18 46  5.0000000  0  7
E02    204575.991     1075173.540                                  
E10    204572.416     1075401.129                                  
E11    204572.980     1075078.104                                  
E12    204572.600     1075606.540                                  
E24    204574.846     1075032.285                                  
E25    204577.824     1075765.643                                  
E36    204574.517     1075227.749
> 2025 01 06 18 46  6.0000000  0  7
E02    204685.338     1075746.125                                  
E10    204682.381     1075973.724                                  
E11    204682.713     1075650.695                                  
E12    204682.692     1076179.152                                  
E24    204680.886     1075604.879                                  
E25    204683.459     1076338.238                                  
E36    204680.774     1075800.338
> 2025 01 06 18 46  7.0000000  0  7
E02    204792.394     1076318.994                                  
E10    204788.665     1076546.583                                  
E11    204789.505     1076223.560                                  
E12    204791.158     1076751.997                                  
E24    204787.941     1076177.751                                  
E25    204792.458     1076911.099                                  
E36    204788.617     1076373.205
> 2025 01 06 18 46  8.0000000  0  7
E02    204899.246     1076892.192                                  
E10    204897.730     1077119.782                                  
E11    204898.455     1076796.766                                  
E12    204899.805     1077325.184                                  
E24    204901.105     1076750.936                                  
E25    204899.409     1077484.295                                  
E36    204897.209     1076946.402
> 2025 01 06 18 46  9.0000000  0  7
E02    205007.657     1077466.230                                  
E10    205006.228     1077693.820                                  
E11    205007.139     1077370.788                                  
E12    205005.216     1077899.238                                  
E24    205008.880     1077324.969                                  
E25    205007.645     1078058.338                                  
E36    205005.773     1077520.441
> 2025 01 06 18 46 10.0000000  0  7
E02    205115.521     1078039.618                                  
E10    205111.804     1078267.210                                  
E11    205115.514     1077944.180                                  
E12    205116.887     1078472.620                                  
E24    205115.004     1077898.361                                  
E25    205117.499     1078631.721                                  
E36    205113.365     1078093.838
> 2025 01 06 18 46 11.0000000  0  7
E02    205223.179     1078612.553                                  
E10    205221.986     1078840.135                                  
E11    205223.020     1078517.119                                  
E12    205225.015     1079045.558                                  
E24    205223.594     1078471.285                                  
E25    205223.778     1079204.652                                  
E36    205219.770     1078666.768
> 2025 01 06 18 46 12.0000000  0  7
E02    205332.587     1079185.600                                  
E10    205329.088     1079413.191                                  
E11    205330.505     1079090.171                                  
E12    205328.467     1079618.605                                  
E24    205331.300     1079044.340                                  
E25    205332.721     1079777.704                                  
E36    205329.427     1079239.818
> 2025 01 06 18 46 13.0000000  0  7
E02    205439.854     1079758.482                                  
E10    205437.361     1079986.067                                  
E11    205436.747     1079663.044                                  
E12    205437.911     1080191.485                                  
E24    205435.204     1079617.216                                  
E25    205441.681     1080350.587                                  
E36    205436.923     1079812.698
> 2025 01 06 18 46 14.0000000  0  7
E02    205544.757     1080331.237                                  
E10    205544.563     1080558.819                                  
E11    205544.811     1080235.786                                  
E12    205543.111     1080764.235                                  
E24    205545.184     1080189.969                                  
E25    205548.166     1080923.338                                  
E36    205542.725     1080385.455
> 2025 01 06 18 46 15.0000000  0  7
E02    205654.201     1080904.417                                  
E10    205653.684     1081131.998                                  
E11    205654.000     1080808.990                                  
E12    205649.870     1081337.401                                  
E24    205654.241     1080763.159                                  
E25    205656.819     1081496.518                                  
E36    205653.471     1080958.631
> 2025 01 06 18 46 16.0000000  0  7
E02    205762.246     1081477.661                                  
E10    205760.533     1081705.248                                  
E11    205760.965     1081382.224                                  
E12    205758.922     1081910.665                                  
E24    205764.012     1081336.393                                  
E25    205763.838     1082069.759                                  
E36    205760.683     1081531.881
> 2025 01 06 18 46 17.0000000  0  7
E02    205871.219     1082050.795                                  
E10    205868.802     1082278.365                                  
E11    205869.687     1081955.343                                  
E12    205870.000     1082483.782                                  
E24    205868.789     1081909.512                                  
E25    205872.066     1082642.886                                  
E36    205868.757     1082105.001
> 2025 01 06 18 46 18.0000000  0  7
E02    205979.656     1082624.211                                  
E10    205975.958     1082851.791                                  
E11    205979.065     1082528.757                                  
E12    205975.929     1083057.205                                  
E24    205974.058     1082482.924                                  
E25    205979.931     1083216.304                                  
E36    205976.634     1082678.426
> 2025 01 06 18 46 19.0000000  0  7
E02    206086.985     1083197.675                                  
E10    206085.700     1083425.251                                  
E11    206085.445     1083102.240                                  
E12    206085.952     1083630.666                                  
E24    206084.303     1083056.400                                  
E25    206088.394     1083789.771                                  
E36    206085.813     1083251.888
> 2025 01 06 18 46 20.0000000  0  7
E02    206194.903     1083770.537                                  
E10    206192.925     1083998.116                                  
E11    206193.734     1083675.100                                  
E12    206193.397     1084203.538                                  
E24    206191.345     1083629.249                                  
E25    206195.427     1084362.621                                  
E36    206193.184     1083824.749
> 2025 01 06 18 46 21.0000000  0  7
E02    206302.838     1084343.214                                  
E10    206300.880     1084570.785                                  
E11    206301.902     1084247.764                                  
E12    206301.973     1084776.193                                  
E24    206301.779     1084201.922                                  
E25    206302.726     1084935.297                                  
E36    206300.220     1084397.422
> 2025 01 06 18 46 22.0000000  0  7
E02    206409.987     1084916.099                                  
E10    206409.655     1085143.683                                  
E11    206409.916     1084820.653                                  
E12    206405.234     1085349.101                                  
E24    206412.882     1084774.828                                  
E25    206412.027     1085508.202                                  
E36    206410.185     1084970.326
> 2025 01 06 18 46 23.0000000  0  7
E02    206518.293     1085489.003                                  
E10    206516.758     1085716.567                                  
E11    206516.691     1085393.549                                  
E12    206516.354     1085921.970                                  
E24    206520.259     1085347.712                                  
E25    206519.142     1086081.084                                  
E36    206517.217     1085543.217
> 2025 01 06 18 46 24.0000000  0  7
E02    206625.861     1086061.844                                  
E10    206625.359     1086289.419                                  
E11    206625.776     1085966.404                                  
E12    206622.814     1086494.832                                  
E24    206625.358     1085920.557                                  
E25    206626.502     1086653.933                                  
E36    206623.545     1086116.061
> 2025 01 06 18 46 25.0000000  0  7
E02    206735.619     1086635.110                                  
E10    206733.570     1086862.688                                  
E11    206734.369     1086539.673                                  
E12    206730.899     1087068.085                                  
E24    206734.935     1086493.829                                  
E25    206735.286     1087227.206                                  
E36    206734.172     1086689.331
> 2025 01 06 18 46 26.0000000  0  7
E02    206841.519     1087207.965                                  
E10    206840.737     1087435.527                                  
E11    206841.986     1087112.507                                  
E12    206841.891     1087640.943                                  
E24    206842.697     1087066.679                                  
E25    206841.995     1087800.050                                  
E36    206838.185     1087262.185
> 2025 01 06 18 46 27.0000000  0  7
E02    206949.424     1087781.069                                  
E10    206947.483     1088008.634                                  
E11    206950.758     1087685.612                                  
E12    206947.676     1088214.049                                  
E24    206952.912     1087639.775                                  
E25    206950.371     1088373.156                                  
E36    206950.588     1087835.295
> 2025 01 06 18 46 28.0000000  0  7
E02    207057.690     1088353.794                                  
E10    207056.648     1088581.359                                  
E11    207057.729     1088258.343                                  
E12    207056.244     1088786.766                                  
E24    207059.690     1088212.486                                  
E25    207058.104     1088945.873                                  
E36    207056.672     1088408.006
> 2025 01 06 18 46 29.0000000  0  7
E02    207167.243     1088926.606                                  
E10    207164.243     1089154.179                                  
E11    207164.979     1088831.164                                  
E12    207164.537     1089359.593                                  
E24    207166.684     1088785.317                                  
E25    207166.393     1089518.692                                  
E36    207165.560     1088980.830
> 2025 01 06 18 46 30.0000000  0  7
E02    207273.901     1089499.940                                  
E10    207272.961     1089727.499                                  
E11    207274.226     1089404.483                                  
E12    207271.640     1089932.899                                  
E24    207276.599     1089358.651                                  
E25    207273.464     1090092.024                                  
E36    207273.071     1089554.153
> 2025 01 06 18 46 31.0000000  0  7
E02    207382.262     1090072.286                                  
E10    207380.925     1090299.853                                  
E11    207380.776     1089976.829                                  
E12    207376.866     1090505.273                                  
E24    207381.455     1089930.998                                  
E25    207381.488     1090664.375                                  
E36    207380.666     1090126.507
> 2025 01 06 18 46 32.0000000  0  7
E02    207488.282     1090644.365                                  
E10    207489.391     1090871.927                                  
E11    207487.955     1090548.913                                  
E12    207484.491     1091077.344                                  
E24    207490.334     1090503.071                                  
E25    207489.295     1091236.442                                  
E36    207489.255     1090698.577
> 2025 01 06 18 46 33.0000000  0  7
E02    207597.562     1091216.994                                  
E10    207596.705     1091444.556                                  
E11    207595.882     1091121.558                                  
E12    207590.556     1091649.965                                  
E24    207599.892     1091075.706                                  
E25    207597.756     1091809.079                                  
E36    207597.417     1091271.213
> 2025 01 06 18 46 34.0000000  0  7
E02    207705.400     1091789.752                                  
E10    207705.581     1092017.311                                  
E11    207704.594     1091694.294                                  
E12    207701.555     1092222.735                                  
E24    207707.280     1091648.452                                  
E25    207704.079     1092381.831                                  
E36    207704.601     1091843.968
> 2025 01 06 18 46 35.0000000  0  7
E02    207812.647     1092362.689                                  
E10    207812.193     1092590.243                                  
E11    207810.693     1092267.226                                  
E12    207807.744     1092795.672                                  
E24    207814.348     1092221.391                                  
E25    207812.618     1092954.766                                  
E36    207813.910     1092416.901
> 2025 01 06 18 46 36.0000000  0  7
E02    207920.872     1092935.536                                  
E10    207920.481     1093163.112                                  
E11    207918.986     1092840.087                                  
E12    207918.132     1093368.508                                  
E24    207922.823     1092794.232                                  
E25    207919.611     1093527.624                                  
E36    207923.407     1092989.765
> 2025 01 06 18 46 37.0000000  0  7
E02    208029.996     1093508.044                                  
E10    208028.115     1093735.595                                  
E11    208028.965     1093412.590                                  
E12    208025.476     1093940.992                                  
E24    208029.060     1093366.736                                  
E25    208028.154     1094100.117                                  
E36    208032.086     1093562.260
> 2025 01 06 18 46 38.0000000  0  7
E02    208138.234     1094080.482                                  
E10    208137.224     1094308.042                                  
E11    208136.970     1093985.031                                  
E12    208135.843     1094513.450                                  
E24    208139.529     1093939.170                                  
E25    208135.797     1094672.553                                  
E36    208137.426     1094134.704
> 2025 01 06 18 46 39.0000000  0  7
E02    208245.508     1094653.313                                  
E10    208243.035     1094880.867                                  
E11    208243.115     1094557.840                                  
E12    208242.907     1095086.271                                  
E24    208243.883     1094511.995                                  
E25    208243.690     1095245.384                                  
E36    208246.887     1094707.532
> 2025 01 06 18 46 40.0000000  0  7
E02    208354.134     1095226.380                                  
E10    208352.641     1095453.939                                  
E11    208351.009     1095130.913                                  
E12    208350.425     1095659.336                                  
E24    208352.918     1095085.086                                  
E25    208353.067     1095818.458                                  
E36    208352.360     1095280.605
> 2025 01 06 18 46 41.0000000  0  7
E02    208462.879     1095799.995                                  
E10    208459.275     1096027.552                                  
E11    208461.026     1095704.546                                  
E12    208456.240     1096232.954                                  
E24    208462.809     1095658.692                                  
E25    208460.513     1096392.069                                  
E36    208460.101     1095854.219
> 2025 01 06 18 46 42.0000000  0  7
E02    208568.842     1096373.199                                  
E10    208567.060     1096600.751                                  
E11    208567.354     1096277.746                                  
E12    208565.783     1096806.161                                  
E24    208568.193     1096231.889                                  
E25    208568.245     1096965.276                                  
E36    208568.442     1096427.418
> 2025 01 06 18 46 43.0000000  0  7
E02    208676.514     1096946.295                                  
E10    208676.110     1097173.853                                  
E11    208675.591     1096850.838                                  
E12    208675.427     1097379.253                                  
E24    208678.099     1096805.000                                  
E25    208676.203     1097538.374                                  
E36    208678.000     1097000.520
> 2025 01 06 18 46 44.0000000  0  7
E02    208786.577     1097519.620                                  
E10    208783.191     1097747.162                                  
E11    208781.280     1097424.144                                  
E12    208781.581     1097952.561                                  
E24    208786.450     1097378.297                                  
E25    208785.119     1098111.681                                  
E36    208786.536     1097573.829
> 2025 01 06 18 46 45.0000000  0  7
E02    208892.031     1098093.781                                  
E10    208893.575     1098321.333                                  
E11    208890.978     1097998.327                                  
E12    208885.994     1098526.730                                  
E24    208891.610     1097952.474                                  
E25    208893.120     1098685.856                                  
E36    208894.276     1098148.010
> 2025 01 06 18 46 46.0000000  0  7
E02    209001.773     1098668.345                                  
E10    209000.676     1098895.889                                  
E11    208998.811     1098572.883                                  
E12    208994.996     1099101.298                                  
E24    209001.152     1098527.039                                  
E25    209001.178     1099260.413                                  
E36    209001.278     1098722.565
> 2025 01 06 18 46 47.0000000  0  7
E02    209107.920     1099241.983                                  
E10    209109.613     1099469.521                                  
E11    209107.014     1099146.507                                  
E12    209104.718     1099674.915                                  
E24    209111.166     1099100.660                                  
E25    209109.550     1099834.050                                  
E36    209108.743     1099296.198
> 2025 01 06 18 46 48.0000000  0  7
E02    209218.767     1099813.985                                  
E10    209216.734     1100041.532                                  
E11    209214.219     1099718.515                                  
E12    209214.183     1100246.940                                  
E24    209222.295     1099672.678                                  
E25    209216.291     1100406.047                                  
E36    209216.103     1099868.201
> 2025 01 06 18 46 49.0000000  0  7
E02    209326.417     1100385.473                                  
E10    209325.377     1100613.019                                  
E11    209324.073     1100290.012                                  
E12    209326.069     1100818.430                                  
E24    209325.748     1100244.151                                  
E25    209324.530     1100977.544                                  
E36    209325.045     1100439.703
> 2025 01 06 18 46 50.0000000  0  7
E02    209432.880     1100957.770                                  
E10    209432.338     1101185.312                                  
E11    209431.671     1100862.309                                  
E12    209428.950     1101390.712                                  
E24    209430.716     1100816.431                                  
E25    209431.882     1101549.825                                  
E36    209434.690     1101011.987
> 2025 01 06 18 46 51.0000000  0  7
E02    209541.498     1101530.128                                  
E10    209539.634     1101757.652                                  
E11    209538.612     1101434.657                                  
E12    209534.546     1101963.063                                  
E24    209537.167     1101388.793                                  
E25    209540.092     1102122.187                                  
E36    209540.967     1101584.348
> 2025 01 06 18 46 52.0000000  0  7
E02    209648.775     1102102.686                                  
E10    209649.947     1102330.221                                  
E11    209647.052     1102007.211                                  
E12    209646.642     1102535.621                                  
E24    209648.537     1101961.386                                  
E25    209646.954     1102694.751                                  
E36    209647.421     1102156.910
> 2025 01 06 18 46 53.0000000  0  7
E02    209758.105     1102674.896                                  
E10    209756.128     1102902.431                                  
E11    209755.376     1102579.421                                  
E12    209751.246     1103107.828                                  
E24    209753.793     1102533.569                                  
E25    209755.721     1103266.960                                  
E36    209758.859     1102729.121
> 2025 01 06 18 46 54.0000000  0  7
E02    209864.175     1103246.950                                  
E10    209863.035     1103474.483                                  
E11    209862.766     1103151.472                                  
E12    209861.179     1103679.882                                  
E24    209864.192     1103105.625                                  
E25    209862.943     1103838.999                                  
E36    209864.274     1103301.164
> 2025 01 06 18 46 55.0000000  0  7
E02    209972.405     1103818.918                                  
E10    209971.290     1104046.455                                  
E11    209968.264     1103723.454                                  
E12    209972.594     1104251.856                                  
E24    209969.601     1103677.597                                  
E25    209970.802     1104410.972                                  
E36    209971.234     1103873.130
> 2025 01 06 18 46 56.0000000  0  7
E02    210079.701     1104390.627                                  
E10    210079.653     1104618.154                                  
E11    210078.012     1104295.149                                  
E12    210074.114     1104823.557                                  
E24    210073.453     1104249.304                                  
E25    210078.600     1104982.681                                  
E36    210080.761     1104444.850
> 2025 01 06 18 46 57.0000000  0  7
E02    210187.201     1104962.406                                  
E10    210186.263     1105189.945                                  
E11    210186.303     1104866.933                                  
E12    210186.633     1105395.355                                  
E24    210186.288     1104821.065                                  
E25    210187.570     1105554.464                                  
E36    210187.357     1105016.625
> 2025 01 06 18 46 58.0000000  0  7
E02    210294.532     1105534.387                                  
E10    210295.186     1105761.909                                  
E11    210293.580     1105438.906                                  
E12    210293.252     1105967.295                                  
E24    210291.303     1105393.058                                  
E25    210292.587     1106126.430                                  
E36    210294.981     1105588.604
> 2025 01 06 18 46 59.0000000  0  7
E02    210403.586     1106106.333                                  
E10    210403.044     1106333.865                                  
E11    210401.116     1106010.873                                  
E12    210400.556     1106539.264                                  
E24    210402.642     1105965.010                                  
E25    210400.744     1106698.386                                  
E36    210403.642     1106160.551
> 2025 01 06 18 47  0.0000000  0  7
E02    210510.241     1106678.286                                  
E10    210509.184     1106905.815                                  
E11    210510.568     1106582.815                                  
E12    210505.359     1107111.215                                  
E24    210511.038     1106536.954                                  
E25    210509.963     1107270.337                                  
E36    210510.422     1106732.504
> 2025 01 06 18 47  1.0000000  0  7
E02    210618.316     1107250.043                                  
E10    210618.896     1107477.570                                  
E11    210616.447     1107154.560                                  
E12    210616.268     1107682.969                                  
E24    210617.519     1107108.704                                  
E25    210616.926     1107842.091                                  
E36    210617.644     1107304.263
> 2025 01 06 18 47  2.0000000  0  7
E02    210726.393     1107822.202                                  
E10    210725.464     1108049.726                                  
E11    210724.731     1107726.724                                  
E12    210727.696     1108255.120                                  
E24    210720.684     1107680.851                                  
E25    210724.377     1108414.248                                  
E36    210725.969     1107876.422
> 2025 01 06 18 47  3.0000000  0  7
E02    210834.304     1108394.731                                  
E10    210833.208     1108622.257                                  
E11    210833.567     1108299.265                                  
E12    210828.474     1108827.658                                  
E24    210830.613     1108253.389                                  
E25    210832.535     1108986.782                                  
E36    210833.354     1108448.953
> 2025 01 06 18 47  4.0000000  0  7
E02    210943.394     1108967.206                                  
E10    210942.514     1109194.733                                  
E11    210939.740     1108871.731                                  
E12    210937.347     1109400.140                                  
E24    210940.261     1108825.879                                  
E25    210940.604     1109559.257                                  
E36    210941.025     1109021.425
> 2025 01 06 18 47  5.0000000  0  7
E02    211049.762     1109539.551                                  
E10    211048.938     1109767.069                                  
E11    211047.675     1109444.061                                  
E12    211045.534     1109972.474                                  
E24    211049.628     1109398.202                                  
E25    211048.620     1110131.591                                  
E36    211049.587     1109593.769
> 2025 01 06 18 47  6.0000000  0  7
E02    211154.442     1110111.742                                  
E10    211157.083     1110339.259                                  
E11    211155.835     1110016.256                                  
E12    211156.340     1110544.666                                  
E24    211155.228     1109970.394                                  
E25    211157.767     1110703.792                                  
E36    211155.985     1110165.960
> 2025 01 06 18 47  7.0000000  0  7
E02    211265.475     1110684.068                                  
E10    211263.584     1110911.579                                  
E11    211263.723     1110588.594                                  
E12    211263.461     1111116.995                                  
E24    211266.507     1110542.721                                  
E25    211264.674     1111276.109                                  
E36    211263.718     1110738.282
> 2025 01 06 18 47  8.0000000  0  7
E02    211372.756     1111256.357                                  
E10    211372.402     1111483.872                                  
E11    211370.446     1111160.880                                  
E12    211368.006     1111689.265                                  
E24    211373.427     1111115.003                                  
E25    211372.069     1111848.406                                  
E36    211374.621     1111310.576
> 2025 01 06 18 47  9.0000000  0  7
E02    211482.529     1111828.538                                  
E10    211480.228     1112056.048                                  
E11    211477.342     1111733.042                                  
E12    211476.061     1112261.444                                  
E24    211484.258     1111687.172                                  
E25    211479.458     1112420.573                                  
E36    211480.853     1111882.758
> 2025 01 06 18 47 10.0000000  0  7
E02    211588.099     1112400.984                                  
E10    211587.599     1112628.495                                  
E11    211586.543     1112305.493                                  
E12    211584.428     1112833.889                                  
E24    211592.200     1112259.618                                  
E25    211588.153     1112993.018                                  
E36    211587.997     1112455.207
> 2025 01 06 18 47 11.0000000  0  7
E02    211696.740     1112973.610                                  
E10    211695.464     1113201.127                                  
E11    211694.263     1112878.137                                  
E12    211690.451     1113406.524                                  
E24    211697.949     1112832.262                                  
E25    211694.402     1113565.655                                  
E36    211695.066     1113027.836
> 2025 01 06 18 47 12.0000000  0  7
E02    211802.762     1113546.091                                  
E10    211801.469     1113773.597                                  
E11    211802.445     1113450.607                                  
E12    211806.224     1113978.988                                  
E24    211805.658     1113404.716                                  
E25    211802.235     1114138.115                                  
E36    211803.802     1113600.300
> 2025 01 06 18 47 13.0000000  0  7
E02    211909.703     1114118.541                                  
E10    211909.125     1114346.050                                  
E11    211909.397     1114023.049                                  
E12    211912.412     1114551.441                                  
E24    211914.906     1113977.175                                  
E25    211909.790     1114710.581                                  
E36    211912.223     1114172.760
> 2025 01 06 18 47 14.0000000  0  7
E02    212018.445     1114690.969                                  
E10    212017.155     1114918.480                                  
E11    212017.806     1114595.473                                  
E12    212016.741     1115123.862                                  
E24    212018.872     1114549.611                                  
E25    212019.614     1115283.006                                  
E36    212018.377     1114745.191
> 2025 01 06 18 47 15.0000000  0  7
E02    212125.985     1115264.059                                  
E10    212126.856     1115491.572                                  
E11    212128.534     1115168.567                                  
E12    212123.065     1115696.965                                  
E24    212128.444     1115122.672                                  
E25    212128.166     1115856.087                                  
E36    212125.670     1115318.272
> 2025 01 06 18 47 16.0000000  0  7
E02    212234.361     1115837.215                                  
E10    212233.075     1116064.726                                  
E11    212233.283     1115741.735                                  
E12    212234.635     1116270.097                                  
E24    212236.340     1115695.838                                  
E25    212235.571     1116429.252                                  
E36    212233.503     1115891.435
> 2025 01 06 18 47 17.0000000  0  7
E02    212340.791     1116410.061                                  
E10    212342.142     1116637.573                                  
E11    212341.693     1116314.573                                  
E12    212347.553     1116842.965                                  
E24    212345.073     1116268.692                                  
E25    212343.505     1117002.094                                  
E36    212342.431     1116464.276
> 2025 01 06 18 47 18.0000000  0  7
E02    212450.260     1116983.344                                  
E10    212450.049     1117210.857                                  
E11    212450.728     1116887.858                                  
E12    212450.671     1117416.247                                  
E24    212451.969     1116841.976                                  
E25    212449.327     1117575.385                                  
E36    212450.176     1117037.572
> 2025 01 06 18 47 19.0000000  0  7
E02    212559.933     1117556.671                                  
E10    212557.614     1117784.182                                  
E11    212558.537     1117461.183                                  
E12    212553.384     1117989.571                                  
E24    212558.944     1117415.301                                  
E25    212558.184     1118148.702                                  
E36    212559.593     1117610.890
> 2025 01 06 18 47 20.0000000  0  7
E02    212668.871     1118130.214                                  
E10    212665.118     1118357.718                                  
E11    212667.468     1118034.739                                  
E12    212659.883     1118563.103                                  
E24    212669.820     1117988.845                                  
E25    212665.738     1118722.245                                  
E36    212665.169     1118184.445
> 2025 01 06 18 47 21.0000000  0  7
E02    212775.058     1118703.499                                  
E10    212772.864     1118931.008                                  
E11    212773.530     1118608.010                                  
E12    212772.017     1119136.389                                  
E24    212773.040     1118562.119                                  
E25    212774.389     1119295.524                                  
E36    212774.699     1118757.724
> 2025 01 06 18 47 22.0000000  0  7
E02    212883.294     1119276.498                                  
E10    212881.316     1119503.996                                  
E11    212881.560     1119180.990                                  
E12    212880.751     1119709.384                                  
E24    212879.564     1119135.117                                  
E25    212881.132     1119868.521                                  
E36    212882.022     1119330.716
> 2025 01 06 18 47 23.0000000  0  7
E02    212991.643     1119849.276                                  
E10    212988.376     1120076.780                                  
E11    212989.736     1119753.784                                  
E12    212987.190     1120282.183                                  
E24    212989.854     1119707.917                                  
E25    212988.708     1120441.307                                  
E36    212991.437     1119903.512
> 2025 01 06 18 47 24.0000000  0  7
E02    213098.595     1120421.443                                  
E10    213095.260     1120648.941                                  
E11    213097.660     1120325.952                                  
E12    213093.349     1120854.326                                  
E24    213099.966     1120280.073                                  
E25    213097.221     1121013.467                                  
E36    213098.214     1120475.662
> 2025 01 06 18 47 25.0000000  0  7
E02    213205.245     1120993.492                                  
E10    213203.040     1121220.988                                  
E11    213206.197     1120898.000                                  
E12    213204.331     1121426.389                                  
E24    213205.822     1120852.114                                  
E25    213205.202     1121585.520                                  
E36    213206.345     1121047.723
> 2025 01 06 18 47 26.0000000  0  7
E02    213312.525     1121565.863                                  
E10    213310.087     1121793.359                                  
E11    213313.887     1121470.358                                  
E12    213313.522     1121998.756                                  
E24    213312.288     1121424.478                                  
E25    213311.667     1122157.885                                  
E36    213313.459     1121620.087
> 2025 01 06 18 47 27.0000000  0  7
E02    213420.486     1122138.519                                  
E10    213419.059     1122366.024                                  
E11    213419.297     1122043.025                                  
E12    213418.176     1122571.399                                  
E24    213420.482     1121997.146                                  
E25    213419.953     1122730.548                                  
E36    213421.833     1122192.755
> 2025 01 06 18 47 28.0000000  0  7
E02    213528.626     1122711.078                                  
E10    213527.887     1122938.575                                  
E11    213527.144     1122615.589                                  
E12    213524.531     1123143.962                                  
