     3.02           OBSERVATION DATA    E                   RINEX VERSION / TYPE
G = GPS  R = GLONASS  E = GALILEO  S = GEO  M = MIXED       COMMENT             
GNSS-SDR            jmfriedt            20250108 183134 UTC PGM / RUN BY / DATE 
GALILEO OBSERVATION DATA FILE GENERATED BY GNSS-SDR         COMMENT             
GNSS-SDR VERSION 0.0.19.git-main-87fcfd237                  COMMENT             
See https://gnss-sdr.org                                    COMMENT             
DEFAULT MARKER NAME                                         MARKER NAME         
jmfriedt            CTTC                                    OBSERVER / AGENCY   
GNSS-SDR            Software Receiver   0.0.19.gi           REC # / TYPE / VERS 
Antenna number      Antenna type                            ANT # / TYPE        
        0.0000        0.0000        0.0000                  APPROX POSITION XYZ 
        0.0000        0.0000        0.0000                  ANTENNA: DELTA H/E/N
E    4 C1B L1B D1B S1B                                      SYS / # / OBS TYPES 
DBHZ                                                        SIGNAL STRENGTH UNIT
  2025    01    08    17    41   58.1600000     GAL         TIME OF FIRST OBS   
    18    18   137     7                                    LEAP SECONDS        
                                                            END OF HEADER       
> 2025 01 08 17 41 59.0000000  0  5                                             
E15  25592675.631 6 134490404.221 6       151.284 6        37.212               
E21  28007043.236 6 147181487.438 6     -2084.727 6        38.560               
E27  25625879.974 7 134664908.262 7      -353.149 7        42.682               
E30  27986704.786 6 147066612.748 6      2685.678 6        39.406               
E34  27600842.194 6 145043406.438 6     -2477.556 6        38.903               
> 2025 01 08 17 42 00.0000000  0  5                                             
E15  25592646.665 6 134490253.127 6       150.586 6        37.372               
E21  28006648.331 6 147183570.895 6     -2081.637 6        38.481               
E27  25625946.000 7 134665261.400 7      -352.504 7        42.583               
E30  27987214.035 6 147063926.044 6      2686.016 6        39.405               
E34  27601320.851 6 145045883.218 6     -2474.884 6        38.921               
> 2025 01 08 17 42 01.0000000  0  5                                             
E15  25592622.899 6 134490102.438 6       149.718 6        37.455               
E21  28006255.659 6 147185654.202 6     -2082.678 6        38.985               
E27  25626015.618 7 134665614.922 7      -354.369 7        42.797               
E30  27987729.306 6 147061239.136 6      2687.966 6        39.435               
E34  27601790.860 6 145048360.225 6     -2476.610 6        38.849               
> 2025 01 08 17 42 02.0000000  0  5                                             
E15  25592592.021 6 134489952.129 6       151.923 6        37.712               
E21  28005860.093 6 147187737.395 6     -2081.114 6        39.248               
E27  25626084.431 7 134665968.762 7      -354.138 7        42.408               
E30  27988245.864 6 147058552.051 6      2687.188 6        39.614               
E34  27602265.337 6 145050837.453 6     -2475.553 6        38.844               
> 2025 01 08 17 42 03.0000000  0  5                                             
E15  25592568.684 6 134489802.365 6       150.694 6        37.686               
E21  28005468.904 6 147189820.311 6     -2080.993 6        39.155               
E27  25626154.943 7 134666323.077 7      -354.279 7        42.490               
E30  27988755.238 6 147055864.636 6      2689.124 6        39.668               
E34  27602738.884 6 145053315.010 6     -2476.740 6        39.028               
> 2025 01 08 17 42 04.0000000  0  5                                             
E15  25592541.488 6 134489652.834 6       150.998 6        38.074               
E21  28005073.051 6 147191903.241 6     -2083.241 6        39.193               
E27  25626225.275 7 134666677.575 7      -354.761 7        42.427               
E30  27989267.972 6 147053177.207 6      2686.918 6        39.823               
E34  27603210.018 6 145055792.621 6     -2479.100 6        39.047               
> 2025 01 08 17 42 05.0000000  0  5                                             
E15  25592516.328 6 134489503.941 6       149.397 6        38.070               
E21  28004678.218 6 147193985.821 6     -2082.178 6        39.061               
E27  25626292.052 7 134667032.652 7      -354.713 7        42.281               
E30  27989783.529 6 147050489.298 6      2688.927 6        39.448               
E34  27603679.991 6 145058270.667 6     -2476.804 6        39.239               
> 2025 01 08 17 42 06.0000000  0  6                                             
E13  28029325.425 6 147295138.160 6      2495.892 6        37.718               
E15  25592489.417 6 134489355.892 6       146.332 6        38.099               
E21  28004283.527 6 147196067.814 6     -2081.305 6        38.935               
E27  25626363.295 7 134667388.520 7      -355.205 7        42.685               
E30  27990297.281 6 147047800.754 6      2688.228 6        39.419               
E34  27604158.184 6 145060749.378 6     -2478.677 6        39.281               
> 2025 01 08 17 42 07.0000000  0  6                                             
E13  28028853.272 6 147292641.842 6      2498.130 6        37.287               
E15  25592465.848 6 134489208.388 6       147.124 6        38.101               
E21  28003889.675 6 147198149.507 6     -2081.643 6        39.206               
E27  25626434.003 7 134667744.872 7      -356.119 7        42.398               
E30  27990806.370 6 147045111.903 6      2688.845 6        39.445               
E34  27604631.159 6 145063228.442 6     -2479.570 6        39.155               
> 2025 01 08 17 42 08.0000000  0  6                                             
E13  28028380.744 6 147290145.164 6      2496.769 6        37.045               
E15  25592438.419 6 134489060.780 6       148.799 6        38.039               
E21  28003495.413 6 147200231.582 6     -2083.428 6        39.075               
E27  25626502.495 7 134668101.063 7      -356.030 7        42.341               
E30  27991322.284 6 147042423.330 6      2687.452 6        39.952               
E34  27605104.224 6 145065707.213 6     -2479.626 6        39.398               
> 2025 01 08 17 42 09.0000000  0  6                                             
E13  28027909.681 6 147287648.257 6      2495.174 6        37.058               
E15  25592410.740 6 134488913.134 6       146.286 6        38.033               
E21  28003100.508 6 147202313.941 6     -2081.821 6        38.950               
E27  25626570.987 7 134668457.182 7      -357.481 7        42.365               
E30  27991835.715 6 147039734.997 6      2689.697 6        40.006               
E34  27605577.985 6 145068185.759 6     -2479.309 6        39.033               
> 2025 01 08 17 42 10.0000000  0  6                                             
E13  28027433.346 6 147285152.191 6      2495.686 6        37.585               
E15  25592385.706 6 134488766.516 6       146.470 6        38.158               
E21  28002706.567 6 147204395.535 6     -2082.134 6        38.844               
E27  25626640.730 7 134668814.253 7      -356.414 7        42.603               
E30  27992350.379 6 147037045.844 6      2689.415 6        40.139               
E34  27606052.658 6 145070665.160 6     -2481.028 6        39.047               
> 2025 01 08 17 42 11.0000000  0  6                                             
E13  28026965.267 6 147282656.323 6      2496.733 6        37.734               
E15  25592358.080 6 134488620.313 6       146.081 6        38.084               
E21  28002311.287 6 147206477.001 6     -2080.518 6        38.858               
E27  25626711.849 7 134669171.690 7      -356.829 7        42.647               
E30  27992865.114 6 147034356.467 6      2689.395 6        39.756               
E34  27606526.348 6 145073144.760 6     -2479.772 6        39.195               
> 2025 01 08 17 42 12.0000000  0  6                                             
E13  28026488.611 6 147280160.280 6      2494.546 6        37.787               
E15  25592331.062 6 134488474.142 6       146.361 6        38.657               
E21  28001916.131 6 147208558.664 6     -2082.871 6        38.727               
E27  25626780.698 7 134669529.107 7      -357.332 7        42.965               
E30  27993378.544 6 147031667.272 6      2690.010 6        39.680               
E34  27606998.555 6 145075624.221 6     -2478.726 6        39.342               
> 2025 01 08 17 42 13.0000000  0  6                                             
E13  28026014.832 6 147277664.659 6      2494.901 6        37.599               
E15  25592304.723 6 134488328.637 6       145.199 6        38.508               
E21  28001520.815 6 147210639.946 6     -2080.318 6        38.343               
E27  25626852.799 7 134669887.130 7      -358.800 7        42.921               
E30  27993891.868 6 147028977.616 6      2686.355 6        39.052               
E34  27607474.460 6 145078104.124 6     -2478.358 6        39.315               
> 2025 01 08 17 42 14.0000000  0  6                                             
E13  28025544.072 6 147275168.828 6      2496.614 6        37.836               
E15  25592282.994 6 134488183.106 6       145.632 6        38.451               
E21  28001127.518 6 147212721.497 6     -2079.544 6        38.342               
E27  25626922.167 7 134670245.072 7      -356.730 7        42.876               
E30  27994401.439 6 147026288.206 6      2690.552 6        39.218               
E34  27607948.561 6 145080583.858 6     -2479.826 6        39.618               
> 2025 01 08 17 42 15.0000000  0  6                                             
E13  28025070.847 6 147272672.375 6      2496.374 6        37.422               
E15  25592254.904 6 134488037.105 6       146.764 6        38.562               
E21  28000735.561 6 147214803.788 6     -2082.547 6        38.202               
E27  25626991.642 7 134670602.508 7      -357.444 7        42.991               
E30  27994917.210 6 147023599.438 6      2688.656 6        39.376               
E34  27608419.285 6 145083062.938 6     -2479.607 6        39.777               
> 2025 01 08 17 42 16.0000000  0  6                                             
E13  28024596.853 6 147270176.315 6      2495.643 6        37.231               
E15  25592229.959 6 134487891.789 6       144.798 6        38.657               
E21  28000337.439 6 147216885.668 6     -2082.246 6        38.360               
E27  25627064.101 7 134670960.545 7      -358.749 7        43.086               
E30  27995430.283 6 147020910.197 6      2688.720 6        39.187               
E34  27608896.495 6 145085542.480 6     -2480.368 6        39.648               
> 2025 01 08 17 42 17.0000000  0  6                                             
E13  28024125.093 6 147267680.625 6      2495.801 6        37.277               
E15  25592205.675 6 134487747.019 6       143.650 6        38.828               
E21  27999942.515 6 147218967.265 6     -2082.354 6        38.610               
E27  25627131.967 7 134671319.077 7      -358.605 7        42.914               
E30  27995943.678 6 147018220.630 6      2690.198 6        39.182               
E34  27609369.685 6 145088022.357 6     -2479.609 6        39.730               
> 2025 01 08 17 42 18.0000000  0  6                                             
E13  28023652.350 6 147265185.338 6      2494.273 6        37.125               
E15  25592177.013 6 134487602.835 6       142.316 6        38.757               
E21  27999546.306 6 147221048.511 6     -2081.505 6        38.947               
E27  25627201.013 7 134671678.171 7      -360.202 7        42.774               
E30  27996457.395 6 147015530.635 6      2692.286 6        39.466               
E34  27609839.837 6 145090502.688 6     -2478.420 6        39.482               
> 2025 01 08 17 42 19.0000000  0  6                                             
E13  28023178.750 6 147262690.528 6      2495.955 6        37.172               
E15  25592150.871 6 134487459.359 6       143.012 6        38.752               
E21  27999155.599 6 147223129.330 6     -2080.601 6        39.039               
E27  25627273.418 7 134672037.886 7      -360.691 7        43.174               
E30  27996977.151 6 147012840.140 6      2688.549 6        39.604               
E34  27610318.226 6 145092983.536 6     -2480.955 6        39.521               
> 2025 01 08 17 42 20.0000000  0  6                                             
E13  28022702.665 6 147260196.048 6      2493.086 6        37.057               
E15  25592125.890 6 134487316.409 6       142.547 6        38.904               
E21  27998762.392 6 147225209.865 6     -2078.760 6        39.094               
E27  25627341.589 7 134672398.077 7      -360.416 7        43.496               
E30  27997485.221 6 147010149.365 6      2690.958 6        39.659               
E34  27610789.361 6 145095464.695 6     -2482.388 6        39.572               
> 2025 01 08 17 42 21.0000000  0  6                                             
E13  28022230.798 6 147257702.265 6      2496.079 6        37.130               
E15  25592100.713 6 134487174.391 6       143.000 6        39.058               
E21  27998367.272 6 147227289.757 6     -2081.773 6        38.886               
E27  25627412.386 7 134672759.149 7      -360.981 7        43.542               
E30  27997996.829 6 147007457.820 6      2691.663 6        39.610               
E34  27611266.428 6 145097946.595 6     -2482.543 6        39.479               
> 2025 01 08 17 42 22.0000000  0  6                                             
E13  28021762.040 6 147255208.706 6      2493.604 6        37.081               
E15  25592073.766 6 134487032.790 6       140.765 6        39.459               
E21  27997974.403 6 147229369.500 6     -2079.037 6        38.741               
E27  25627485.113 7 134673120.580 7      -361.964 7        43.617               
E30  27998515.156 6 147004766.079 6      2692.416 6        39.555               
E34  27611736.955 6 145100428.720 6     -2483.585 6        39.635               
> 2025 01 08 17 42 23.0000000  0  6                                             
E13  28021288.243 6 147252715.389 6      2494.510 6        36.952               
E15  25592049.839 6 134486891.649 6       142.827 6        39.345               
E21  27997577.193 6 147231449.022 6     -2080.325 6        38.490               
E27  25627553.265 7 134673482.397 7      -360.813 7        43.385               
E30  27999027.300 6 147002074.076 6      2691.661 6        39.310               
E34  27612212.825 6 145102911.100 6     -2483.037 6        39.679               
> 2025 01 08 17 42 24.0000000  0  6                                             
E13  28020812.248 6 147250220.732 6      2495.450 6        37.094               
E15  25592024.072 6 134486749.356 6       140.834 6        39.418               
E21  27997183.967 6 147233529.961 6     -2078.869 6        38.705               
E27  25627621.829 7 134673843.031 7      -360.956 7        43.306               
E30  27999540.838 6 146999383.422 6      2690.688 6        39.177               
E34  27612688.427 6 145105392.172 6     -2481.518 6        39.724               
> 2025 01 08 17 42 25.0000000  0  6                                             
E13  28020340.202 6 147247726.815 6      2492.060 6        37.031               
E15  25591999.824 6 134486608.017 6       139.760 6        39.229               
E21  27996789.223 6 147235610.201 6     -2080.387 6        38.646               
E27  25627694.877 7 134674204.567 7      -362.391 7        43.249               
E30  28000056.198 6 146996692.043 6      2692.353 6        39.275               
E34  27613159.580 6 145107873.979 6     -2480.181 6        39.954               
> 2025 01 08 17 42 26.0000000  0  6                                             
E13  28019870.711 6 147245233.527 6      2492.730 6        37.195               
E15  25591975.933 6 134486467.504 6       140.642 6        39.445               
E21  27996402.180 6 147237689.882 6     -2079.250 6        38.602               
E27  25627764.048 7 134674566.869 7      -362.671 7        43.466               
E30  28000570.915 6 146994000.009 6      2692.657 6        39.130               
E34  27613634.216 6 145110356.457 6     -2483.126 6        39.709               
> 2025 01 08 17 42 27.0000000  0  6                                             
E13  28019393.697 6 147242740.794 6      2489.837 6        36.908               
E15  25591950.291 6 134486327.780 6       138.555 6        39.448               
E21  27996004.665 6 147239769.022 6     -2078.413 6        38.484               
E27  25627837.097 7 134674929.924 7      -363.744 7        43.492               
E30  28001084.543 6 146991307.382 6      2692.052 6        39.192               
E34  27614104.458 6 145112839.518 6     -2484.391 6        39.354               
> 2025 01 08 17 42 28.0000000  0  6                                             
E13  28018926.530 6 147240247.624 6      2493.834 6        36.807               
E15  25591924.989 6 134486187.790 6       140.485 6        39.653               
E21  27995609.617 6 147241848.711 6     -2080.123 6        38.549               
E27  25627906.661 7 134675292.638 7      -362.314 7        43.204               
E30  28001597.348 6 146988615.256 6      2691.413 6        39.180               
E34  27614583.294 6 145115322.118 6     -2479.983 6        39.535               
> 2025 01 08 17 42 29.0000000  0  6                                             
E13  28018449.856 6 147237754.562 6      2492.415 6        37.150               
E15  25591901.366 6 134486048.124 6       141.643 6        39.515               
E21  27995218.178 6 147243928.327 6     -2078.162 6        38.497               
E27  25627979.048 7 134675655.626 7      -363.579 7        42.910               
E30  28002113.530 6 146985922.990 6      2693.466 6        38.990               
E34  27615054.643 6 145117804.861 6     -2484.083 6        39.392               
> 2025 01 08 17 42 30.0000000  0  6                                             
E13  28017977.166 6 147235262.415 6      2491.967 6        37.112               
E15  25591876.742 6 134485909.605 6       137.257 6        39.926               
E21  27994824.345 6 147246007.050 6     -2076.955 6        38.769               
E27  25628046.057 7 134676019.693 7      -364.468 7        43.201               
E30  28002628.855 6 146983229.789 6      2693.416 6        38.748               
E34  27615529.852 6 145120288.545 6     -2482.893 6        39.385               
> 2025 01 08 17 42 31.0000000  0  6                                             
E13  28017503.959 6 147232770.465 6      2491.044 6        36.953               
E15  25591850.653 6 134485771.456 6       138.014 6        39.945               
E21  27994428.725 6 147248085.692 6     -2078.026 6        38.355               
E27  25628119.606 7 134676384.086 7      -364.497 7        43.220               
E30  28003141.321 6 146980536.411 6      2692.209 6        39.077               
E34  27616004.525 6 145122772.428 6     -2484.030 6        39.099               
> 2025 01 08 17 42 32.0000000  0  6                                             
E13  28017031.484 6 147230278.867 6      2492.055 6        36.805               
E15  25591828.782 6 134485633.904 6       137.173 6        40.308               
E21  27994034.391 6 147250163.945 6     -2079.374 6        38.469               
E27  25628189.045 7 134676749.028 7      -365.752 7        43.449               
E30  28003658.361 6 146977842.631 6      2692.554 6        39.154               
E34  27616475.177 6 145125256.721 6     -2483.829 6        39.366               
> 2025 01 08 17 42 33.0000000  0  6                                             
E13  28016562.101 6 147227787.650 6      2489.643 6        36.884               
E15  25591804.766 6 134485496.925 6       136.084 6        40.203               
E21  27993641.380 6 147252241.942 6     -2077.548 6        38.307               
E27  25628261.754 7 134677114.465 7      -366.055 7        43.385               
E30  28004168.379 6 146975148.501 6      2694.282 6        39.342               
E34  27616951.815 6 145127741.390 6     -2485.635 6        39.286               
> 2025 01 08 17 42 34.0000000  0  6                                             
E13  28016090.126 6 147225296.409 6      2492.730 6        36.958               
E15  25591778.212 6 134485360.103 6       136.366 6        40.253               
E21  27993247.296 6 147254320.033 6     -2079.204 6        38.688               
E27  25628331.282 7 134677480.022 7      -367.387 7        43.474               
E30  28004684.400 6 146972454.412 6      2695.298 6        38.978               
E34  27617426.398 6 145130226.000 6     -2483.821 6        38.698               
> 2025 01 08 17 42 35.0000000  0  6                                             
E13  28015611.826 6 147222805.139 6      2491.264 6        36.964               
E15  25591754.107 6 134485223.513 6       135.176 6        40.504               
E21  27992854.464 6 147256398.147 6     -2078.174 6        38.560               
E27  25628403.330 7 134677845.739 7      -366.847 7        43.484               
E30  28005197.813 6 146969760.283 6      2694.836 6        38.903               
E34  27617903.626 6 145132710.697 6     -2485.196 6        38.736               
> 2025 01 08 17 42 36.0000000  0  6                                             
E13  28015142.121 6 147220314.180 6      2494.062 6        36.864               
E15  25591730.877 6 134485087.385 6       136.406 6        40.751               
E21  27992456.932 6 147258476.037 6     -2076.596 6        38.647               
E27  25628474.860 7 134678211.883 7      -366.708 7        43.543               
E30  28005713.173 6 146967065.899 6      2696.270 6        38.751               
E34  27618373.957 6 145135195.629 6     -2485.317 6        39.033               
> 2025 01 08 17 42 37.0000000  0  6                                             
E13  28014675.793 6 147217823.622 6      2490.243 6        36.813               
E15  25591705.771 6 134484951.885 6       135.739 6        40.595               
E21  27992064.814 6 147260553.570 6     -2078.186 6        38.425               
E27  25628548.802 7 134678578.597 7      -366.766 7        43.640               
E30  28006229.481 6 146964371.091 6      2695.945 6        38.915               
E34  27618846.753 6 145137681.004 6     -2484.385 6        38.894               
> 2025 01 08 17 42 38.0000000  0  6                                             
E13  28014198.940 6 147215333.233 6      2490.675 6        36.747               
E15  25591682.399 6 134484816.751 6       136.848 6        40.550               
E21  27991671.677 6 147262631.010 6     -2076.031 6        38.250               
E27  25628619.313 7 134678945.614 7      -367.029 7        43.471               
E30  28006743.305 6 146961676.105 6      2694.648 6        38.751               
E34  27619329.932 6 145140166.588 6     -2485.593 6        39.285               
> 2025 01 08 17 42 39.0000000  0  6                                             
E13  28013728.431 6 147212843.032 6      2490.997 6        37.102               
E15  25591660.134 6 134484682.061 6       133.927 6        40.817               
E21  27991275.575 6 147264708.272 6     -2076.037 6        38.235               
E27  25628690.718 7 134679313.027 7      -367.875 7        43.423               
E30  28007255.806 6 146958980.909 6      2696.826 6        39.013               
E34  27619802.156 6 145142652.389 6     -2485.322 6        39.195               
> 2025 01 08 17 42 40.0000000  0  6                                             
E13  28013258.297 6 147210353.224 6      2490.940 6        36.971               
E15  25591632.276 6 134484547.903 6       134.860 6        40.901               
E21  27990885.690 6 147266785.224 6     -2076.377 6        38.235               
E27  25628763.534 7 134679680.933 7      -368.127 7        43.634               
E30  28007771.613 6 146956285.365 6      2695.060 6        39.168               
E34  27620276.114 6 145145138.535 6     -2485.290 6        39.637               
> 2025 01 08 17 42 41.0000000  0  6                                             
E13  28012780.015 6 147207863.594 6      2493.164 6        36.943               
E15  25591612.013 6 134484414.202 6       133.535 6        41.178               
E21  27990487.587 6 147268862.032 6     -2077.184 6        38.349               
E27  25628834.867 7 134680049.215 7      -368.794 7        43.522               
E30  28008288.368 6 146953589.568 6      2694.961 6        39.367               
E34  27620752.378 6 145147624.957 6     -2488.289 6        39.494               
> 2025 01 08 17 42 42.0000000  0  6                                             
E13  28012311.114 6 147205374.190 6      2490.803 6        36.828               
E15  25591585.549 6 134484280.855 6       132.445 6        41.124               
E21  27990094.575 6 147270938.715 6     -2077.256 6        38.340               
E27  25628909.202 7 134680417.822 7      -368.615 7        43.485               
E30  28008806.230 6 146950893.611 6      2694.999 6        39.150               
E34  27621224.834 6 145150111.551 6     -2489.192 6        39.546               
> 2025 01 08 17 42 43.0000000  0  6                                             
E13  28011842.802 6 147202885.032 6      2489.085 6        37.015               
E15  25591565.607 6 134484147.999 6       132.087 6        40.883               
E21  27989704.566 6 147273015.185 6     -2077.688 6        38.069               
E27  25628977.498 7 134680786.837 7      -368.627 7        43.399               
E30  28009316.212 6 146948197.378 6      2695.248 6        38.813               
E34  27621702.831 6 145152598.444 6     -2486.277 6        39.597               
> 2025 01 08 17 42 44.0000000  0  6                                             
E13  28011368.969 6 147200396.272 6      2490.576 6        36.977               
E15  25591539.036 6 134484015.752 6       132.006 6        41.218               
E21  27989306.944 6 147275091.294 6     -2076.127 6        38.528               
E27  25629047.973 7 134681156.433 7      -370.244 7        43.394               
E30  28009835.253 6 146945500.725 6      2695.535 6        38.814               
E34  27622174.377 6 145155085.732 6     -2488.237 6        39.394               
> 2025 01 08 17 42 45.0000000  0  6                                             
E13  28010898.335 6 147197908.185 6      2487.623 6        36.880               
E15  25591514.573 6 134483884.372 6       131.283 6        41.390               
E21  27988919.723 6 147277166.775 6     -2076.445 6        38.447               
E27  25629122.201 7 134681526.834 7      -371.411 7        43.494               
E30  28010347.254 6 146942803.393 6      2696.658 6        38.605               
E34  27622653.356 6 145157573.744 6     -2486.855 6        39.550               
> 2025 01 08 17 42 46.0000000  0  6                                             
E13  28010423.341 6 147195420.259 6      2486.495 6        36.759               
E15  25591495.256 6 134483753.375 6       130.410 6        41.368               
E21  27988524.156 6 147279242.151 6     -2073.129 6        38.409               
E27  25629197.072 7 134681897.551 7      -370.368 7        43.598               
E30  28010864.938 6 146940105.918 6      2697.648 6        38.697               
E34  27623128.636 6 145160061.886 6     -2488.699 6        39.251               
> 2025 01 08 17 42 47.0000000  0  6                                             
E13  28009954.815 6 147192932.348 6      2490.917 6        36.455               
E15  25591470.311 6 134483622.588 6       130.515 6        41.863               
E21  27988130.555 6 147281317.582 6     -2077.623 6        38.212               
E27  25629268.352 7 134682268.429 7      -370.916 7        43.879               
E30  28011376.617 6 146937408.424 6      2696.914 6        38.868               
E34  27623600.271 6 145162550.062 6     -2488.971 6        39.274               
> 2025 01 08 17 42 48.0000000  0  6                                             
E13  28009486.182 6 147190444.761 6      2488.932 6        36.745               
E15  25591446.260 6 134483492.318 6       130.620 6        41.936               
E21  27987738.938 6 147283392.733 6     -2074.500 6        38.400               
E27  25629340.864 7 134682639.772 7      -370.924 7        43.568               
E30  28011896.213 6 146934710.604 6      2699.242 6        38.393               
E34  27624077.356 6 145165038.592 6     -2488.257 6        39.313               
> 2025 01 08 17 42 49.0000000  0  6                                             
E13  28009010.366 6 147187957.209 6      2488.855 6        36.864               
E15  25591424.638 6 134483362.320 6       129.933 6        41.814               
E21  27987345.962 6 147285467.900 6     -2074.258 6        38.287               
E27  25629412.126 7 134683011.329 7      -370.832 7        43.516               
E30  28012409.250 6 146932012.740 6      2699.244 6        38.350               
E34  27624552.618 6 145167527.185 6     -2489.102 6        39.183               
> 2025 01 08 17 42 50.0000000  0  6                                             
E13  28008537.069 6 147185469.459 6      2487.504 6        36.993               
E15  25591402.516 7 134483232.295 7       130.628 7        42.093               
E21  27986951.593 6 147287543.352 6     -2074.852 6        38.177               
E27  25629484.603 7 134683382.799 7      -371.121 7        43.438               
E30  28012923.646 6 146929315.079 6      2696.768 6        38.281               
E34  27625026.005 6 145170015.578 6     -2489.063 6        39.247               
> 2025 01 08 17 42 51.0000000  0  6                                             
E13  28008065.434 6 147182981.570 6      2486.806 6        37.027               
E15  25591379.465 7 134483102.343 7       130.091 7        42.059               
E21  27986560.958 6 147289618.979 6     -2074.415 6        38.178               
E27  25629556.061 7 134683754.320 7      -371.815 7        43.509               
E30  28013438.363 6 146926617.569 6      2698.659 6        38.273               
E34  27625504.233 6 145172503.851 6     -2486.716 6        39.394               
> 2025 01 08 17 42 52.0000000  0  6                                             
E13  28007596.426 6 147180493.877 6      2488.483 6        36.854               
E15  25591356.414 7 134482972.845 7       128.859 7        42.086               
E21  27986162.997 6 147291694.445 6     -2073.528 6        38.167               
E27  25629630.932 7 134684126.204 7      -371.832 7        43.669               
E30  28013950.757 6 146923919.788 6      2698.933 6        38.437               
E34  27625974.081 6 145174992.343 6     -2488.561 6        39.489               
> 2025 01 08 17 42 53.0000000  0  6                                             
E13  28007123.021 6 147178006.868 6      2489.568 6        36.639               
E15  25591334.131 7 134482844.171 7       127.511 7        42.054               
E21  27985768.235 6 147293769.302 6     -2073.365 6        38.209               
E27  25629701.568 7 134684498.872 7      -373.216 7        43.589               
E30  28014465.921 6 146921221.397 6      2700.574 6        38.608               
E34  27626452.721 6 145177481.518 6     -2488.349 6        39.534               
> 2025 01 08 17 42 54.0000000  0  6                                             
E13  28006650.279 6 147175520.570 6      2482.763 6        36.666               
E15  25591312.170 6 134482716.433 6       127.414 6        41.944               
E21  27985380.441 6 147295843.471 6     -2076.386 6        38.543               
E27  25629774.152 7 134684872.424 7      -373.761 7        43.327               
E30  28014982.872 6 146918522.253 6      2700.147 6        38.735               
E34  27626930.020 6 145179971.416 6     -2490.350 6        39.882               
> 2025 01 08 17 42 55.0000000  0  6                                             
E13  28006181.663 6 147173034.524 6      2486.130 6        36.753               
E15  25591289.959 7 134482589.141 7       127.471 7        42.170               
E21  27984983.320 6 147297917.489 6     -2075.411 6        38.399               
E27  25629848.094 7 134685246.378 7      -373.812 7        43.304               
E30  28015499.215 6 146915822.876 6      2698.875 6        38.893               
E34  27627406.123 6 145182461.574 6     -2491.488 6        39.607               
> 2025 01 08 17 42 56.0000000  0  6                                             
E13  28005710.100 6 147170548.454 6      2487.162 6        36.674               
E15  25591267.962 7 134482462.066 7       126.360 7        42.416               
E21  27984592.953 6 147299991.545 6     -2074.292 6        38.337               
E27  25629919.964 7 134685620.487 7      -373.787 7        43.420               
E30  28016015.237 6 146913123.505 6      2698.990 6        38.825               
E34  27627882.136 6 145184951.757 6     -2487.560 6        39.551               
> 2025 01 08 17 42 57.0000000  0  6                                             
E13  28005236.428 6 147168062.593 6      2485.813 6        36.835               
E15  25591246.341 7 134482335.398 7       125.374 7        42.252               
E21  27984201.282 6 147302065.440 6     -2071.888 6        38.333               
E27  25629996.836 7 134685994.948 7      -374.093 7        43.787               
E30  28016532.331 6 146910423.907 6      2699.390 6        38.493               
E34  27628355.968 6 145187442.150 6     -2490.271 6        39.689               
> 2025 01 08 17 42 58.0000000  0  6                                             
E13  28004765.079 6 147165577.212 6      2486.108 6        36.948               
E15  25591222.379 7 134482209.412 7       124.704 7        42.411               
E21  27983809.968 6 147304138.925 6     -2072.911 6        38.335               
E27  25630066.257 7 134686370.022 7      -374.787 7        43.531               
E30  28017047.906 6 146907723.824 6      2700.547 6        38.470               
E34  27628834.680 6 145189933.071 6     -2490.976 6        39.315               
> 2025 01 08 17 42 59.0000000  0  6                                             
E13  28004295.785 6 147163091.890 6      2484.952 6        36.569               
E15  25591200.721 7 134482083.673 7       125.772 7        42.260               
E21  27983414.277 6 147306212.426 6     -2074.866 6        38.259               
E27  25630137.876 7 134686745.302 7      -375.452 7        43.477               
E30  28017565.410 6 146905023.717 6      2700.991 6        38.644               
E34  27629308.048 6 145192424.019 6     -2489.565 6        39.240               
> 2025 01 08 17 43 00.0000000  0  6                                             
E13  28003819.968 6 147160606.739 6      2485.883 6        36.362               
E15  25591175.955 7 134481958.343 7       126.540 7        42.463               
E21  27983022.427 6 147308285.753 6     -2071.575 6        38.382               
E27  25630214.606 7 134687120.947 7      -375.519 7        43.500               
E30  28018077.751 6 146902323.396 6      2702.256 6        38.430               
E34  27629784.186 6 145194915.175 6     -2492.401 6        39.336               
> 2025 01 08 17 43 01.0000000  0  6                                             
E13  28003350.906 6 147158122.036 6      2483.870 6        36.323               
E15  25591157.067 7 134481833.635 7       123.320 7        42.295               
E21  27982626.717 6 147310358.748 6     -2073.128 6        38.423               
E27  25630287.136 7 134687497.133 7      -376.720 7        43.562               
E30  28018589.163 6 146899622.665 6      2700.704 6        38.230               
E34  27630258.894 6 145197406.767 6     -2490.556 6        39.183               
> 2025 01 08 17 43 02.0000000  0  6                                             
E13  28002883.596 6 147155637.479 6      2486.612 6        36.510               
E15  25591132.372 7 134481709.294 7       123.971 7        42.366               
E21  27982237.298 6 147312431.629 6     -2075.936 6        38.471               
E27  25630361.471 7 134687873.656 7      -375.407 7        43.189               
E30  28019109.973 6 146896921.765 6      2699.898 6        38.210               
E34  27630735.515 6 145199898.530 6     -2490.251 6        39.125               
> 2025 01 08 17 43 03.0000000  0  6                                             
E13  28002412.515 6 147153152.707 6      2483.955 6        36.339               
E15  25591114.825 7 134481584.923 7       125.134 7        42.299               
E21  27981844.161 6 147314504.793 6     -2071.230 6        38.476               
E27  25630433.144 7 134688250.097 7      -376.594 7        43.047               
E30  28019625.941 6 146894221.091 6      2700.518 6        38.509               
E34  27631211.027 6 145202390.092 6     -2492.396 6        38.948               
> 2025 01 08 17 43 04.0000000  0  6                                             
E13  28001939.468 6 147150668.102 6      2485.633 6        36.317               
E15  25591090.970 7 134481460.952 7       123.549 7        42.099               
E21  27981453.312 6 147316577.800 6     -2073.820 6        38.347               
E27  25630510.070 7 134688626.858 7      -377.023 7        43.611               
E30  28020140.229 6 146891520.224 6      2701.792 6        38.919               
E34  27631687.987 6 145204881.845 6     -2492.702 6        38.719               
> 2025 01 08 17 43 05.0000000  0  6                                             
E13  28001469.191 6 147148183.658 6      2484.021 6        36.474               
E15  25591066.382 6 134481337.347 6       123.919 6        41.999               
E21  27981059.140 6 147318650.704 6     -2072.771 6        38.612               
E27  25630580.528 7 134689003.965 7      -376.235 7        43.663               
E30  28020653.589 6 146888819.197 6      2701.233 6        38.895               
E34  27632164.197 6 145207373.799 6     -2491.657 6        38.659               
> 2025 01 08 17 43 06.0000000  0  6                                             
E13  28000998.325 6 147145698.409 6      2484.886 6        37.075               
E15  25591050.050 7 134481213.133 7       123.775 7        42.052               
E21  27980664.752 6 147320724.493 6     -2073.376 6        38.790               
E27  25630651.057 7 134689380.381 7      -377.000 7        43.643               
E30  28021171.469 6 146886118.984 6      2698.001 6        38.810               
E34  27632636.797 6 145209864.917 6     -2493.880 6        38.711               
> 2025 01 08 17 43 07.0000000  0  6                                             
E13  28000528.512 6 147143213.903 6      2483.881 6        36.888               
E15  25591029.197 7 134481089.852 7       121.740 7        42.434               
E21  27980272.492 6 147322797.595 6     -2070.135 6        38.851               
E27  25630726.804 7 134689757.687 7      -376.752 7        43.487               
E30  28021687.598 6 146883418.025 6      2702.109 6        38.435               
E34  27633114.203 6 145212356.786 6     -2493.858 6        38.575               
> 2025 01 08 17 43 08.0000000  0  6                                             
E13  28000055.519 6 147140730.177 6      2483.881 6        36.736               
E15  25591004.251 7 134480967.574 7       121.701 7        42.231               
E21  27979879.838 6 147324869.967 6     -2072.495 6        38.545               
E27  25630799.120 7 134690135.952 7      -378.632 7        43.577               
E30  28022200.278 6 146880716.291 6      2702.301 6        38.273               
E34  27633589.323 6 145214849.475 6     -2492.377 6        38.537               
> 2025 01 08 17 43 09.0000000  0  6                                             
E13  27999588.173 6 147138246.790 6      2485.389 6        36.418               
E15  25590985.435 7 134480845.836 7       121.560 7        42.437               
E21  27979488.774 6 147326942.033 6     -2069.676 6        38.367               
E27  25630875.009 7 134690514.705 7      -379.762 7        43.335               
E30  28022721.767 6 146878014.200 6      2701.570 6        38.650               
E34  27634066.890 6 145217342.509 6     -2492.586 6        38.412               
> 2025 01 08 17 43 10.0000000  0  6                                             
E13  27999117.431 6 147135763.498 6      2482.648 6        36.800               
E15  25590961.366 7 134480724.406 7       120.512 7        42.199               
E21  27979098.104 6 147329014.053 6     -2070.232 6        38.338               
E27  25630949.362 7 134690893.714 7      -379.488 7        43.311               
E30  28023236.270 6 146875312.000 6      2703.440 6        38.453               
E34  27634542.582 6 145219835.641 6     -2493.525 6        38.843               
> 2025 01 08 17 43 11.0000000  0  6                                             
E13  27998645.242 6 147133280.394 6      2482.959 6        36.656               
E15  25590939.494 7 134480603.348 7       120.767 7        42.251               
E21  27978705.092 6 147331085.973 6     -2071.992 6        38.496               
E27  25631020.981 7 134691273.012 7      -378.919 7        43.728               
E30  28023750.648 6 146872609.650 6      2702.387 6        38.903               
E34  27635022.222 6 145222328.997 6     -2493.617 6        38.988               
> 2025 01 08 17 43 12.0000000  0  6                                             
E13  27998177.074 6 147130797.113 6      2484.034 6        36.617               
E15  25590919.409 6 134480482.341 6       120.899 6        41.934               
E21  27978311.062 6 147333158.111 6     -2072.511 6        38.134               
E27  25631093.887 7 134691652.317 7      -378.860 7        43.447               
E30  28024263.792 6 146869907.460 6      2701.901 6        38.681               
E34  27635493.249 6 145224822.164 6     -2495.207 6        38.844               
> 2025 01 08 17 43 13.0000000  0  6                                             
E13  27997705.403 6 147128314.297 6      2482.890 6        36.655               
E15  25590895.054 6 134480361.979 6       120.325 6        41.715               
E21  27977922.393 6 147335229.821 6     -2070.411 6        38.405               
E27  25631171.617 7 134692032.257 7      -380.610 7        43.363               
E30  28024787.212 6 146867204.784 6      2701.948 6        39.115               
E34  27635970.585 6 145227315.832 6     -2490.904 6        38.588               
> 2025 01 08 17 43 14.0000000  0  6                                             
E13  27997234.376 6 147125831.152 6      2481.398 6        36.992               
E15  25590875.130 6 134480241.514 6       120.302 6        41.651               
E21  27977527.131 6 147337301.926 6     -2071.411 6        38.415               
E27  25631242.825 7 134692411.986 7      -380.037 7        43.490               
E30  28025302.894 6 146864502.438 6      2702.992 6        38.861               
E34  27636446.830 6 145229809.178 6     -2490.238 6        38.704               
> 2025 01 08 17 43 15.0000000  0  6                                             
E13  27996764.134 6 147123349.492 6      2482.575 6        36.429               
E15  25590854.116 6 134480122.734 6       118.232 6        41.401               
E21  27977136.299 6 147339372.583 6     -2069.313 6        38.468               
E27  25631317.303 7 134692793.385 7      -381.656 7        43.441               
E30  28025815.681 6 146861798.600 6      2704.717 6        38.686               
E34  27636925.362 6 145232304.031 6     -2497.364 6        39.136               
> 2025 01 08 17 43 16.0000000  0  6                                             
E13  27996289.676 6 147120867.298 6      2482.639 6        36.783               
E15  25590831.869 6 134480003.646 6       118.640 6        41.197               
E21  27976741.519 6 147341443.826 6     -2071.468 6        38.403               
E27  25631391.638 7 134693174.391 7      -381.155 7        43.491               
E30  28026330.792 6 146859095.297 6      2704.075 6        38.380               
E34  27637398.409 6 145234798.362 6     -2494.055 6        39.060               
> 2025 01 08 17 43 17.0000000  0  6                                             
E13  27995819.417 6 147118385.535 6      2481.791 6        36.524               
E15  25590813.178 6 134479885.161 6       118.663 6        41.185               
E21  27976349.794 6 147343514.726 6     -2069.979 6        38.498               
E27  25631469.512 7 134693555.953 7      -381.777 7        43.237               
E30  28026849.851 6 146856391.597 6      2704.376 6        38.293               
E34  27637876.763 6 145237293.096 6     -2494.088 6        39.294               
> 2025 01 08 17 43 18.0000000  0  6                                             
E13  27995352.124 6 147115904.132 6      2479.565 6        36.613               
E15  25590791.950 6 134479767.231 6       117.720 6        41.225               
E21  27975955.800 6 147345585.320 6     -2071.367 6        38.675               
E27  25631542.292 7 134693938.029 7      -382.198 7        43.558               
E30  28027362.352 6 146853687.534 6      2703.545 6        38.334               
E34  27638355.241 6 145239788.229 6     -2496.820 6        39.397               
> 2025 01 08 17 43 19.0000000  0  6                                             
E13  27994880.614 6 147113422.603 6      2481.148 6        36.427               
E15  25590773.830 6 134479649.398 6       118.442 6        41.067               
E21  27975565.112 6 147347656.103 6     -2073.926 6        38.466               
E27  25631616.038 7 134694320.144 7      -382.824 7        43.360               
E30  28027885.933 6 146850983.565 6      2703.455 6        38.541               
E34  27638829.271 6 145242283.229 6     -2494.381 6        39.521               
> 2025 01 08 17 43 20.0000000  0  6                                             
E13  27994409.319 6 147110941.217 6      2481.785 6        36.699               
E15  25590751.226 6 134479531.910 6       115.885 6        40.982               
E21  27975173.548 6 147349726.761 6     -2071.793 6        38.465               
E27  25631693.357 7 134694702.562 7      -383.199 7        43.355               
E30  28028403.634 6 146848279.447 6      2703.328 6        38.971               
E34  27639308.089 6 145244778.409 6     -2493.400 6        38.938               
> 2025 01 08 17 43 21.0000000  0  6                                             
E13  27993936.576 6 147108460.217 6      2479.135 6        36.506               
E15  25590731.856 6 134479415.046 6       115.429 6        40.884               
E21  27974779.179 6 147351797.074 6     -2068.594 6        38.308               
E27  25631764.940 7 134695085.511 7      -384.794 7        43.266               
E30  28028918.923 6 146845574.954 6      2704.274 6        39.037               
E34  27639786.997 6 145247274.001 6     -2493.357 6        38.885               
> 2025 01 08 17 43 22.0000000  0  6                                             
E13  27993466.710 6 147105979.521 6      2478.481 6        36.443               
E15  25590709.395 6 134479298.671 6       115.094 6        40.837               
E21  27974386.453 6 147353867.148 6     -2070.008 6        38.214               
E27  25631843.832 7 134695468.937 7      -382.581 7        43.256               
E30  28029434.963 6 146842870.143 6      2705.030 6        38.871               
E34  27640261.884 6 145249769.905 6     -2496.793 6        38.932               
> 2025 01 08 17 43 23.0000000  0  6                                             
E13  27992991.233 6 147103499.151 6      2480.283 6        36.511               
E15  25590690.311 6 134479182.816 6       115.546 6        40.542               
E21  27973993.496 6 147355936.935 6     -2068.523 6        38.298               
E27  25631918.167 7 134695852.817 7      -383.936 7        43.122               
E30  28029952.646 6 146840165.000 6      2704.987 6        38.903               
E34  27640737.325 6 145252266.151 6     -2496.795 6        39.000               
> 2025 01 08 17 43 24.0000000  0  6                                             
E13  27992530.355 6 147101019.716 6      2479.151 6        36.746               
E15  25590670.887 6 134479068.085 6       114.984 6        40.316               
E21  27973605.112 6 147358005.871 6     -2069.313 6        38.492               
E27  25631989.947 7 134696237.779 7      -385.260 7        43.080               
E30  28030464.290 6 146837458.941 6      2706.517 6        39.059               
E34  27641213.195 6 145254763.314 6     -2497.529 6        39.045               
> 2025 01 08 17 43 25.0000000  0  6                                             
E13  27992062.580 6 147098540.778 6      2478.695 6        36.849               
E15  25590650.749 6 134478954.054 6       115.748 6        40.388               
E21  27973209.564 6 147360074.371 6     -2067.991 6        38.559               
E27  25632066.677 7 134696623.379 7      -385.002 7        43.319               
E30  28030983.010 6 146834752.382 6      2706.191 6        39.298               
E34  27641693.157 6 145257260.990 6     -2498.128 6        39.229               
> 2025 01 08 17 43 26.0000000  0  6                                             
E13  27991588.443 6 147096060.969 6      2479.335 6        36.450               
E15  25590631.486 6 134478839.375 6       115.684 6        40.223               
E21  27972822.592 6 147362143.764 6     -2068.413 6        38.617               
E27  25632140.994 7 134697008.280 7      -385.651 7        43.123               
E30  28031503.356 6 146832046.685 6      2705.993 6        38.876               
E34  27642176.818 6 145259757.803 6     -2495.796 6        39.173               
> 2025 01 08 17 43 27.0000000  0  6                                             
E13  27991123.009 6 147093582.095 6      2476.596 6        36.873               
E15  25590614.814 6 134478725.819 6       113.363 6        40.027               
E21  27972432.350 6 147364212.316 6     -2069.535 6        38.270               
E27  25632214.882 7 134697394.243 7      -386.285 7        43.303               
E30  28032016.643 6 146829340.100 6      2708.957 6        39.068               
E34  27642648.649 6 145262255.561 6     -2499.568 6        39.264               
> 2025 01 08 17 43 28.0000000  0  6                                             
E13  27990648.283 6 147091103.735 6      2479.101 6        36.713               
E15  25590589.333 6 134478613.004 6       113.838 6        39.937               
E21  27972038.339 6 147366280.375 6     -2066.183 6        38.265               
E27  25632294.739 7 134697780.900 7      -386.195 7        43.396               
E30  28032533.952 6 146826632.957 6      2705.808 6        39.233               
E34  27643125.323 6 145264753.865 6     -2498.822 6        39.288               
> 2025 01 08 17 43 29.0000000  0  6                                             
E13  27990180.758 6 147088624.888 6      2479.548 6        36.821               
E15  25590569.212 6 134478499.909 6       111.858 6        40.129               
E21  27971647.061 6 147368348.956 6     -2069.462 6        38.320               
E27  25632368.234 7 134698167.220 7      -386.671 7        43.393               
E30  28033050.813 6 146823926.283 6      2706.455 6        38.944               
E34  27643600.568 6 145267251.694 6     -2499.254 6        39.435               
> 2025 01 08 17 43 30.0000000  0  6                                             
E13  27989706.764 6 147086146.221 6      2478.752 6        37.152               
E15  25590550.557 6 134478387.175 6       114.686 6        39.855               
E21  27971252.352 6 147370417.444 6     -2067.011 6        38.476               
E27  25632442.998 7 134698553.853 7      -385.951 7        43.526               
E30  28033567.907 6 146821219.448 6      2707.932 6        38.803               
E34  27644075.402 6 145269749.701 6     -2498.086 6        39.298               
> 2025 01 08 17 43 31.0000000  0  6                                             
E13  27989240.025 6 147083667.821 6      2476.425 6        36.820               
E15  25590527.828 6 134478274.899 6       111.914 6        39.573               
E21  27970859.894 6 147372485.728 6     -2066.732 6        38.483               
E27  25632517.619 7 134698940.890 7      -387.435 7        43.351               
E30  28034083.625 6 146818512.374 6      2707.326 6        38.756               
E34  27644553.291 6 145272247.965 6     -2497.819 6        39.286               
> 2025 01 08 17 43 32.0000000  0  6                                             
E13  27988770.105 6 147081189.723 6      2477.080 6        36.842               
E15  25590510.084 6 134478163.183 6       109.976 6        39.707               
E21  27970472.923 6 147374553.719 6     -2068.356 6        38.450               
E27  25632594.599 7 134699328.431 7      -387.886 7        43.302               
E30  28034601.344 6 146815804.918 6      2707.864 6        38.765               
E34  27645031.537 6 145274746.594 6     -2498.736 6        39.200               
> 2025 01 08 17 43 33.0000000  0  6                                             
E13  27988296.809 6 147078711.940 6      2478.156 6        36.826               
E15  25590493.591 6 134478051.962 6       111.506 6        39.484               
E21  27970077.642 6 147376621.472 6     -2068.185 6        38.604               
E27  25632668.791 7 134699716.403 7      -388.872 7        43.154               
E30  28035118.509 6 146813097.225 6      2707.751 6        38.925               
E34  27645507.103 6 145277245.521 6     -2499.461 6        39.792               
> 2025 01 08 17 43 34.0000000  0  6                                             
E13  27987828.193 6 147076234.548 6      2476.729 6        36.736               
E15  25590474.435 6 134477941.342 6       109.963 6        39.303               
E21  27969687.258 6 147378688.860 6     -2066.247 6        38.696               
E27  25632746.093 7 134700104.958 7      -390.255 7        42.949               
E30  28035634.620 6 146810389.049 6      2708.670 6        39.116               
E34  27645987.727 6 145279744.889 6     -2499.597 6        39.760               
> 2025 01 08 17 43 35.0000000  0  6                                             
E13  27987359.221 6 147073757.563 6      2477.398 6        36.810               
E15  25590453.457 6 134477831.306 6       109.732 6        39.011               
E21  27969294.604 6 147380755.935 6     -2065.362 6        38.777               
E27  25632820.982 7 134700494.029 7      -389.712 7        42.926               
E30  28036151.482 6 146807680.546 6      2709.901 6        39.010               
E34  27646467.492 6 145282244.622 6     -2498.365 6        39.645               
> 2025 01 08 17 43 36.0000000  0  6                                             
E13  27986892.500 6 147071280.557 6      2477.714 6        36.950               
E15  25590436.964 6 134477721.453 6       110.544 6        38.744               
E21  27968905.309 6 147382823.069 6     -2065.518 6        38.700               
E27  25632896.800 7 134700883.223 7      -389.449 7        42.900               
E30  28036672.524 6 146804972.045 6      2709.891 6        38.939               
E34  27646945.881 6 145284744.365 6     -2499.567 6        39.432               
> 2025 01 08 17 43 37.0000000  0  6                                             
E13  27986417.005 6 147068803.740 6      2475.238 6        36.793               
E15  25590417.522 6 134477612.016 6       110.410 6        38.777               
E21  27968512.334 6 147384890.052 6     -2067.961 6        38.781               
E27  25632973.065 7 134701272.778 7      -390.318 7        43.280               
E30  28037189.386 6 146802263.365 6      2708.489 6        39.036               
E34  27647424.074 6 145287244.304 6     -2497.964 6        39.480               
> 2025 01 08 17 43 38.0000000  0  6                                             
E13  27985949.087 6 147066327.386 6      2476.636 6        36.868               
E15  25590392.148 6 134477503.222 6       108.392 6        38.606               
E21  27968122.539 6 147386956.646 6     -2064.546 6        38.643               
E27  25633049.008 7 134701662.946 7      -391.095 7        43.355               
E30  28037701.601 6 146799554.208 6      2709.413 6        39.009               
E34  27647897.711 6 145289744.699 6     -2499.236 6        39.515               
> 2025 01 08 17 43 39.0000000  0  6                                             
E13  27985483.313 6 147063851.816 6      2473.750 6        36.608               
E15  25590378.818 6 134477395.434 6       106.287 6        38.495               
E21  27967730.189 6 147389022.515 6     -2064.889 6        38.684               
E27  25633126.703 7 134702054.039 7      -391.899 7        43.295               
E30  28038223.877 6 146796844.278 6      2709.678 6        39.182               
E34  27648378.638 6 145292245.908 6     -2501.128 6        39.265               
> 2025 01 08 17 43 40.0000000  0  6                                             
E13  27985014.877 6 147061376.471 6      2474.875 6        36.584               
E15  25590358.465 6 134477288.070 6       107.307 6        38.157               
E21  27967339.196 6 147391088.201 6     -2066.156 6        38.764               
E27  25633201.181 7 134702445.519 7      -390.985 7        43.448               
E30  28038739.542 6 146794134.113 6      2708.734 6        39.258               
E34  27648853.525 6 145294747.342 6     -2500.535 6        39.246               
> 2025 01 08 17 43 41.0000000  0  6                                             
E13  27984545.064 6 147058900.671 6      2476.984 6        36.453               
E15  25590339.899 6 134477180.455 6       108.820 6        37.851               
E21  27966947.329 6 147393154.400 6     -2065.810 6        38.404               
E27  25633277.035 7 134702836.679 7      -390.413 7        43.324               
E30  28039260.995 6 146791424.383 6      2709.609 6        39.235               
E34  27649332.647 6 145297248.353 6     -2500.270 6        39.510               
> 2025 01 08 17 43 42.0000000  0  6                                             
E13  27984073.644 6 147056424.726 6      2477.025 6        36.716               
E15  25590319.957 6 134477072.908 6       106.251 6        37.902               
E21  27966560.840 6 147395220.782 6     -2066.614 6        38.394               
E27  25633355.087 7 134703227.873 7      -391.748 7        43.344               
E30  28039774.658 6 146788714.832 6      2709.981 6        39.569               
E34  27649806.498 6 145299749.211 6     -2500.176 6        39.651               
> 2025 01 08 17 43 43.0000000  0  6                                             
E13  27983604.153 6 147053949.144 6      2476.525 6        36.408               
