     3.02           OBSERVATION DATA    G                   RINEX VERSION / TYPE
G = GPS  R = GLONASS  E = GALILEO  S = GEO  M = MIXED       COMMENT             
GNSS-SDR            jmfriedt            20250108 184123 UTC PGM / RUN BY / DATE 
GPS OBSERVATION DATA FILE GENERATED BY GNSS-SDR             COMMENT             
GNSS-SDR VERSION 0.0.19.git-main-87fcfd237                  COMMENT             
See https://gnss-sdr.org                                    COMMENT             
DEFAULT MARKER NAME                                         MARKER NAME         
jmfriedt            CTTC                                    OBSERVER / AGENCY   
GNSS-SDR            Software Receiver   0.0.19.gi           REC # / TYPE / VERS 
Antenna number      Antenna type                            ANT # / TYPE        
        0.0000        0.0000        0.0000                  APPROX POSITION XYZ 
        0.0000        0.0000        0.0000                  ANTENNA: DELTA H/E/N
G    4 C1C L1C D1C S1C                                      SYS / # / OBS TYPES 
DBHZ                                                        SIGNAL STRENGTH UNIT
  2025    01    08    17    42   12.1000000     GPS         TIME OF FIRST OBS   
    18    18   137     7                                    LEAP SECONDS        
                                                            END OF HEADER       
> 2025 01 08 17 42 13.0000000  0  4                                             
G23  25148237.881 6 132154839.674 6      2658.365 6        40.340               
G27  24510700.929 6 128804560.459 6      2544.681 6        40.673               
G29  25745624.353 6 135294177.605 6     -3191.693 6        40.148               
G16  22807958.979 7 119858747.646 7     -1173.331 7        42.839               
> 2025 01 08 17 42 14.0000000  0  4                                             
G23  25147732.759 6 132152177.870 6      2662.380 6        40.343               
G27  24510217.715 6 128802014.597 6      2546.904 6        40.579               
G29  25746230.989 6 135297368.994 6     -3188.523 6        40.629               
G16  22807736.528 7 119859918.091 7     -1168.427 7        42.508               
> 2025 01 08 17 42 15.0000000  0  4                                             
G23  25147228.460 6 132149515.520 6      2662.065 6        40.810               
G27  24509727.764 6 128799468.100 6      2542.843 6        40.210               
G29  25746838.821 6 135300559.651 6     -3190.339 6        41.099               
G16  22807517.578 7 119861088.894 7     -1171.989 7        42.916               
> 2025 01 08 17 42 16.0000000  0  4                                             
G23  25146725.858 6 132146853.730 6      2662.088 6        40.940               
G27  24509253.735 6 128796922.064 6      2546.076 6        39.863               
G29  25747455.160 6 135303750.663 6     -3192.527 6        40.435               
G16  22807298.111 7 119862258.904 7     -1171.202 7        42.886               
> 2025 01 08 17 42 17.0000000  0  4                                             
G23  25146216.769 6 132144192.373 6      2661.876 6        40.381               
G27  24508767.930 6 128794376.347 6      2547.147 6        39.784               
G29  25748058.257 6 135306941.911 6     -3186.899 6        39.917               
G16  22807078.358 7 119863428.281 7     -1169.850 7        42.541               
> 2025 01 08 17 42 18.0000000  0  5                                             
G23  25145707.681 6 132141531.557 6      2660.982 6        40.727               
G27  24508289.933 6 128791831.071 6      2544.683 6        40.386               
G29  25748667.073 6 135310133.457 6     -3188.824 6        40.442               
G16  22806851.850 7 119864596.929 7     -1166.296 7        42.676               
G18  23036382.166 7 121056480.045 7      1197.203 7        42.928               
> 2025 01 08 17 42 19.0000000  0  5                                             
G23  25145206.437 6 132138871.310 6      2660.466 6        41.023               
G27  24507799.893 6 128789286.266 6      2543.245 6        40.164               
G29  25749278.854 6 135313325.373 6     -3189.649 6        40.221               
G16  22806633.777 7 119865764.783 7     -1164.886 7        43.039               
G18  23036602.438 7 121055286.731 7      1192.540 7        42.872               
> 2025 01 08 17 42 20.0000000  0  5                                             
G23  25144710.178 6 132136211.505 6      2660.012 6        41.139               
G27  24507324.113 6 128786741.815 6      2543.268 6        40.387               
G29  25749888.277 6 135316517.542 6     -3189.002 6        40.237               
G16  22806412.665 7 119866931.991 7     -1166.394 7        42.433               
G18  23036832.466 7 121054092.756 7      1195.580 7        42.861               
> 2025 01 08 17 42 21.0000000  0  5                                             
G23  25144199.196 6 132133552.526 6      2664.282 6        41.190               
G27  24506839.326 6 128784198.094 6      2543.603 6        40.685               
G29  25750493.501 6 135319710.317 6     -3189.847 6        40.146               
G16  22806194.985 7 119868098.165 7     -1165.583 7        42.772               
G18  23037061.457 7 121052897.726 7      1197.694 7        42.863               
> 2025 01 08 17 42 22.0000000  0  5                                             
G23  25143696.683 6 132130893.872 6      2661.718 6        40.594               
G27  24506359.275 6 128781654.575 6      2544.565 6        41.021               
G29  25751111.448 6 135322903.213 6     -3193.084 6        40.136               
G16  22805973.766 7 119869263.820 7     -1165.707 7        42.247               
G18  23037292.968 7 121051702.159 7      1192.970 7        42.749               
> 2025 01 08 17 42 23.0000000  0  5                                             
G23  25143188.953 6 132128235.555 6      2661.227 6        40.932               
G27  24505872.576 6 128779111.327 6      2541.985 6        40.580               
G29  25751716.797 6 135326096.231 6     -3189.628 6        40.411               
G16  22805756.515 7 119870428.902 7     -1168.037 7        42.229               
G18  23037522.228 7 121050505.995 7      1196.718 7        42.471               
> 2025 01 08 17 42 24.0000000  0  5                                             
G23  25142683.117 6 132125576.013 6      2655.952 6        40.645               
G27  24505397.439 6 128776566.725 6      2545.510 6        40.661               
G29  25752321.270 6 135329287.845 6     -3193.911 6        40.450               
G16  22805530.543 7 119871595.024 7     -1166.343 7        42.389               
G18  23037750.040 7 121049310.860 7      1193.491 7        43.047               
> 2025 01 08 17 42 25.0000000  0  5                                             
G23  25142181.908 6 132122917.320 6      2656.965 6        41.278               
G27  24504917.763 6 128774022.886 6      2537.292 6        40.344               
G29  25752934.481 6 135332480.070 6     -3193.665 6        41.090               
G16  22805309.753 7 119872760.065 7     -1165.909 7        42.639               
G18  23037981.229 7 121048114.646 7      1197.031 7        43.028               
> 2025 01 08 17 42 26.0000000  0  5                                             
G23  25141670.801 6 132120259.366 6      2653.244 6        40.875               
G27  24504428.759 6 128771479.688 6      2544.137 6        40.872               
G29  25753542.493 6 135335672.824 6     -3190.350 6        41.062               
G16  22805094.307 7 119873924.152 7     -1164.534 7        42.613               
G18  23038209.327 7 121046917.474 7      1193.808 7        42.684               
> 2025 01 08 17 42 27.0000000  0  5                                             
G23  25141176.454 6 132117602.092 6      2656.710 6        40.974               
G27  24503945.777 6 128768937.086 6      2538.049 6        40.910               
G29  25754154.935 6 135338866.094 6     -3191.165 6        40.909               
G16  22804870.247 7 119875087.341 7     -1159.768 7        42.258               
G18  23038442.482 7 121045719.390 7      1199.373 7        42.704               
> 2025 01 08 17 42 28.0000000  0  5                                             
G23  25140668.956 6 132114944.468 6      2660.616 6        40.639               
G27  24503465.887 6 128766393.988 6      2544.563 6        40.632               
G29  25754763.268 6 135342058.762 6     -3192.531 6        40.769               
G16  22804655.086 7 119876250.695 7     -1166.168 7        42.288               
G18  23038671.510 7 121044521.432 7      1199.632 7        42.778               
> 2025 01 08 17 42 29.0000000  0  5                                             
G23  25140162.173 6 132112287.065 6      2661.049 6        40.948               
G27  24502982.816 6 128763851.045 6      2547.055 6        41.091               
G29  25755375.497 6 135345251.455 6     -3197.330 6        40.430               
G16  22804432.099 7 119877413.610 7     -1160.002 7        42.376               
G18  23038897.499 7 121043323.038 7      1199.861 7        42.245               
> 2025 01 08 17 42 30.0000000  0  5                                             
G23  25139667.487 6 132109630.683 6      2657.149 6        40.894               
G27  24502503.908 6 128761309.039 6      2539.501 6        41.551               
G29  25755983.633 6 135348444.973 6     -3193.657 6        40.759               
G16  22804218.206 7 119878575.290 7     -1163.535 7        42.144               
G18  23039127.170 7 121042123.392 7      1199.977 7        42.522               
> 2025 01 08 17 42 31.0000000  0  5                                             
G23  25139154.824 6 132106974.622 6      2657.843 6        40.784               
G27  24502018.728 6 128758767.205 6      2544.451 6        40.690               
G29  25756589.107 6 135351638.580 6     -3190.470 6        40.436               
G16  22803995.344 7 119879736.476 7     -1162.866 7        42.034               
G18  23039361.379 7 121040923.217 7      1200.316 7        42.687               
> 2025 01 08 17 42 32.0000000  0  5                                             
G23  25138655.099 6 132104319.039 6      2655.236 6        40.208               
G27  24501533.156 6 128756225.802 6      2541.491 6        40.925               
G29  25757201.246 6 135354832.464 6     -3191.637 6        40.965               
G16  22803779.575 7 119880896.943 7     -1158.752 7        42.197               
G18  23039590.960 7 121039722.323 7      1200.019 7        42.155               
> 2025 01 08 17 42 33.0000000  0  5                                             
G23  25138152.283 6 132101663.924 6      2654.562 6        40.118               
G27  24501049.924 6 128753684.714 6      2538.781 6        41.010               
G29  25757805.738 6 135358026.603 6     -3195.038 6        39.952               
G16  22803562.824 7 119882056.767 7     -1158.638 7        42.698               
G18  23039817.307 7 121038520.761 7      1198.189 7        42.715               
> 2025 01 08 17 42 34.0000000  0  5                                             
G23  25137653.862 6 132099008.873 6      2653.404 6        40.324               
G27  24500580.772 6 128751143.635 6      2541.775 6        41.226               
G29  25758427.365 6 135361220.611 6     -3194.095 6        40.307               
G16  22803343.250 7 119883216.292 7     -1156.331 7        42.748               
G18  23040047.835 7 121037318.885 7      1200.357 7        42.385               
> 2025 01 08 17 42 35.0000000  0  5                                             
G23  25137141.111 6 132096353.956 6      2655.840 6        40.388               
G27  24500095.843 6 128748602.570 6      2544.601 6        41.546               
G29  25759030.427 6 135364414.526 6     -3193.952 6        40.368               
G16  22803123.532 7 119884375.490 7     -1158.640 7        42.167               
G18  23040282.956 7 121036116.674 7      1200.807 7        43.017               
> 2025 01 08 17 42 36.0000000  0  5                                             
G23  25136645.156 6 132093699.420 6      2654.696 6        40.417               
G27  24499621.206 6 128746061.782 6      2542.651 6        41.711               
G29  25759642.888 6 135367608.602 6     -3195.600 6        40.141               
G16  22802900.384 7 119885534.115 7     -1158.509 7        42.295               
G18  23040510.679 7 121034913.857 7      1203.243 7        42.278               
> 2025 01 08 17 42 37.0000000  0  5                                             
G23  25136138.283 6 132091045.416 6      2650.910 6        40.588               
G27  24499135.562 6 128743521.423 6      2536.662 6        41.347               
G29  25760243.376 6 135370803.019 6     -3198.050 6        39.561               
G16  22802687.617 7 119886691.991 7     -1155.818 7        43.034               
G18  23040743.298 7 121033710.301 7      1200.282 7        42.539               
> 2025 01 08 17 42 38.0000000  0  5                                             
G23  25135637.414 6 132088391.673 6      2660.513 6        40.089               
G27  24498651.561 6 128740981.218 6      2540.583 6        41.111               
G29  25760856.552 6 135373997.468 6     -3193.311 6        40.148               
G16  22802469.776 7 119887849.407 7     -1157.938 7        42.927               
G18  23040974.684 7 121032506.245 7      1204.696 7        42.841               
> 2025 01 08 17 42 39.0000000  0  5                                             
G23  25135130.899 6 132085738.264 6      2651.522 6        40.226               
G27  24498167.972 6 128738441.263 6      2542.016 6        40.977               
G29  25761463.991 6 135377192.070 6     -3195.756 6        40.051               
G16  22802248.933 7 119889006.264 7     -1155.083 7        43.392               
G18  23041207.410 7 121031301.627 7      1203.893 7        42.896               
> 2025 01 08 17 42 40.0000000  0  5                                             
G23  25134632.157 6 132083085.335 6      2650.397 6        40.377               
G27  24497681.398 6 128735901.667 6      2539.912 6        41.101               
G29  25762079.204 6 135380386.896 6     -3191.351 6        40.160               
G16  22802027.232 7 119890162.470 7     -1156.047 7        42.931               
G18  23041435.562 7 121030096.323 7      1206.299 7        42.992               
> 2025 01 08 17 42 41.0000000  0  5                                             
G23  25134118.190 6 132080432.708 6      2650.557 6        39.463               
G27  24497208.798 6 128733362.302 6      2540.970 6        40.729               
G29  25762689.342 6 135383581.871 6     -3193.587 6        39.689               
G16  22801813.751 7 119891318.127 7     -1155.347 7        42.898               
G18  23041673.005 7 121028890.482 7      1209.130 7        42.403               
> 2025 01 08 17 42 42.0000000  0  5                                             
G23  25133619.752 6 132077780.361 6      2654.316 6        40.070               
G27  24496722.725 6 128730823.105 6      2543.534 6        40.863               
G29  25763295.352 6 135386776.889 6     -3197.320 6        39.974               
G16  22801596.302 7 119892473.314 7     -1156.441 7        42.966               
G18  23041904.713 7 121027684.126 7      1209.994 7        42.796               
> 2025 01 08 17 42 43.0000000  0  5                                             
G23  25133116.077 6 132075128.411 6      2650.470 6        40.109               
G27  24496239.922 6 128728284.201 6      2537.528 6        40.918               
G29  25763904.310 6 135389972.090 6     -3194.339 6        40.180               
G16  22801378.157 7 119893627.901 7     -1155.940 7        43.647               
G18  23042128.576 7 121026477.160 7      1210.113 7        42.819               
> 2025 01 08 17 42 44.0000000  0  5                                             
G23  25132618.818 6 132072476.986 6      2645.578 6        39.935               
G27  24495755.868 6 128725745.708 6      2540.295 6        40.751               
G29  25764517.432 6 135393167.608 6     -3195.514 6        39.490               
G16  22801161.460 7 119894781.745 7     -1151.697 7        43.100               
G18  23042365.055 7 121025269.472 7      1206.366 7        42.592               
> 2025 01 08 17 42 45.0000000  0  5                                             
G23  25132108.783 6 132069826.327 6      2650.193 6        39.554               
G27  24495282.768 6 128723207.896 6      2538.437 6        40.697               
G29  25765128.088 6 135396363.694 6     -3193.553 6        39.301               
G16  22800942.350 7 119895934.637 7     -1153.114 7        42.905               
G18  23042597.423 7 121024060.775 7      1210.382 7        42.822               
> 2025 01 08 17 42 46.0000000  0  5                                             
G23  25131611.970 6 132067175.963 6      2650.327 6        39.785               
G27  24494794.014 6 128720670.274 6      2540.488 6        41.258               
G29  25765730.739 6 135399559.833 6     -3196.499 6        39.334               
G16  22800720.881 7 119897087.036 7     -1150.752 7        42.661               
G18  23042824.932 7 121022851.593 7      1209.806 7        42.700               
> 2025 01 08 17 42 47.0000000  0  5                                             
G23  25131102.471 6 132064525.690 6      2649.833 6        39.907               
G27  24494315.875 6 128718132.639 6      2536.108 6        41.284               
G29  25766349.614 6 135402755.906 6     -3199.465 6        39.337               
G16  22800507.596 7 119898239.103 7     -1150.211 7        42.819               
G18  23043058.426 7 121021642.081 7      1211.111 7        42.385               
> 2025 01 08 17 42 48.0000000  0  6                                             
G23  25130607.910 6 132061875.851 6      2648.511 6        39.996               
G27  24493837.075 6 128715595.342 6      2538.009 6        41.528               
G29  25766954.570 6 135405952.176 6     -3196.585 6        39.466               
G26  22635114.261 7 118948314.677 7     -1138.622 7        43.784               
G16  22800286.164 7 119899390.537 7     -1152.757 7        43.276               
G18  23043295.352 7 121020431.899 7      1209.753 7        42.595               
> 2025 01 08 17 42 49.0000000  0  6                                             
G23  25130105.147 6 132059226.194 6      2648.644 6        40.105               
G27  24493348.410 6 128713058.120 6      2544.069 6        40.704               
G29  25767563.582 6 135409148.404 6     -3193.756 6        39.042               
G26  22635331.316 7 118949451.942 7     -1137.127 7        43.893               
G16  22800074.576 7 119900541.602 7     -1152.229 7        43.307               
G18  23043527.149 7 121019221.336 7      1213.224 7        42.070               
> 2025 01 08 17 42 50.0000000  0  6                                             
G23  25129604.600 6 132056576.401 6      2650.813 6        40.102               
G27  24492869.199 6 128710520.665 6      2535.451 6        40.738               
G29  25768169.860 6 135412344.290 6     -3195.951 6        39.493               
G26  22635547.710 7 118950589.341 7     -1139.324 7        43.901               
G16  22799855.288 7 119901692.583 7     -1148.552 7        42.720               
G18  23043755.711 7 121018010.696 7      1212.115 7        42.763               
> 2025 01 08 17 42 51.0000000  0  6                                             
G23  25129099.121 6 132053926.611 6      2647.146 6        40.394               
G27  24492395.098 6 128707983.098 6      2541.776 6        40.655               
G29  25768783.590 6 135415539.984 6     -3195.797 6        39.195               
G26  22635769.518 7 118951726.976 7     -1140.203 7        44.207               
G16  22799638.251 7 119902843.380 7     -1150.309 7        42.797               
G18  23043990.081 7 121016799.827 7      1210.402 7        42.379               
> 2025 01 08 17 42 52.0000000  0  6                                             
G23  25128600.432 6 132051277.129 6      2658.533 6        40.082               
G27  24491909.740 6 128705445.774 6      2539.881 6        41.251               
G29  25769385.240 6 135418735.779 6     -3196.219 6        39.406               
G26  22635986.805 7 118952865.209 7     -1140.165 7        44.093               
G16  22799423.536 7 119903993.611 7     -1148.757 7        43.178               
G18  23044214.534 7 121015588.401 7      1208.460 7        42.009               
> 2025 01 08 17 42 53.0000000  0  6                                             
G23  25128094.114 6 132048628.433 6      2648.257 6        40.694               
G27  24491427.848 6 128702909.102 6      2536.071 6        41.254               
G29  25770004.509 6 135421932.134 6     -3199.149 6        39.646               
G26  22636199.947 7 118954004.442 7     -1137.752 7        43.993               
G16  22799199.387 7 119905142.884 7     -1148.429 7        43.223               
G18  23044451.620 6 121014375.995 6      1213.475 6        41.997               
> 2025 01 08 17 42 54.0000000  0  6                                             
G23  25127589.778 6 132045980.570 6      2646.058 6        40.292               
G27  24490948.333 6 128700373.155 6      2539.536 6        40.762               
G29  25770610.662 6 135425129.083 6     -3196.131 6        38.921               
G26  22636423.631 7 118955144.760 7     -1143.600 7        44.134               
G16  22798986.978 7 119906291.127 7     -1148.765 7        42.790               
G18  23044684.829 6 121013162.540 6      1216.316 6        41.814               
> 2025 01 08 17 42 55.0000000  0  6                                             
G23  25127091.215 6 132043333.063 6      2646.505 6        40.682               
G27  24490459.865 6 128697837.467 6      2532.446 6        40.374               
G29  25771217.672 6 135428326.188 6     -3201.980 6        38.978               
G26  22636640.776 7 118956285.687 7     -1141.089 7        44.006               
G16  22798771.067 7 119907438.804 7     -1149.360 7        43.028               
G18  23044917.662 7 121011948.513 7      1215.906 7        42.498               
> 2025 01 08 17 42 56.0000000  0  6                                             
G23  25126591.043 6 132040685.653 6      2645.967 6        40.205               
G27  24489978.813 6 128695301.786 6      2535.616 6        40.770               
G29  25771830.419 6 135431523.200 6     -3194.939 6        39.356               
G26  22636863.531 7 118957426.985 7     -1144.238 7        43.712               
G16  22798550.349 7 119908586.169 7     -1146.117 7        42.341               
G18  23045152.694 7 121010734.157 7      1215.852 7        42.166               
> 2025 01 08 17 42 58.0000000  0  6                                             
G23  25125592.933 6 132035392.078 6      2644.563 6        39.959               
G27  24489017.460 6 128690231.349 6      2530.264 6        40.098               
G29  25773055.144 6 135437917.804 6     -3200.667 6        39.369               
G26  22637294.228 7 118959711.536 7     -1144.198 7        44.155               
G16  22798118.365 7 119910879.045 7     -1150.721 7        42.764               
G18  23045619.683 7 121008303.570 7      1213.355 7        42.443               
> 2025 01 08 17 42 59.0000000  0  6                                             
G23  25125082.647 6 132032745.732 6      2647.550 6        40.656               
G27  24488544.002 6 128687696.422 6      2535.200 6        40.365               
G29  25773675.360 6 135441115.220 6     -3201.462 6        39.050               
G26  22637512.212 7 118960854.632 7     -1138.842 7        44.191               
G16  22797902.418 7 119912024.723 7     -1148.258 7        42.590               
G18  23045853.695 7 121007087.508 7      1213.805 7        42.444               
> 2025 01 08 17 43 00.0000000  0  6                                             
G23  25124584.995 6 132030099.708 6      2648.172 6        40.497               
G27  24488059.358 6 128685161.706 6      2534.140 6        40.188               
G29  25774278.797 6 135444312.736 6     -3201.226 6        39.452               
G26  22637733.770 7 118961998.317 7     -1142.119 7        44.079               
G16  22797691.170 7 119913169.874 7     -1148.800 7        42.870               
G18  23046086.797 7 121005870.890 7      1215.368 7        42.585               
> 2025 01 08 17 43 01.0000000  0  6                                             
G23  25124082.768 6 132027454.209 6      2645.952 6        40.620               
G27  24487578.235 6 128682627.414 6      2535.671 6        40.147               
G29  25774890.436 6 135447510.588 6     -3195.741 6        40.062               
G26  22637960.778 7 118963142.767 7     -1144.033 7        43.496               
G16  22797456.675 7 119914314.297 7     -1143.463 7        42.938               
G18  23046316.628 7 121004653.543 7      1217.536 7        42.974               
> 2025 01 08 17 43 02.0000000  0  6                                             
G23  25123583.668 6 132024808.993 6      2645.214 6        41.068               
G27  24487099.774 6 128680093.302 6      2534.179 6        41.034               
G29  25775500.841 6 135450708.488 6     -3196.611 6        38.825               
G26  22638178.548 7 118964287.735 7     -1145.327 7        43.961               
G16  22797256.149 7 119915458.247 7     -1142.570 7        42.806               
G18  23046554.894 7 121003435.705 7      1218.921 7        42.359               
> 2025 01 08 17 43 03.0000000  0  6                                             
G23  25123074.223 6 132022163.634 6      2646.783 6        40.731               
G27  24486622.296 6 128677558.942 6      2536.797 6        39.975               
G29  25776109.889 6 135453906.032 6     -3197.946 6        39.173               
G26  22638395.156 7 118965432.841 7     -1145.848 7        44.006               
G16  22797041.381 7 119916602.128 7     -1147.119 7        42.545               
G18  23046786.333 7 121002217.769 7      1218.483 7        42.694               
> 2025 01 08 17 43 04.0000000  0  6                                             
G23  25122578.125 6 132019518.596 6      2643.982 6        40.622               
G27  24486137.134 6 128675024.813 6      2533.809 6        40.598               
G29  25776716.596 6 135457103.704 6     -3197.612 6        39.034               
G26  22638617.769 7 118966578.498 7     -1147.446 7        44.346               
G16  22796830.527 7 119917745.483 7     -1142.629 7        42.914               
G18  23047019.881 7 121000999.304 7      1217.878 7        42.519               
> 2025 01 08 17 43 05.0000000  0  6                                             
G23  25122080.508 6 132016873.836 6      2644.204 6        40.605               
G27  24485656.332 6 128672490.856 6      2533.966 6        39.886               
G29  25777330.540 6 135460301.434 6     -3190.494 6        38.965               
G26  22638836.718 7 118967724.670 7     -1146.280 7        44.011               
G16  22796604.448 7 119918888.349 7     -1147.068 7        43.039               
G18  23047253.751 7 120999780.357 7      1215.869 7        42.956               
> 2025 01 08 17 43 06.0000000  0  6                                             
G23  25121578.693 6 132014228.345 6      2643.094 6        40.337               
G27  24485179.729 6 128669956.069 6      2530.068 6        40.169               
G29  25777940.678 6 135463498.233 6     -3197.066 6        38.768               
G26  22639050.574 7 118968870.397 7     -1144.268 7        43.817               
G16  22796393.218 7 119920031.744 7     -1140.278 7        42.157               
G18  23047488.979 7 120998561.903 7      1220.495 7        42.109               
> 2025 01 08 17 43 07.0000000  0  6                                             
G23  25121080.147 6 132011583.725 6      2638.754 6        40.635               
G27  24484697.820 6 128667422.035 6      2539.410 6        39.838               
G29  25778544.812 6 135466695.674 6     -3203.318 6        39.044               
G26  22639273.544 7 118970017.211 7     -1146.617 7        43.824               
G16  22796178.969 7 119921174.064 7     -1136.982 7        42.505               
G18  23047717.488 7 120997342.373 7      1218.652 7        42.680               
> 2025 01 08 17 43 08.0000000  0  6                                             
G23  25120573.631 6 132008939.996 6      2642.782 6        40.852               
G27  24484218.394 6 128664888.804 6      2528.726 6        40.760               
G29  25779158.452 6 135469893.783 6     -3198.042 6        39.840               
G26  22639496.656 7 118971165.198 7     -1147.881 7        43.754               
G16  22795962.432 7 119922315.284 7     -1140.908 7        42.197               
G18  23047953.323 7 120996121.731 7      1219.295 7        42.697               
> 2025 01 08 17 43 09.0000000  0  6                                             
G23  25120073.853 6 132006296.738 6      2642.926 6        40.581               
G27  24483743.364 6 128662355.932 6      2530.092 6        40.531               
G29  25779776.827 6 135473092.161 6     -3199.802 6        39.587               
G26  22639712.639 7 118972313.871 7     -1149.679 7        44.238               
G16  22795743.804 7 119923455.848 7     -1141.030 7        42.206               
G18  23048190.517 7 120994900.409 7      1219.082 7        42.616               
> 2025 01 08 17 43 10.0000000  0  6                                             
G23  25119575.289 6 132003653.683 6      2642.304 6        40.187               
G27  24483260.436 6 128659823.177 6      2529.919 6        40.697               
G29  25780373.295 6 135476290.521 6     -3196.321 6        39.394               
G26  22639934.698 7 118973463.021 7     -1150.652 7        44.012               
G16  22795533.325 7 119924595.971 7     -1137.660 7        42.636               
G18  23048425.048 7 120993678.657 7      1224.753 7        42.485               
> 2025 01 08 17 43 11.0000000  0  6                                             
G23  25119069.757 6 132001010.903 6      2643.018 6        41.421               
G27  24482771.164 6 128657290.570 6      2530.441 6        40.553               
G29  25780989.669 6 135479488.948 6     -3198.947 6        39.539               
G26  22640158.257 7 118974612.689 7     -1151.304 7        43.920               
G16  22795314.465 7 119925735.624 7     -1138.997 7        42.838               
G18  23048655.433 7 120992456.424 7      1224.358 7        42.237               
> 2025 01 08 17 43 12.0000000  0  6                                             
G23  25118570.014 6 131998368.077 6      2643.411 6        41.268               
G27  24482293.221 6 128654757.830 6      2532.030 6        40.908               
G29  25781603.917 6 135482687.113 6     -3196.017 6        38.614               
G26  22640373.239 7 118975762.555 7     -1148.350 7        43.965               
G16  22795101.109 7 119926875.116 7     -1144.783 7        42.894               
G18  23048888.409 7 120991233.998 7      1223.591 7        42.331               
> 2025 01 08 17 43 13.0000000  0  6                                             
G23  25118068.752 6 131995725.835 6      2643.800 6        40.539               
G27  24481821.568 6 128652225.584 6      2533.175 6        40.774               
G29  25782213.662 6 135485885.631 6     -3199.097 6        38.970               
G26  22640601.981 7 118976913.253 7     -1149.964 7        43.952               
G16  22794886.270 7 119928013.823 7     -1136.947 7        43.220               
G18  23049123.834 7 120990010.807 7      1223.059 7        42.400               
> 2025 01 08 17 43 14.0000000  0  6                                             
G23  25117572.279 6 131993083.363 6      2643.343 6        40.525               
G27  24481339.659 6 128649692.970 6      2531.253 6        40.151               
G29  25782823.853 6 135489083.727 6     -3201.183 6        39.010               
G26  22640820.161 7 118978063.987 7     -1154.158 7        43.961               
G16  22794671.538 7 119929152.544 7     -1137.367 7        43.233               
G18  23049362.564 7 120988787.611 7      1227.011 7        42.237               
> 2025 01 08 17 43 15.0000000  0  6                                             
G23  25117063.655 6 131990442.507 6      2642.245 6        40.415               
G27  24480859.393 6 128647161.891 6      2530.401 6        40.721               
G29  25783436.046 6 135492283.217 6     -3202.647 6        39.472               
G26  22641040.129 7 118979216.563 7     -1152.889 7        44.053               
G16  22794453.786 7 119930289.462 7     -1139.292 7        43.215               
G18  23049593.003 7 120987562.581 7      1225.063 7        42.610               
> 2025 01 08 17 43 16.0000000  0  6                                             
G23  25116564.502 6 131987801.247 6      2642.519 6        40.157               
G27  24480374.660 6 128644630.269 6      2530.219 6        41.081               
G29  25784038.804 6 135495482.073 6     -3198.532 6        39.170               
G26  22641260.883 7 118980368.987 7     -1151.225 7        43.948               
G16  22794244.289 7 119931426.579 7     -1137.262 7        43.004               
G18  23049831.340 7 120986337.766 7      1225.275 7        42.295               
> 2025 01 08 17 43 17.0000000  0  6                                             
G23  25116056.968 6 131985160.480 6      2644.357 6        40.679               
G27  24479897.932 6 128642099.078 6      2536.190 6        41.153               
G29  25784653.158 6 135498681.201 6     -3200.051 6        39.120               
G26  22641480.726 7 118981522.170 7     -1155.264 7        43.423               
G16  22794026.377 7 119932562.994 7     -1136.607 7        42.706               
G18  23050066.746 7 120985112.219 7      1224.082 7        42.359               
> 2025 01 08 17 43 18.0000000  0  6                                             
G23  25115556.760 6 131982520.173 6      2638.650 6        40.804               
G27  24479421.705 6 128639568.251 6      2530.834 6        40.670               
G29  25785271.212 6 135501880.614 6     -3200.590 6        38.996               
G26  22641703.695 7 118982676.069 7     -1154.364 7        43.585               
G16  22793817.399 7 119933698.716 7     -1133.815 7        42.642               
G18  23050299.151 7 120983885.962 7      1228.028 7        42.562               
> 2025 01 08 17 43 19.0000000  0  6                                             
G23  25115058.429 6 131979879.896 6      2637.728 6        40.099               
G27  24478935.971 6 128637037.332 6      2529.009 6        41.464               
G29  25785872.755 6 135505079.803 6     -3200.582 6        38.909               
G26  22641923.216 7 118983830.219 7     -1154.059 7        43.628               
G16  22793601.648 7 119934834.242 7     -1134.878 7        42.833               
G18  23050536.416 7 120982659.518 7      1226.219 7        42.360               
> 2025 01 08 17 43 20.0000000  0  6                                             
G23  25114560.955 6 131977239.882 6      2636.950 6        40.133               
G27  24478457.367 6 128634506.544 6      2530.847 6        41.159               
G29  25786481.052 6 135508279.040 6     -3198.772 6        39.348               
G26  22642148.009 7 118984984.881 7     -1151.858 7        43.977               
G16  22793388.488 7 119935969.287 7     -1131.968 7        43.219               
G18  23050774.217 7 120981432.573 7      1224.930 7        42.288               
> 2025 01 08 17 43 21.0000000  0  6                                             
G23  25114052.903 6 131974600.370 6      2638.012 6        40.599               
G27  24477983.570 6 128631976.193 6      2529.964 6        40.892               
G29  25787095.729 6 135511478.584 6     -3201.034 6        39.317               
G26  22642370.728 7 118986140.307 7     -1157.786 7        44.167               
G16  22793170.504 7 119937103.623 7     -1134.935 7        42.832               
G18  23051005.174 7 120980204.915 7      1227.746 7        42.695               
> 2025 01 08 17 43 22.0000000  0  6                                             
G23  25113561.559 6 131971961.261 6      2640.676 6        40.117               
G27  24477499.230 6 128629446.156 6      2528.448 6        40.883               
G29  25787713.050 6 135514678.307 6     -3201.661 6        38.962               
G26  22642591.357 7 118987296.388 7     -1157.723 7        43.837               
G16  22792962.098 7 119938237.342 7     -1135.143 7        42.393               
G18  23051240.402 7 120978976.612 7      1229.629 7        42.051               
> 2025 01 08 17 43 23.0000000  0  6                                             
G23  25113055.562 6 131969322.598 6      2641.253 6        40.714               
G27  24477017.285 6 128626916.408 6      2527.914 6        40.665               
G29  25788321.186 6 135517878.258 6     -3197.380 6        39.389               
G26  22642816.096 7 118988453.154 7     -1156.210 7        43.608               
G16  22792748.313 7 119939370.421 7     -1134.260 7        42.853               
G18  23051479.847 7 120977747.689 7      1230.630 7        42.437               
> 2025 01 08 17 43 24.0000000  0  6                                             
G23  25112553.889 6 131966684.982 6      2635.506 6        40.246               
G27  24476541.469 6 128624387.624 6      2528.605 6        40.750               
G29  25788930.073 6 135521079.037 6     -3200.348 6        39.481               
G26  22643036.742 7 118989611.215 7     -1160.735 7        44.065               
G16  22792539.781 7 119940502.260 7     -1132.080 7        43.077               
G18  23051712.787 7 120976517.502 7      1230.741 7        42.964               
> 2025 01 08 17 43 25.0000000  0  6                                             
G23  25112055.522 6 131964047.956 6      2633.900 6        40.376               
G27  24476063.687 6 128621859.322 6      2529.584 6        40.784               
G29  25789539.407 6 135524280.184 6     -3204.950 6        39.301               
G26  22643258.693 7 118990770.099 7     -1156.511 7        43.975               
G16  22792317.955 7 119941633.287 7     -1133.117 7        42.327               
G18  23051948.408 7 120975286.492 7      1233.031 7        42.924               
> 2025 01 08 17 43 26.0000000  0  6                                             
G23  25111555.261 6 131961410.195 6      2636.012 6        40.777               
G27  24475585.655 6 128619330.198 6      2528.518 6        40.641               
G29  25790156.764 6 135527480.387 6     -3203.959 6        38.850               
G26  22643480.645 7 118991928.521 7     -1160.098 7        43.685               
G16  22792108.352 7 119942764.843 7     -1130.367 7        42.835               
G18  23052185.494 7 120974056.002 7      1232.933 7        42.585               
> 2025 01 08 17 43 27.0000000  0  6                                             
G23  25111058.627 6 131958773.453 6      2637.309 6        40.349               
G27  24475101.011 6 128616801.973 6      2530.396 6        41.058               
G29  25790763.078 6 135530681.401 6     -3206.428 6        39.566               
G26  22643698.629 7 118993088.193 7     -1159.599 7        43.519               
G16  22791895.228 7 119943895.192 7     -1129.940 7        42.823               
G18  23052422.080 7 120972824.304 7      1231.662 7        42.722               
> 2025 01 08 17 43 28.0000000  0  6                                             
G23  25110559.795 6 131956137.375 6      2634.384 6        40.649               
G27  24474618.243 6 128614274.316 6      2525.408 6        41.093               
G29  25791378.934 6 135533882.819 6     -3199.455 6        39.324               
G26  22643924.886 7 118994248.786 7     -1159.342 7        43.950               
G16  22791679.245 7 119945024.669 7     -1130.359 7        43.132               
G18  23052658.827 7 120971591.718 7      1233.005 7        42.442               
> 2025 01 08 17 43 29.0000000  0  6                                             
G23  25110056.889 6 131953500.923 6      2635.168 6        40.115               
G27  24474141.837 6 128611746.174 6      2524.769 6        41.300               
G29  25791986.927 6 135537083.686 6     -3203.343 6        39.869               
G26  22644148.160 7 118995409.255 7     -1160.589 7        43.934               
G16  22791467.265 7 119946154.296 7     -1128.481 7        43.172               
G18  23052898.879 7 120970359.271 7      1235.669 7        42.004               
> 2025 01 08 17 43 30.0000000  0  6                                             
G23  25109558.612 6 131950864.752 6      2635.656 6        40.800               
G27  24473661.411 6 128609218.222 6      2526.066 6        40.903               
G29  25792600.120 6 135540284.596 6     -3202.060 6        39.419               
G26  22644370.164 7 118996570.228 7     -1162.618 7        43.816               
G16  22791254.981 7 119947283.469 7     -1124.779 7        42.739               
G18  23053132.356 7 120969126.363 7      1235.431 7        42.313               
> 2025 01 08 17 43 31.0000000  0  6                                             
G23  25109056.921 6 131948228.936 6      2634.787 6        40.667               
G27  24473175.731 6 128606690.497 6      2525.960 6        40.354               
G29  25793206.774 6 135543485.654 6     -3200.227 6        39.268               
G26  22644593.259 7 118997731.826 7     -1163.225 7        43.859               
G16  22791042.500 7 119948412.065 7     -1128.373 7        42.550               
G18  23053363.706 7 120967892.857 7      1233.071 7        42.714               
> 2025 01 08 17 43 32.0000000  0  6                                             
G23  25108556.303 6 131945593.604 6      2636.099 6        40.269               
G27  24472708.045 6 128604163.161 6      2518.795 6        40.289               
G29  25793812.462 6 135546686.978 6     -3206.235 6        39.216               
G26  22644813.656 7 118998894.143 7     -1164.210 7        43.808               
G16  22790823.533 7 119949540.002 7     -1125.736 7        43.118               
G18  23053605.117 7 120966658.684 7      1233.999 7        42.670               
> 2025 01 08 17 43 33.0000000  0  6                                             
G23  25108059.704 6 131942958.659 6      2635.537 6        40.304               
G27  24472228.190 6 128601636.102 6      2531.641 6        40.724               
G29  25794429.962 6 135549888.461 6     -3202.841 6        39.666               
G26  22645037.769 7 119000057.084 7     -1162.532 7        44.349               
G16  22790616.002 7 119950667.336 7     -1126.992 7        42.703               
G18  23053842.131 7 120965423.909 7      1236.882 7        42.633               
> 2025 01 08 17 43 34.0000000  0  6                                             
G23  25107564.786 6 131940324.254 6      2636.232 6        40.785               
G27  24471743.672 6 128599109.498 6      2522.257 6        40.416               
G29  25795037.759 6 135553090.275 6     -3203.609 6        39.104               
G26  22645261.168 7 119001220.839 7     -1165.505 7        44.289               
G16  22790400.591 7 119951793.912 7     -1126.425 7        42.512               
G18  23054076.877 7 120964188.355 7      1237.306 7        42.267               
> 2025 01 08 17 43 35.0000000  0  6                                             
G23  25107057.824 6 131937690.331 6      2634.893 6        40.672               
G27  24471262.477 6 128596583.250 6      2528.631 6        40.199               
G29  25795651.542 6 135556292.340 6     -3198.442 6        39.289               
G26  22645485.281 7 119002385.299 7     -1163.746 7        44.173               
G16  22790189.308 7 119952919.823 7     -1127.421 7        42.561               
G18  23054315.178 7 120962952.142 7      1237.441 7        42.647               
> 2025 01 08 17 43 36.0000000  0  6                                             
G23  25106556.151 6 131935056.496 6      2629.431 6        39.821               
G27  24470788.340 6 128594056.987 6      2527.921 6        39.761               
G29  25796261.716 6 135559494.314 6     -3203.712 6        39.699               
G26  22645709.805 7 119003550.113 7     -1166.555 7        43.589               
G16  22789976.935 7 119954045.415 7     -1123.671 7        42.828               
G18  23054556.213 7 120961715.585 7      1235.573 7        42.719               
> 2025 01 08 17 43 37.0000000  0  6                                             
G23  25106056.927 6 131932422.981 6      2637.114 6        40.826               
G27  24470308.664 6 128591530.965 6      2525.426 6        40.020               
G29  25796867.136 6 135562696.360 6     -3206.079 6        39.652               
G26  22645935.062 7 119004715.491 7     -1165.219 7        43.438               
G16  22789765.741 7 119955170.492 7     -1122.879 7        42.921               
G18  23054791.709 7 120960478.527 7      1236.235 7        42.570               
> 2025 01 08 17 43 38.0000000  0  6                                             
G23  25105560.990 6 131929790.046 6      2631.946 6        40.858               
G27  24469827.898 6 128589005.397 6      2531.242 6        40.601               
G29  25797482.563 6 135565898.775 6     -3200.077 6        39.347               
G26  22646156.066 7 119005881.685 7     -1165.909 7        43.796               
G16  22789554.243 7 119956294.785 7     -1121.498 7        42.859               
G18  23055028.295 7 120959240.677 7      1238.654 7        43.220               
> 2025 01 08 17 43 39.0000000  0  6                                             
G23  25105066.482 6 131927157.987 6      2627.910 6        40.582               
G27  24469347.811 6 128586480.594 6      2526.380 6        40.456               
G29  25798093.433 6 135569101.849 6     -3201.222 6        39.778               
G26  22646382.288 7 119007049.009 7     -1167.368 7        44.031               
G16  22789339.957 7 119957417.992 7     -1125.277 7        43.180               
G18  23055266.596 7 120958001.716 7      1238.348 7        42.800               
> 2025 01 08 17 43 40.0000000  0  6                                             
G23  25104565.757 6 131924526.308 6      2626.181 6        40.440               
G27  24468873.603 6 128583956.069 6      2524.548 6        40.664               
G29  25798704.447 6 135572305.069 6     -3198.998 6        39.546               
G26  22646600.987 7 119008216.932 7     -1169.799 7        43.633               
G16  22789127.620 7 119958540.632 7     -1124.912 7        42.297               
G18  23055502.843 7 120956762.197 7      1240.811 7        42.581               
> 2025 01 08 17 43 41.0000000  0  6                                             
G23  25104067.139 6 131921894.269 6      2631.898 6        40.705               
G27  24468396.607 6 128581431.078 6      2525.880 6        40.334               
G29  25799316.639 6 135575507.716 6     -3203.828 6        39.949               
G26  22646826.351 7 119009384.751 7     -1166.275 7        44.100               
G16  22788914.299 7 119959663.433 7     -1124.543 7        42.674               
G18  23055741.627 7 120955522.824 7      1237.075 7        42.832               
> 2025 01 08 17 43 42.0000000  0  6                                             
G23  25103570.023 6 131919262.216 6      2630.048 6        40.743               
G27  24467920.862 6 128578905.949 6      2528.006 6        40.795               
G29  25799923.650 6 135578710.138 6     -3205.460 6        39.764               
G26  22647050.214 7 119010552.795 7     -1167.843 7        43.852               
G16  22788703.856 7 119960786.048 7     -1122.265 7        43.155               
G18  23055978.891 7 120954283.255 7      1241.044 7        42.699               
> 2025 01 08 17 43 43.0000000  0  6                                             
G23  25103068.386 6 131916630.630 6      2628.343 6        40.413               
G27  24467444.688 6 128576381.225 6      2521.162 6        40.891               
G29  25800544.634 6 135581912.818 6     -3205.490 6        39.435               
G26  22647276.043 7 119011721.577 7     -1166.962 7        43.458               
G16  22788494.663 7 119961907.957 7     -1123.050 7        42.527               
G18  23056219.105 7 120953042.985 7      1240.977 7        42.504               
> 2025 01 08 17 43 44.0000000  0  6                                             
G23  25102567.982 6 131913999.347 6      2628.625 6        40.809               
G27  24466958.955 6 128573856.669 6      2522.901 6        40.751               
G29  25801152.056 6 135585115.568 6     -3201.407 6        39.928               
G26  22647500.371 7 119012890.900 7     -1171.556 7        43.911               
G16  22788282.629 7 119963029.385 7     -1119.536 7        43.017               
G18  23056455.744 7 120951802.200 7      1239.619 7        42.762               
> 2025 01 08 17 43 46.0000000  0  6                                             
G23  25101565.297 6 131908737.444 6      2631.956 6        40.494               
G27  24466001.425 6 128568807.921 6      2520.297 6        40.597               
G29  25802371.599 6 135591521.106 6     -3204.703 6        39.010               
G26  22647950.170 7 119015230.958 7     -1171.176 7        43.901               
G16  22787858.079 7 119965270.933 7     -1122.047 7        43.655               
G18  23056928.916 7 120949319.347 7      1240.201 7        42.850               
> 2025 01 08 17 43 47.0000000  0  6                                             
G23  25101063.982 6 131906106.977 6      2624.232 6        40.573               
G27  24465523.518 6 128566283.859 6      2523.495 6        40.883               
G29  25802983.452 6 135594723.999 6     -3202.507 6        39.623               
G26  22648171.388 7 119016401.809 7     -1172.162 7        43.643               
G16  22787646.546 7 119966390.940 7     -1122.142 7        43.086               
G18  23057168.450 7 120948077.141 7      1240.724 7        42.756               
> 2025 01 08 17 43 48.0000000  0  6                                             
G23  25100574.943 6 131903476.978 6      2630.155 6        40.014               
G27  24465038.249 6 128563760.170 6      2524.622 6        41.038               
G29  25803598.826 6 135597927.179 6     -3199.795 6        39.423               
G26  22648398.646 7 119017573.395 7     -1172.521 7        43.528               
G16  22787437.925 7 119967510.255 7     -1119.702 7        42.912               
G18  23057404.393 7 120946834.245 7      1240.775 7        42.787               
> 2025 01 08 17 43 49.0000000  0  6                                             
G23  25100076.593 6 131900847.478 6      2630.099 6        39.571               
G27  24464562.219 6 128561236.888 6      2523.190 6        40.439               
G29  25804204.300 6 135601130.617 6     -3203.992 6        39.633               
G26  22648625.065 7 119018745.725 7     -1170.898 7        43.691               
G16  22787224.980 7 119968628.863 7     -1118.762 7        43.253               
G18  23057644.910 7 120945590.611 7      1247.718 7        42.566               
> 2025 01 08 17 43 50.0000000  0  6                                             
G23  25099572.848 6 131898218.570 6      2631.453 6        40.054               
G27  24464092.674 6 128558714.057 6      2523.391 6        40.472               
G29  25804811.543 6 135604334.412 6     -3205.030 6        39.391               
G26  22648849.267 7 119019918.877 7     -1172.062 7        43.677               
G16  22787015.037 7 119969746.696 7     -1118.635 7        42.873               
G18  23057885.212 7 120944346.236 7      1242.715 7        42.151               
> 2025 01 08 17 43 51.0000000  0  6                                             
G23  25099074.624 6 131895590.196 6      2623.553 6        40.509               
G27  24463614.535 6 128556191.695 6      2523.719 6        40.744               
G29  25805432.974 6 135607538.558 6     -3204.915 6        39.587               
G26  22649072.005 7 119021092.818 7     -1175.688 7        43.815               
G16  22786804.147 7 119970863.782 7     -1117.192 7        43.627               
G18  23058116.598 7 120943101.054 7      1247.138 7        42.677               
> 2025 01 08 17 43 52.0000000  0  6                                             
G23  25098575.220 6 131892962.271 6      2623.987 6        40.060               
G27  24463134.412 6 128553669.658 6      2521.622 6        41.277               
G29  25806036.375 6 135610742.883 6     -3199.814 6        39.338               
G26  22649301.336 7 119022267.441 7     -1174.899 7        43.689               
G16  22786591.666 7 119971980.218 7     -1114.187 7        43.112               
G18  23058357.526 6 120941855.261 6      1247.494 6        41.925               
> 2025 01 08 17 43 53.0000000  0  6                                             
G23  25098080.838 6 131890334.579 6      2629.850 6        39.865               
G27  24462654.933 6 128551147.765 6      2519.137 6        41.163               
G29  25806657.038 6 135613947.281 6     -3206.376 6        40.000               
G26  22649521.446 7 119023442.576 7     -1175.085 7        43.839               
G16  22786381.955 7 119973096.193 7     -1118.979 7        43.431               
G18  23058598.437 7 120940608.982 7      1248.557 7        42.393               
> 2025 01 08 17 43 54.0000000  0  6                                             
G23  25097581.363 6 131887707.019 6      2624.116 6        40.317               
G27  24462184.388 6 128548625.837 6      2524.118 6        40.635               
G29  25807260.117 6 135617151.544 6     -3206.707 6        39.453               
G26  22649749.955 7 119024618.050 7     -1177.043 7        43.855               
G16  22786169.117 7 119974211.864 7     -1116.551 7        43.408               
G18  23058839.883 7 120939362.405 7      1246.211 7        42.502               
> 2025 01 08 17 43 55.0000000  0  6                                             
G23  25097088.821 6 131885079.021 6      2624.677 6        40.178               
G27  24461698.064 6 128546103.430 6      2524.906 6        40.413               
G29  25807873.168 6 135620355.171 6     -3200.354 6        39.388               
G26  22649975.320 7 119025793.329 7     -1176.152 7        43.604               
G16  22785961.461 7 119975327.760 7     -1114.232 7        43.104               
G18  23059083.581 7 120938116.032 7      1245.386 7        43.081               
> 2025 01 08 17 43 56.0000000  0  6                                             
G23  25096587.899 6 131882451.965 6      2626.081 6        39.946               
G27  24461226.143 6 128543581.821 6      2519.617 6        41.227               
G29  25808483.984 6 135623559.505 6     -3206.115 6        38.981               
G26  22650197.985 7 119026969.825 7     -1179.487 7        44.127               
G16  22785752.090 7 119976442.495 7     -1113.995 7        42.925               
G18  23059315.395 7 120936868.511 7      1246.057 7        43.055               
> 2025 01 08 17 43 57.0000000  0  6                                             
G23  25096086.298 6 131879826.066 6      2622.414 6        40.399               
G27  24460745.288 6 128541061.278 6      2523.564 6        40.991               
G29  25809091.549 6 135626764.769 6     -3203.940 6        39.188               
G26  22650427.906 7 119028147.687 7     -1173.958 7        43.891               
G16  22785537.501 7 119977555.881 7     -1115.349 7        43.158               
G18  23059559.844 7 120935619.639 7      1247.678 7        42.613               
> 2025 01 08 17 43 58.0000000  0  6                                             
G23  25095586.858 6 131877199.581 6      2627.976 6        40.442               
G27  24460258.661 6 128538540.048 6      2517.597 6        40.874               
G29  25809703.706 6 135629969.245 6     -3203.693 6        39.273               
G26  22650652.448 7 119029325.233 7     -1175.341 7        43.651               
G16  22785329.630 7 119978669.639 7     -1117.750 7        43.004               
G18  23059798.824 7 120934371.130 7      1248.732 7        42.368               
> 2025 01 08 17 43 59.0000000  0  6                                             
G23  25095096.211 6 131874573.477 6      2631.692 6        39.928               
G27  24459778.931 6 128536019.067 6      2516.127 6        41.328               
G29  25810320.545 6 135633173.875 6     -3207.471 6        38.642               
G26  22650877.348 7 119030503.394 7     -1175.289 7        43.490               
G16  22785117.329 7 119979782.834 7     -1110.943 7        43.121               
G18  23060034.802 7 120933122.039 7      1253.470 7        43.322               
> 2025 01 08 17 44 00.0000000  0  6                                             
G23  25094601.543 6 131871948.252 6      2624.242 6        39.699               
G27  24459310.691 6 128533498.882 6      2524.845 6        41.158               
G29  25810933.113 6 135636379.173 6     -3202.935 6        38.707               
G26  22651103.034 7 119031682.675 7     -1182.639 7        43.633               
G16  22784904.026 7 119980894.921 7     -1113.407 7        42.815               
G18  23060272.442 7 120931871.869 7      1247.320 7        42.387               
> 2025 01 08 17 44 01.0000000  0  6                                             
G23  25094104.462 6 131869321.737 6      2624.437 6        39.708               
G27  24458834.535 6 128530977.266 6      2522.388 6        41.234               
G29  25811551.720 6 135639582.899 6     -3207.674 6        39.152               
G26  22651329.970 7 119032860.893 7     -1181.728 7        43.408               
G16  22784700.069 7 119982008.118 7     -1111.114 7        43.506               
G18  23060513.906 7 120930622.771 7      1251.032 7        42.937               
> 2025 01 08 17 44 02.0000000  0  6                                             
G23  25093598.769 6 131866696.885 6      2621.216 6        39.952               
G27  24458353.358 6 128528457.242 6      2520.584 6        40.740               
G29  25812152.209 6 135642788.111 6     -3208.064 6        38.642               
G26  22651560.373 7 119034041.032 7     -1180.503 7        43.510               
G16  22784488.303 7 119983119.447 7     -1110.016 7        43.337               
G18  23060753.048 7 120929371.802 7      1252.754 7        42.866               
> 2025 01 08 17 44 03.0000000  0  6                                             
G23  25093100.527 6 131864071.410 6      2624.719 6        40.044               
G27  24457878.364 6 128525936.476 6      2522.903 6        41.221               
G29  25812758.255 6 135645992.489 6     -3204.862 6        38.664               
G26  22651783.182 7 119035220.801 7     -1178.775 7        43.217               
G16  22784285.847 7 119984231.179 7     -1111.104 7        43.058               
G18  23060996.406 7 120928121.244 7      1248.392 7        42.673               
