     3.02           OBSERVATION DATA    G                   RINEX VERSION / TYPE
G = GPS  R = GLONASS  E = GALILEO  S = GEO  M = MIXED       COMMENT             
GNSS-SDR            jmfriedt            20250108 185031 UTC PGM / RUN BY / DATE 
GPS OBSERVATION DATA FILE GENERATED BY GNSS-SDR             COMMENT             
GNSS-SDR VERSION 0.0.19.git-main-87fcfd237                  COMMENT             
See https://gnss-sdr.org                                    COMMENT             
DEFAULT MARKER NAME                                         MARKER NAME         
jmfriedt            CTTC                                    OBSERVER / AGENCY   
GNSS-SDR            Software Receiver   0.0.19.gi           REC # / TYPE / VERS 
Antenna number      Antenna type                            ANT # / TYPE        
        0.0000        0.0000        0.0000                  APPROX POSITION XYZ 
        0.0000        0.0000        0.0000                  ANTENNA: DELTA H/E/N
G    4 C1C L1C D1C S1C                                      SYS / # / OBS TYPES 
DBHZ                                                        SIGNAL STRENGTH UNIT
  2025    01    08    17    42   48.1200000     GPS         TIME OF FIRST OBS   
    18    18   137     7                                    LEAP SECONDS        
                                                            END OF HEADER       
> 2025 01 08 17 42 49.0000000  0  4                                             
G26  22635335.301 7 118947487.790 7      1135.331 7        43.954               
G18  23043532.438 6 121094557.440 6     -1211.877 6        41.963               
G16  22800078.365 7 119817231.084 7     -1153.443 7        42.787               
G29  25767563.439 6 135409494.919 6     -3192.981 6        38.820               
> 2025 01 08 17 42 50.0000000  0  4                                             
G26  22635554.250 7 118946350.612 7      1138.343 7        43.482               
G18  23043759.392 7 121095768.304 7     -1213.743 7        42.484               
G16  22799858.879 7 119818382.058 7     -1148.990 7        42.314               
G29  25768177.991 6 135412690.822 6     -3194.632 6        39.065               
> 2025 01 08 17 42 51.0000000  0  4                                             
G26  22635773.985 7 118945213.195 7      1138.320 7        43.817               
G18  23043994.424 7 121096979.409 7     -1209.604 7        42.188               
G16  22799647.149 7 119819532.846 7     -1150.354 7        42.654               
G29  25768789.790 6 135415886.514 6     -3196.132 6        38.935               
> 2025 01 08 17 42 52.0000000  0  4                                             
G26  22635990.433 7 118944075.192 7      1138.739 7        43.608               
G18  23044222.039 6 121098191.046 6     -1208.571 6        41.636               
G16  22799428.433 7 119820683.089 7     -1148.911 7        42.945               
G29  25769394.871 6 135419082.304 6     -3194.182 6        39.134               
> 2025 01 08 17 42 53.0000000  0  4                                             
G26  22636206.398 7 118942936.178 7      1137.077 7        43.728               
G18  23044456.338 6 121099403.681 6     -1213.609 6        41.838               
G16  22799203.479 7 119821832.357 7     -1148.835 7        43.001               
G29  25770008.619 6 135422278.653 6     -3200.692 6        39.005               
> 2025 01 08 17 42 54.0000000  0  4                                             
G26  22636429.510 7 118941796.076 7      1143.695 7        43.811               
G18  23044688.153 6 121100617.353 6     -1216.202 6        41.584               
G16  22798992.035 7 119822980.597 7     -1149.350 7        42.702               
G29  25770622.741 6 135425475.616 6     -3197.975 6        38.666               
> 2025 01 08 17 42 55.0000000  0  4                                             
G26  22636646.422 7 118940655.367 7      1142.226 7        43.592               
G18  23044924.274 7 121101831.608 7     -1214.649 7        42.051               
G16  22798779.680 7 119824128.275 7     -1149.768 7        42.677               
G29  25771220.335 6 135428672.718 6     -3202.298 6        38.751               
> 2025 01 08 17 42 56.0000000  0  4                                             
G26  22636867.033 7 118939514.313 7      1144.682 7        43.840               
G18  23045157.447 6 121103046.168 6     -1214.550 6        41.850               
G16  22798558.175 7 119825275.653 7     -1146.525 7        42.094               
G29  25771832.742 6 135431869.720 6     -3194.075 6        39.067               
> 2025 01 08 17 42 57.0000000  0  4                                             
G26  22637078.996 7 118938372.684 7      1139.412 7        43.827               
G18  23045390.870 7 121104261.292 7     -1217.049 7        42.146               
G16  22798348.715 7 119826422.477 7     -1149.162 7        42.451               
G29  25772451.171 6 135435066.834 6     -3201.454 6        38.675               
> 2025 01 08 17 42 58.0000000  0  4                                             
G26  22637300.053 7 118937230.197 7      1143.083 7        43.732               
G18  23045624.543 7 121105477.213 7     -1213.543 7        42.417               
G16  22798122.761 7 119827568.519 7     -1148.406 7        42.436               
G29  25773056.234 6 135438264.322 6     -3201.250 6        39.013               
> 2025 01 08 17 42 59.0000000  0  4                                             
G26  22637518.127 7 118936087.318 7      1139.564 7        44.057               
G18  23045855.518 7 121106693.505 7     -1215.959 7        42.007               
G16  22797906.903 7 119828714.198 7     -1146.883 7        42.147               
G29  25773677.522 6 135441461.741 6     -3197.806 6        38.750               
> 2025 01 08 17 43 00.0000000  0  4                                             
G26  22637738.077 7 118934943.858 7      1142.164 7        43.647               
G18  23046090.710 7 121107910.333 7     -1216.824 7        42.545               
G16  22797697.657 7 119829859.349 7     -1148.635 7        42.610               
G29  25774286.981 6 135444659.263 6     -3198.885 6        38.970               
> 2025 01 08 17 43 01.0000000  0  4                                             
G26  22637969.641 7 118933799.625 7      1142.814 7        43.198               
G18  23046322.257 7 121109127.912 7     -1217.248 7        42.469               
G16  22797459.409 7 119831003.769 7     -1143.044 7        42.491               
G29  25774892.741 6 135447857.116 6     -3194.240 6        39.459               
> 2025 01 08 17 43 02.0000000  0  4                                             
G26  22638180.674 7 118932654.893 7      1145.419 7        43.693               
G18  23046560.344 7 121110345.964 7     -1219.075 7        42.189               
G16  22797259.991 7 119832147.734 7     -1143.603 7        42.642               
G29  25775501.217 6 135451055.003 6     -3198.108 6        38.653               
> 2025 01 08 17 43 03.0000000  0  4                                             
G26  22638400.553 7 118931510.015 7      1145.143 7        43.719               
G18  23046791.980 7 121111564.119 7     -1217.876 7        42.386               
G16  22797044.473 7 119833291.615 7     -1146.895 7        42.459               
G29  25776116.447 6 135454252.553 6     -3200.760 6        38.806               
> 2025 01 08 17 43 04.0000000  0  4                                             
G26  22638623.129 7 118930364.579 7      1146.760 7        43.894               
G18  23047023.813 7 121112782.804 7     -1216.431 7        42.389               
G16  22796833.672 7 119834434.968 7     -1141.845 7        42.404               
G29  25776721.153 6 135457450.224 6     -3197.378 6        38.710               
> 2025 01 08 17 43 05.0000000  0  4                                             
G26  22638840.935 7 118929218.635 7      1146.876 7        43.654               
G18  23047259.273 7 121114001.971 7     -1215.799 7        42.374               
G16  22796610.345 7 119835577.841 7     -1146.101 7        42.930               
G29  25777330.808 6 135460647.950 6     -3190.439 6        38.921               
> 2025 01 08 17 43 06.0000000  0  4                                             
G26  22639055.613 7 118928073.130 7      1144.048 7        43.269               
G18  23047490.569 6 121115220.648 6     -1220.173 6        41.922               
G16  22796397.811 6 119836721.234 6     -1140.036 6        41.927               
G29  25777947.325 6 135463844.741 6     -3196.682 6        38.721               
> 2025 01 08 17 43 07.0000000  0  4                                             
G26  22639280.388 7 118926926.534 7      1146.392 7        43.744               
G18  23047723.742 7 121116440.403 7     -1220.925 7        42.456               
G16  22796183.007 7 119837863.552 7     -1137.096 7        42.356               
G29  25778549.422 6 135467042.191 6     -3201.461 6        38.774               
> 2025 01 08 17 43 08.0000000  0  4                                             
G26  22639500.748 7 118925778.759 7      1147.680 7        43.608               
G18  23047958.917 7 121117661.283 7     -1219.092 7        42.355               
G16  22795967.846 7 119839004.754 7     -1142.391 7        42.135               
G29  25779165.456 6 135470240.309 6     -3200.154 6        39.232               
> 2025 01 08 17 43 09.0000000  0  4                                             
G26  22639717.017 7 118924630.314 7      1151.045 7        43.929               
G18  23048195.252 7 121118882.820 7     -1219.348 7        42.578               
G16  22795751.470 6 119840145.324 6     -1141.525 6        41.950               
G29  25779778.310 6 135473438.676 6     -3199.468 6        38.595               
> 2025 01 08 17 43 10.0000000  0  4                                             
G26  22639940.487 7 118923481.392 7      1149.932 7        43.689               
G18  23048429.319 7 121120104.793 7     -1224.979 7        42.434               
G16  22795536.113 7 119841285.451 7     -1136.240 7        42.543               
G29  25780378.066 6 135476637.032 6     -3197.007 6        38.929               
> 2025 01 08 17 43 11.0000000  0  4                                             
G26  22640163.743 7 118922331.944 7      1151.580 7        43.419               
G18  23048661.366 7 121121327.247 7     -1223.969 7        42.175               
G16  22795317.521 7 119842425.104 7     -1139.106 7        42.576               
G29  25780993.886 6 135479835.467 6     -3200.274 6        38.887               
> 2025 01 08 17 43 12.0000000  0  4                                             
G26  22640378.064 7 118921182.308 7      1147.735 7        43.688               
G18  23048892.948 7 121122549.893 7     -1225.249 7        42.176               
G16  22795104.236 7 119843564.597 7     -1142.643 7        42.560               
G29  25781610.796 6 135483033.624 6     -3195.090 6        38.438               
> 2025 01 08 17 43 13.0000000  0  4                                             
G26  22640604.429 7 118920031.827 7      1150.294 7        43.886               
G18  23049125.442 7 121123773.307 7     -1219.874 7        42.205               
G16  22794892.345 7 119844703.300 7     -1134.518 7        42.634               
G29  25782217.003 6 135486232.148 6     -3200.503 6        39.194               
> 2025 01 08 17 43 14.0000000  0  4                                             
G26  22640824.611 7 118918881.319 7      1153.105 7        43.677               
G18  23049366.745 7 121124996.731 7     -1227.771 7        42.230               
G16  22794675.326 7 119845842.027 7     -1137.283 7        42.848               
G29  25782825.997 6 135489430.248 6     -3199.928 6        38.682               
> 2025 01 08 17 43 15.0000000  0  4                                             
G26  22641044.257 7 118917728.956 7      1152.332 7        43.737               
G18  23049598.113 7 121126221.988 7     -1224.978 7        42.345               
G16  22794459.629 7 119846978.934 7     -1138.514 7        42.898               
G29  25783441.335 6 135492629.745 6     -3205.732 6        38.749               
> 2025 01 08 17 43 16.0000000  0  4                                             
G26  22641265.457 7 118916576.753 7      1150.306 7        43.503               
G18  23049836.987 6 121127447.029 6     -1224.414 6        41.940               
G16  22794248.810 7 119848116.050 7     -1138.101 7        42.522               
G29  25784047.345 6 135495828.598 6     -3196.726 6        38.590               
> 2025 01 08 17 43 17.0000000  0  4                                             
G26  22641485.068 7 118915423.803 7      1154.898 7        43.288               
G18  23050071.535 6 121128672.781 6     -1224.382 6        41.768               
G16  22794033.399 7 119849252.484 7     -1136.650 7        42.266               
G29  25784662.218 6 135499027.712 6     -3199.592 6        38.381               
> 2025 01 08 17 43 18.0000000  0  4                                             
G26  22641710.128 7 118914270.116 7      1153.691 7        43.239               
G18  23050301.456 7 121129899.277 7     -1228.227 7        42.533               
G16  22793818.489 7 119850388.186 7     -1134.680 7        42.300               
G29  25785277.109 6 135502227.137 6     -3201.303 6        38.727               
> 2025 01 08 17 43 19.0000000  0  4                                             
G26  22641928.452 7 118913116.191 7      1153.274 7        43.515               
G18  23050541.526 7 121131125.944 7     -1225.805 7        42.294               
G16  22793603.077 7 119851523.715 7     -1134.019 7        42.306               
G29  25785879.974 6 135505426.322 6     -3201.235 6        38.650               
> 2025 01 08 17 43 20.0000000  0  4                                             
G26  22642152.637 7 118911961.762 7      1151.427 7        43.889               
G18  23050778.219 7 121132353.098 7     -1225.801 7        42.264               
G16  22793390.043 7 119852658.769 7     -1132.196 7        42.661               
G29  25786488.682 6 135508625.551 6     -3196.837 6        39.206               
> 2025 01 08 17 43 21.0000000  0  4                                             
G26  22642376.964 7 118910806.559 7      1156.269 7        43.730               
G18  23051012.750 7 121133580.977 7     -1228.576 7        42.520               
G16  22793177.259 7 119853793.110 7     -1136.129 7        42.481               
G29  25787100.446 6 135511825.087 6     -3198.381 6        38.850               
> 2025 01 08 17 43 22.0000000  0  4                                             
G26  22642599.434 7 118909650.699 7      1157.469 7        43.761               
G18  23051246.710 6 121134809.502 6     -1228.589 6        41.915               
G16  22792967.316 7 119854926.824 7     -1135.356 7        42.087               
G29  25787719.483 6 135515024.821 6     -3201.077 6        38.506               
> 2025 01 08 17 43 23.0000000  0  4                                             
G26  22642821.385 7 118908494.152 7      1156.306 7        43.392               
G18  23051484.099 7 121136038.658 7     -1230.990 7        42.491               
G16  22792753.620 7 119856059.902 7     -1134.325 7        42.854               
G29  25788327.065 6 135518224.775 6     -3197.109 6        39.130               
> 2025 01 08 17 43 24.0000000  0  4                                             
G26  22643041.835 7 118907336.314 7      1159.979 7        43.987               
G18  23051719.059 7 121137269.062 7     -1231.661 7        42.374               
G16  22792540.174 7 119857191.738 7     -1128.247 7        42.890               
G29  25788929.233 6 135521425.544 6     -3198.974 6        39.070               
> 2025 01 08 17 43 25.0000000  0  4                                             
G26  22643263.161 7 118906177.660 7      1155.605 7        43.493               
G18  23051954.627 7 121138500.285 7     -1233.480 7        42.501               
G16  22792323.888 7 119858322.775 7     -1131.687 7        42.171               
G29  25789545.500 6 135524626.690 6     -3205.931 6        38.859               
> 2025 01 08 17 43 26.0000000  0  4                                             
G26  22643484.683 7 118905019.456 7      1158.846 7        43.424               
G18  23052190.105 7 121139731.008 7     -1233.417 7        42.216               
G16  22792115.160 7 119859454.329 7     -1129.812 7        42.384               
G29  25790158.908 6 135527826.901 6     -3202.745 6        38.684               
> 2025 01 08 17 43 27.0000000  0  4                                             
G26  22643705.884 7 118903860.010 7      1157.899 7        43.342               
G18  23052427.405 7 121140962.929 7     -1233.554 7        42.500               
G16  22791898.462 7 119860584.676 7     -1130.339 7        42.650               
G29  25790767.599 6 135531027.921 6     -3206.104 6        39.028               
> 2025 01 08 17 43 28.0000000  0  4                                             
G26  22643929.622 7 118902699.639 7      1159.920 7        43.653               
G18  23052665.027 7 121142195.738 7     -1234.094 7        42.460               
G16  22791686.053 7 119861714.158 7     -1130.655 7        42.677               
G29  25791382.079 6 135534229.328 6     -3196.048 6        39.128               
> 2025 01 08 17 43 29.0000000  0  4                                             
G26  22644152.556 7 118901539.393 7      1160.441 7        43.631               
G18  23052903.829 6 121143428.409 6     -1236.661 6        41.821               
G16  22791473.358 7 119862843.787 7     -1128.794 7        42.776               
G29  25791989.036 6 135537430.198 6     -3203.505 6        39.779               
> 2025 01 08 17 43 30.0000000  0  4                                             
G26  22644374.417 7 118900378.627 7      1163.362 7        43.599               
G18  23053136.841 7 121144661.551 7     -1236.044 7        42.369               
G16  22791257.858 7 119863972.946 7     -1126.398 7        42.488               
G29  25792604.874 6 135540631.117 6     -3202.077 6        39.307               
> 2025 01 08 17 43 31.0000000  0  4                                             
G26  22644598.370 7 118899217.254 7      1162.924 7        43.771               
G18  23053372.730 7 121145895.274 7     -1234.810 7        42.598               
G16  22791047.593 7 119865101.545 7     -1127.879 7        42.239               
G29  25793209.508 6 135543832.174 6     -3197.533 6        38.569               
> 2025 01 08 17 43 32.0000000  0  4                                             
G26  22644819.642 7 118898055.172 7      1163.303 7        43.510               
G18  23053610.692 7 121147129.659 7     -1235.181 7        42.415               
G16  22790827.143 7 119866229.490 7     -1125.519 7        43.047               
G29  25793814.553 6 135547033.488 6     -3208.599 6        38.857               
> 2025 01 08 17 43 33.0000000  0  4                                             
G26  22645042.290 7 118896892.437 7      1163.196 7        43.865               
G18  23053846.795 7 121148364.672 7     -1235.312 7        42.569               
G16  22790619.326 7 119867356.808 7     -1129.042 7        42.412               
G29  25794436.145 6 135550234.984 6     -3202.258 6        38.966               
> 2025 01 08 17 43 34.0000000  0  4                                             
G26  22645264.116 7 118895728.918 7      1163.949 7        43.912               
G18  23054083.703 7 121149600.441 7     -1237.115 7        42.360               
G16  22790405.291 6 119868483.392 6     -1127.148 6        41.913               
G29  25795037.670 6 135553436.790 6     -3200.235 6        38.886               
> 2025 01 08 17 43 35.0000000  0  4                                             
G26  22645490.820 7 118894564.669 7      1162.925 7        43.752               
G18  23054319.306 7 121150836.883 7     -1237.806 7        42.310               
G16  22790192.435 7 119869609.302 7     -1125.547 7        42.274               
G29  25795657.868 6 135556638.867 6     -3199.246 6        39.020               
> 2025 01 08 17 43 36.0000000  0  4                                             
G26  22645713.915 7 118893400.094 7      1165.356 7        43.481               
G18  23054560.216 7 121152073.650 7     -1236.696 7        42.410               
G16  22789981.330 7 119870734.900 7     -1124.406 7        42.558               
G29  25796262.448 6 135559840.823 6     -3206.348 6        39.376               
> 2025 01 08 17 43 37.0000000  0  4                                             
G26  22645940.119 7 118892234.941 7      1163.654 7        43.227               
G18  23054796.087 7 121153310.931 7     -1235.294 7        42.346               
G16  22789768.725 7 119871859.979 7     -1123.645 7        42.447               
G29  25796871.139 6 135563042.869 6     -3205.811 6        39.424               
> 2025 01 08 17 43 38.0000000  0  4                                             
G26  22646159.568 7 118891068.970 7      1166.203 7        43.588               
G18  23055033.155 7 121154549.000 7     -1238.092 7        42.928               
G16  22789558.067 7 119872984.274 7     -1121.615 7        42.747               
G29  25797486.584 6 135566245.281 6     -3199.759 6        38.997               
> 2025 01 08 17 43 39.0000000  0  4                                             
G26  22646388.649 7 118889901.867 7      1167.089 7        43.778               
G18  23055269.849 7 121155788.175 7     -1237.844 7        42.629               
G16  22789343.621 7 119874107.484 7     -1124.904 7        42.831               
G29  25798097.418 6 135569448.360 6     -3202.303 6        39.261               
> 2025 01 08 17 43 40.0000000  0  4                                             
G26  22646607.027 7 118888734.163 7      1169.788 7        43.394               
G18  23055507.685 7 121157027.928 7     -1241.394 7        42.411               
G16  22789134.410 7 119875230.115 7     -1123.067 7        42.331               
G29  25798712.005 6 135572651.583 6     -3198.808 6        39.306               
> 2025 01 08 17 43 41.0000000  0  4                                             
G26  22646831.855 7 118887566.563 7      1166.677 7        43.823               
G18  23055747.202 7 121158267.523 7     -1238.193 7        42.804               
G16  22788917.123 7 119876352.914 7     -1125.069 7        42.578               
G29  25799318.409 6 135575854.228 6     -3204.057 6        39.589               
> 2025 01 08 17 43 42.0000000  0  4                                             
G26  22647056.844 7 118886398.743 7      1167.372 7        43.555               
G18  23055985.128 7 121159507.314 7     -1243.334 7        42.303               
G16  22788707.644 7 119877475.529 7     -1122.937 7        42.975               
G29  25799923.740 6 135579056.660 6     -3205.268 6        39.593               
> 2025 01 08 17 43 43.0000000  0  4                                             
G26  22647280.117 7 118885230.190 7      1167.186 7        43.381               
G18  23056223.733 7 121160747.809 7     -1240.629 7        42.406               
G16  22788498.541 7 119878597.444 7     -1121.627 7        42.138               
G29  25800548.995 6 135582259.328 6     -3204.355 6        39.120               
> 2025 01 08 17 43 44.0000000  0  4                                             
G26  22647504.802 7 118884061.088 7      1171.074 7        43.524               
G18  23056461.212 7 121161988.806 7     -1241.395 7        42.358               
G16  22788290.599 7 119879718.872 7     -1119.839 7        42.762               
G29  25801154.665 6 135585462.078 6     -3198.012 6        39.565               
> 2025 01 08 17 43 45.0000000  0  4                                             
G26  22647730.667 7 118882891.506 7      1168.411 7        43.913               
G18  23056692.169 7 121163230.253 7     -1241.849 7        42.820               
G16  22788081.228 7 119880839.849 7     -1121.108 7        43.091               
G29  25801767.662 6 135588664.847 6     -3200.860 6        39.148               
> 2025 01 08 17 43 46.0000000  0  4                                             
G26  22647955.262 7 118881721.482 7      1169.755 7        43.503               
G18  23056936.028 7 121164472.110 7     -1241.007 7        42.649               
G16  22787864.334 7 119881960.423 7     -1121.357 7        43.327               
G29  25802378.175 6 135591867.619 6     -3204.310 6        38.706               
> 2025 01 08 17 43 47.0000000  0  4                                             
G26  22648176.945 7 118880550.838 7      1171.755 7        43.558               
G18  23057172.614 7 121165714.556 7     -1241.375 7        42.586               
G16  22787652.032 7 119883080.415 7     -1123.534 7        42.775               
G29  25802989.331 6 135595070.526 6     -3201.511 6        39.428               
> 2025 01 08 17 43 48.0000000  0  4                                             
G26  22648402.006 7 118879379.477 7      1174.392 7        43.256               
G18  23057409.807 7 121166957.669 7     -1239.640 7        42.681               
G16  22787442.625 7 119884199.737 7     -1120.062 7        42.736               
G29  25803601.381 6 135598273.691 6     -3196.615 6        38.927               
> 2025 01 08 17 43 49.0000000  0  4                                             
G26  22648630.622 7 118878207.362 7      1171.075 7        43.353               
G18  23057650.967 7 121168201.530 7     -1249.300 7        42.459               
G16  22787230.233 7 119885318.335 7     -1119.278 7        43.232               
G29  25804210.214 6 135601477.140 6     -3203.654 6        38.900               
> 2025 01 08 17 43 50.0000000  0  4                                             
G26  22648853.324 7 118877034.453 7      1171.649 7        43.460               
G18  23057889.823 7 121169446.114 7     -1243.004 7        42.054               
G16  22787021.881 7 119886436.185 7     -1116.486 7        42.728               
G29  25804815.188 6 135604680.921 6     -3204.419 6        39.282               
> 2025 01 08 17 43 51.0000000  0  4                                             
G26  22649075.847 7 118875860.725 7      1175.411 7        43.627               
G18  23058121.566 7 121170691.517 7     -1245.641 7        42.301               
G16  22786809.007 7 119887553.268 7     -1118.438 7        43.339               
G29  25805438.460 6 135607885.078 6     -3205.831 6        39.287               
> 2025 01 08 17 43 52.0000000  0  4                                             
G26  22649305.857 7 118874686.312 7      1174.166 7        43.340               
G18  23058362.887 6 121171937.557 6     -1248.329 6        41.779               
G16  22786597.152 7 119888669.689 7     -1115.169 7        43.207               
G29  25806045.452 6 135611089.418 6     -3199.944 6        38.816               
> 2025 01 08 17 43 53.0000000  0  4                                             
G26  22649528.755 7 118873511.408 7      1175.580 7        43.326               
G18  23058601.814 7 121173184.050 7     -1249.864 7        42.308               
G16  22786384.439 7 119889785.672 7     -1119.217 7        43.023               
G29  25806664.060 6 135614293.802 6     -3205.207 6        39.122               
> 2025 01 08 17 43 54.0000000  0  4                                             
G26  22649754.280 7 118872336.162 7      1177.019 7        43.452               
G18  23058844.332 7 121174430.841 7     -1245.423 7        42.388               
G16  22786174.925 7 119890901.346 7     -1115.052 7        42.975               
G29  25807266.139 6 135617498.068 6     -3204.633 6        39.049               
> 2025 01 08 17 43 55.0000000  0  4                                             
G26  22649979.715 7 118871161.102 7      1176.055 7        43.653               
G18  23059087.101 7 121175677.439 7     -1244.803 7        42.665               
G16  22785965.107 7 119892017.239 7     -1113.998 7        42.873               
G29  25807880.440 6 135620701.689 6     -3200.308 6        38.972               
> 2025 01 08 17 43 56.0000000  0  4                                             
G26  22650201.792 7 118869984.831 7      1178.309 7        43.759               
G18  23059318.612 7 121176925.181 7     -1246.676 7        42.637               
G16  22785755.074 7 119893131.975 7     -1116.679 7        42.714               
G29  25808488.487 6 135623906.026 6     -3207.071 6        38.746               
> 2025 01 08 17 43 57.0000000  0  4                                             
G26  22650432.767 7 118868807.178 7      1175.797 7        43.596               
G18  23059561.166 7 121178174.289 7     -1246.476 7        42.283               
G16  22785542.701 7 119894245.357 7     -1115.324 7        42.679               
G29  25809096.499 6 135627111.297 6     -3205.149 6        39.138               
> 2025 01 08 17 43 58.0000000  0  4                                             
G26  22650657.755 7 118867629.857 7      1174.533 7        43.415               
G18  23059799.950 7 121179423.015 7     -1249.097 7        42.431               
G16  22785332.740 7 119895359.105 7     -1119.939 7        42.590               
G29  25809711.122 6 135630315.774 6     -3202.284 6        38.885               
> 2025 01 08 17 43 59.0000000  0  4                                             
G26  22650880.511 7 118866451.934 7      1174.961 7        43.490               
G18  23060038.626 7 121180672.319 7     -1253.242 7        42.863               
G16  22785121.742 7 119896472.311 7     -1110.424 7        42.949               
G29  25810323.046 6 135633520.394 6     -3207.263 6        38.212               
> 2025 01 08 17 44 00.0000000  0  4                                             
G26  22651107.233 7 118865272.865 7      1181.298 7        43.292               
G18  23060279.197 6 121181922.719 6     -1246.207 6        41.872               
G16  22784911.406 7 119897584.395 7     -1112.636 7        42.718               
G29  25810936.222 6 135636725.692 6     -3200.603 6        38.815               
> 2025 01 08 17 44 01.0000000  0  4                                             
G26  22651334.831 7 118864094.867 7      1181.030 7        43.118               
G18  23060518.820 6 121183172.043 6     -1251.992 6        41.991               
G16  22784706.287 7 119898697.596 7     -1113.647 7        42.985               
G29  25811551.113 6 135639929.427 6     -3210.203 6        38.725               
> 2025 01 08 17 44 02.0000000  0  4                                             
G26  22651564.841 7 118862914.960 7      1179.262 7        43.104               
G18  23060757.568 7 121184423.225 7     -1252.322 7        42.484               
G16  22784493.843 7 119899808.935 7     -1110.509 7        42.703               
G29  25812153.335 6 135643134.625 6     -3213.408 6        38.573               
> 2025 01 08 17 44 03.0000000  0  4                                             
G26  22651786.720 7 118861735.419 7      1178.114 7        43.223               
G18  23061002.392 7 121185674.011 7     -1249.520 7        42.327               
G16  22784288.706 7 119900920.661 7     -1111.097 7        42.820               
G29  25812767.332 6 135646339.006 6     -3201.920 6        38.447               
> 2025 01 08 17 44 04.0000000  0  4                                             
G26  22652013.264 7 118860555.391 7      1183.523 7        43.615               
G18  23061241.462 7 121186925.235 7     -1249.388 7        42.617               
G16  22784080.604 7 119902031.966 7     -1111.194 7        42.491               
G29  25813383.742 6 135649543.387 6     -3199.643 6        38.349               
> 2025 01 08 17 44 05.0000000  0  4                                             
G26  22652244.328 7 118859374.755 7      1179.332 7        43.566               
G18  23061478.834 7 121188177.042 7     -1251.302 7        42.359               
G16  22783865.014 7 119903142.689 7     -1108.457 7        42.373               
G29  25813982.551 6 135652747.929 6     -3206.822 6        37.509               
> 2025 01 08 17 44 06.0000000  0  5                                             
G26  22652464.367 7 118858193.436 7      1181.728 7        43.237               
G27  24456449.396 6 128519513.011 6      2517.655 6        40.203               
G18  23061723.014 7 121189429.501 7     -1257.248 7        42.494               
G16  22783651.872 7 119904252.744 7     -1106.100 7        42.923               
G29  25814608.467 6 135655952.712 6     -3206.852 6        37.819               
> 2025 01 08 17 44 07.0000000  0  5                                             
G26  22652696.575 7 118857011.021 7      1183.013 7        43.169               
G27  24455965.896 6 128516993.669 6      2518.669 6        40.495               
G18  23061959.207 7 121190683.000 7     -1251.798 7        42.806               
G16  22783443.841 7 119905361.775 7     -1107.519 7        42.637               
G29  25815224.394 6 135659158.079 6     -3207.269 6        38.015               
> 2025 01 08 17 44 08.0000000  0  5                                             
G26  22652920.063 7 118855827.302 7      1184.033 7        43.268               
G27  24455500.908 6 128514475.361 6      2525.026 6        40.067               
G18  23062205.192 7 121191937.789 7     -1252.261 7        42.892               
G16  22783238.008 7 119906469.531 7     -1107.185 7        42.636               
G29  25815832.406 6 135662364.302 6     -3201.422 6        37.996               
> 2025 01 08 17 44 09.0000000  0  5                                             
G26  22653147.589 7 118854643.490 7      1182.624 7        43.114               
G27  24455019.499 6 128511956.770 6      2516.539 6        40.603               
G18  23062441.545 7 121193192.626 7     -1251.464 7        42.914               
G16  22783031.495 7 119907577.230 7     -1110.516 7        42.538               
G29  25816436.986 6 135665570.158 6     -3205.457 6        37.708               
> 2025 01 08 17 44 10.0000000  0  5                                             
G26  22653376.241 7 118853459.928 7      1185.499 7        43.418               
G27  24454531.979 6 128509437.584 6      2519.390 6        40.241               
G18  23062681.562 7 121194447.171 7     -1254.598 7        42.888               
G16  22782825.001 7 119908685.228 7     -1109.637 7        42.757               
G29  25817056.487 6 135668775.307 6     -3203.999 6        38.029               
> 2025 01 08 17 44 11.0000000  0  5                                             
G26  22653605.090 7 118852276.349 7      1184.735 7        43.627               
G27  24454050.855 6 128506918.041 6      2518.072 6        40.215               
G18  23062923.276 7 121195701.704 7     -1254.170 7        42.978               
G16  22782611.859 7 119909793.243 7     -1107.503 7        42.269               
G29  25817661.729 6 135671980.006 6     -3211.897 6        37.311               
> 2025 01 08 17 44 12.0000000  0  5                                             
G26  22653827.416 7 118851091.133 7      1187.542 7        43.409               
G27  24453584.098 6 128504399.821 6      2517.880 6        40.366               
G18  23063162.507 7 121196957.825 7     -1258.347 7        42.729               
G16  22782404.471 7 119910899.672 7     -1108.396 7        42.646               
G29  25818268.704 6 135675185.837 6     -3203.494 6        37.626               
> 2025 01 08 17 44 13.0000000  0  5                                             
G26  22654056.533 7 118849904.700 7      1188.113 7        43.037               
G27  24453104.601 6 128501882.455 6      2512.928 6        39.943               
G18  23063401.755 7 121198215.153 7     -1257.000 7        42.625               
G16  22782197.477 7 119912004.914 7     -1106.181 7        42.248               
G29  25818886.436 6 135678392.471 6     -3204.897 6        37.706               
> 2025 01 08 17 44 14.0000000  0  5                                             
G26  22654286.096 7 118848717.870 7      1188.104 7        43.267               
G27  24452624.246 6 128499365.138 6      2516.225 6        41.050               
G18  23063647.651 7 121199472.836 7     -1263.755 7        42.649               
G16  22781986.729 7 119913109.797 7     -1107.600 7        42.916               
G29  25819500.058 6 135681599.022 6     -3202.527 6        38.272               
> 2025 01 08 17 44 15.0000000  0  5                                             
G26  22654512.247 7 118847530.933 7      1187.408 7        43.715               
G27  24452148.626 6 128496847.592 6      2517.735 6        40.439               
G18  23063886.023 7 121200730.580 7     -1258.560 7        42.659               
G16  22781777.340 7 119914214.626 7     -1107.101 7        42.593               
G29  25820115.271 6 135684805.179 6     -3208.488 6        37.446               
> 2025 01 08 17 44 16.0000000  0  5                                             
G26  22654740.327 7 118846343.689 7      1190.249 7        43.648               
G27  24451668.307 6 128494329.971 6      2519.536 6        40.314               
G18  23064121.984 7 121201988.611 7     -1262.201 7        42.651               
G16  22781564.967 7 119915319.184 7     -1103.212 7        42.334               
G29  25820722.943 6 135688011.250 6     -3203.831 6        37.966               
> 2025 01 08 17 44 17.0000000  0  5                                             
G26  22654969.301 7 118845154.886 7      1191.178 7        43.359               
G27  24451195.475 6 128491813.581 6      2516.385 6        40.017               
G18  23064370.328 7 121203248.149 7     -1260.753 7        42.952               
G16  22781358.740 7 119916422.219 7     -1103.318 7        43.060               
G29  25821343.945 6 135691218.365 6     -3209.190 6        38.031               
> 2025 01 08 17 44 18.0000000  0  5                                             
G26  22655194.718 7 118843965.753 7      1193.582 7        42.984               
G27  24450714.994 6 128489297.177 6      2515.681 6        40.208               
G18  23064610.344 7 121204507.987 7     -1261.756 7        43.345               
G16  22781150.888 7 119917524.960 7     -1101.260 7        42.602               
G29  25821945.381 6 135694425.372 6     -3207.017 6        38.144               
> 2025 01 08 17 44 19.0000000  0  5                                             
G26  22655423.978 7 118842775.682 7      1188.580 7        43.345               
G27  24450239.214 6 128486781.349 6      2512.441 6        40.006               
G18  23064857.723 7 121205768.723 7     -1259.644 7        43.082               
G16  22780946.556 7 119918626.792 7     -1100.175 7        42.588               
G29  25822564.774 6 135697632.836 6     -3207.021 6        37.736               
> 2025 01 08 17 44 20.0000000  0  5                                             
G26  22655650.825 7 118841584.584 7      1190.511 7        42.991               
G27  24449768.901 6 128484266.203 6      2515.047 6        40.616               
G18  23065094.023 7 121207030.427 7     -1259.767 7        43.327               
G16  22780738.614 7 119919727.649 7     -1103.697 7        42.865               
G29  25823176.967 6 135700840.848 6     -3205.794 6        37.607               
> 2025 01 08 17 44 21.0000000  0  5                                             
G26  22655882.640 7 118840394.138 7      1191.475 7        42.456               
G27  24449290.315 6 128481750.075 6      2513.630 6        40.674               
G18  23065334.576 7 121208291.486 7     -1259.153 7        42.760               
G16  22780532.566 7 119920829.171 7     -1101.649 7        42.724               
G29  25823781.601 6 135704047.758 6     -3209.259 6        37.807               
> 2025 01 08 17 44 22.0000000  0  5                                             
G26  22656109.630 7 118839203.722 7      1193.131 7        42.915               
G27  24448809.799 6 128479233.527 6      2521.217 6        40.231               
G18  23065577.505 7 121209552.471 7     -1260.211 7        42.794               
G16  22780320.800 7 119921930.777 7     -1102.437 7        43.043               
G29  25824398.637 6 135707254.190 6     -3208.690 6        37.795               
> 2025 01 08 17 44 23.0000000  0  5                                             
G26  22656334.065 7 118838012.319 7      1193.632 7        42.825               
G27  24448340.594 6 128476717.632 6      2515.142 6        40.347               
G18  23065818.094 7 121210814.378 7     -1261.325 7        42.804               
G16  22780114.270 7 119923031.451 7     -1100.957 7        42.651               
G29  25824995.480 6 135710461.141 6     -3213.379 6        37.916               
> 2025 01 08 17 44 24.0000000  0  5                                             
G26  22656565.433 7 118836819.602 7      1192.848 7        43.180               
G27  24447855.933 6 128474202.724 6      2516.988 6        40.442               
G18  23066060.344 7 121212077.594 7     -1262.166 7        43.261               
G16  22779909.866 7 119924130.827 7     -1097.044 7        42.653               
G29  25825630.795 6 135713668.922 6     -3212.073 6        37.567               
> 2025 01 08 17 44 25.0000000  0  5                                             
G26  22656798.284 7 118835626.192 7      1192.205 7        43.142               
G27  24447385.852 6 128471688.149 6      2511.394 6        40.228               
G18  23066305.221 7 121213341.453 7     -1263.365 7        42.889               
G16  22779699.673 7 119925229.543 7     -1096.889 7        42.831               
G29  25826230.211 6 135716876.924 6     -3209.051 6        37.590               
> 2025 01 08 17 44 26.0000000  0  5                                             
G26  22657026.079 7 118834431.842 7      1195.068 7        42.753               
G27  24446907.284 6 128469174.158 6      2514.424 6        40.713               
G18  23066548.043 7 121214606.236 7     -1266.154 7        42.821               
G16  22779489.551 7 119926327.379 7     -1098.855 7        42.524               
G29  25826853.161 6 135720085.419 6     -3207.282 6        37.706               
> 2025 01 08 17 44 27.0000000  0  5                                             
G26  22657255.303 7 118833236.741 7      1196.442 7        42.998               
G27  24446430.324 6 128466660.567 6      2517.591 6        40.855               
G18  23066788.578 7 121215871.698 7     -1262.261 7        42.693               
G16  22779286.327 7 119927424.503 7     -1095.290 7        42.355               
G29  25827463.996 6 135723294.178 6     -3207.109 6        37.967               
> 2025 01 08 17 44 28.0000000  0  5                                             
G26  22657484.508 7 118832041.408 7      1196.419 7        42.830               
G27  24445956.116 6 128464146.884 6      2515.144 6        40.973               
G18  23067033.223 7 121217137.380 7     -1262.912 7        42.747               
G16  22779078.653 7 119928521.409 7     -1094.054 7        43.179               
G29  25828075.188 6 135726502.749 6     -3208.252 6        37.394               
> 2025 01 08 17 44 29.0000000  0  5                                             
G26  22657710.069 7 118830845.971 7      1196.069 7        42.320               
G27  24445478.549 6 128461632.926 6      2509.374 6        40.536               
G18  23067271.953 7 121218403.117 7     -1264.590 7        43.157               
G16  22778871.551 7 119929618.266 7     -1098.831 7        43.020               
G29  25828684.754 6 135729710.936 6     -3215.189 6        38.075               
> 2025 01 08 17 44 30.0000000  0  5                                             
G26  22657943.814 7 118829650.357 7      1194.843 7        43.290               
G27  24445006.503 6 128459118.816 6      2513.922 6        40.592               
G18  23067519.957 7 121219668.997 7     -1265.470 7        42.739               
G16  22778659.768 7 119930714.988 7     -1096.482 7        43.227               
G29  25829303.612 6 135732918.822 6     -3207.690 6        38.305               
> 2025 01 08 17 44 31.0000000  0  5                                             
G26  22658167.409 7 118828453.725 7      1199.548 7        42.639               
G27  24444528.328 6 128456605.374 6      2513.684 6        41.003               
G18  23067764.495 7 121220935.891 7     -1267.595 7        42.623               
G16  22778456.382 7 119931810.700 7     -1095.506 7        42.884               
G29  25829905.298 6 135736127.284 6     -3207.417 6        38.475               
> 2025 01 08 17 44 32.0000000  0  5                                             
G26  22658402.154 7 118827256.178 7      1196.911 7        42.620               
G27  24444047.204 6 128454092.484 6      2508.389 6        40.660               
G18  23068001.134 7 121222203.635 7     -1267.388 7        42.525               
G16  22778249.280 7 119932905.552 7     -1094.979 7        43.117               
G29  25830526.282 6 135739336.164 6     -3208.639 6        37.495               
> 2025 01 08 17 44 33.0000000  0  5                                             
G26  22658626.107 7 118826057.849 7      1199.699 7        42.840               
G27  24443579.768 6 128451580.037 6      2514.388 6        40.534               
G18  23068250.121 7 121223472.113 7     -1268.576 7        42.699               
G16  22778042.607 7 119933999.664 7     -1092.116 7        42.748               
G29  25831140.333 6 135742545.381 6     -3212.166 6        37.835               
> 2025 01 08 17 44 34.0000000  0  5                                             
G26  22658860.334 7 118824859.170 7      1200.036 7        42.507               
G27  24443089.907 6 128449067.611 6      2516.617 6        40.537               
G18  23068485.492 7 121224740.931 7     -1269.209 7        42.510               
G16  22777836.810 7 119935093.461 7     -1091.311 7        42.824               
G29  25831744.324 6 135745754.500 6     -3211.032 6        37.535               
> 2025 01 08 17 44 35.0000000  0  5                                             
G26  22659089.647 7 118823658.845 7      1197.855 7        42.358               
G27  24442618.004 6 128446556.454 6      2506.041 6        40.783               
G18  23068729.905 7 121226011.353 7     -1270.900 7        42.451               
G16  22777635.962 7 119936185.645 7     -1092.999 7        42.788               
G29  25832363.754 6 135748964.764 6     -3213.834 6        37.852               
> 2025 01 08 17 44 36.0000000  0  5                                             
G26  22659320.676 7 118822458.144 7      1201.568 7        42.530               
G27  24442147.745 6 128444045.336 6      2509.080 6        40.293               
G18  23068975.532 7 121227282.100 7     -1269.284 7        42.162               
G16  22777426.716 7 119937277.500 7     -1091.793 7        42.754               
G29  25832978.323 6 135752174.973 6     -3208.343 6        37.956               
> 2025 01 08 17 44 37.0000000  0  5                                             
G26  22659547.380 7 118821257.595 7      1199.152 7        42.228               
G27  24441672.125 6 128441533.699 6      2508.864 6        40.636               
G18  23069216.639 7 121228552.670 7     -1271.681 7        42.128               
G16  22777220.275 7 119938369.546 7     -1088.929 7        43.024               
G29  25833580.455 6 135755384.530 6     -3210.721 6        37.281               
> 2025 01 08 17 44 38.0000000  0  5                                             
G26  22659775.818 7 118820056.443 7      1201.787 7        42.387               
G27  24441187.785 6 128439022.352 6      2509.109 6        40.476               
G18  23069465.411 6 121229823.808 6     -1271.241 6        41.853               
G16  22777017.890 7 119939461.019 7     -1091.551 7        43.206               
G29  25834197.544 6 135758594.285 6     -3209.592 6        37.783               
> 2025 01 08 17 44 39.0000000  0  5                                             
G26  22660010.581 7 118818854.643 7      1202.870 7        42.815               
G27  24440714.578 6 128436511.281 6      2517.715 6        40.379               
G18  23069706.322 6 121231095.538 6     -1270.004 6        41.912               
G16  22776812.039 7 119940551.881 7     -1089.853 7        43.208               
G29  25834813.311 6 135761804.172 6     -3210.944 6        38.402               
> 2025 01 08 17 44 40.0000000  0  5                                             
G26  22660242.128 7 118817652.543 7      1202.351 7        42.869               
G27  24440243.372 6 128434000.175 6      2509.986 6        40.518               
G18  23069951.377 7 121232367.554 7     -1272.753 7        42.410               
G16  22776609.297 7 119941642.489 7     -1091.906 7        43.270               
G29  25835417.945 6 135765013.892 6     -3208.359 6        38.077               
> 2025 01 08 17 44 41.0000000  0  5                                             
G26  22660474.318 7 118816450.274 7      1205.671 7        42.452               
G27  24439756.852 6 128431488.885 6      2512.034 6        40.641               
G18  23070193.896 7 121233639.685 7     -1273.133 7        42.236               
G16  22776395.905 7 119942732.961 7     -1092.372 7        43.519               
G29  25836029.869 6 135768223.322 6     -3211.201 6        38.413               
> 2025 01 08 17 44 42.0000000  0  5                                             
G26  22660705.328 7 118815247.124 7      1203.479 7        43.153               
G27  24439283.609 6 128428978.109 6      2504.604 6        40.002               
G18  23070438.612 7 121234912.679 7     -1274.702 7        42.364               
G16  22776197.398 7 119943822.574 7     -1090.310 7        43.375               
G29  25836644.796 6 135771433.173 6     -3212.211 6        38.425               
> 2025 01 08 17 44 43.0000000  0  5                                             
G26  22660937.107 7 118814043.274 7      1200.890 7        43.003               
G27  24438807.346 6 128426467.702 6      2507.351 6        40.466               
G18  23070683.668 7 121236186.329 7     -1273.908 7        42.002               
G16  22775991.851 7 119944911.553 7     -1089.564 7        43.076               
G29  25837263.636 6 135774643.248 6     -3200.930 6        38.391               
> 2025 01 08 17 44 44.0000000  0  5                                             
G26  22661169.637 7 118812838.962 7      1202.119 7        43.066               
G27  24438339.517 6 128423957.401 6      2512.088 6        39.920               
G18  23070926.168 7 121237460.387 7     -1275.760 7        42.617               
G16  22775781.693 7 119946000.088 7     -1088.112 7        43.127               
G29  25837880.100 6 135777853.313 6     -3214.121 6        38.093               
> 2025 01 08 17 44 45.0000000  0  5                                             
G26  22661401.541 7 118811633.810 7      1204.233 7        43.109               
G27  24437862.896 6 128421447.598 6      2511.198 6        40.673               
G18  23071173.315 7 121238735.265 7     -1274.078 7        42.215               
G16  22775575.378 7 119947087.825 7     -1089.094 7        43.065               
G29  25838481.142 6 135781063.772 6     -3212.383 6        38.595               
> 2025 01 08 17 44 46.0000000  0  5                                             
G26  22661628.246 7 118810427.918 7      1207.163 7        43.277               
G27  24437380.969 6 128418938.207 6      2509.595 6        40.426               
G18  23071412.992 7 121240010.847 7     -1272.479 7        42.595               
G16  22775373.350 7 119948174.856 7     -1087.797 7        43.190               
G29  25839101.215 6 135784274.498 6     -3207.701 6        39.058               
> 2025 01 08 17 44 47.0000000  0  5                                             
G26  22661860.561 7 118809221.321 7      1207.537 7        43.390               
G27  24436899.202 6 128416429.163 6      2507.367 6        40.228               
G18  23071661.943 7 121241287.108 7     -1276.520 7        42.816               
G16  22775166.284 7 119949261.215 7     -1086.127 7        43.344               
G29  25839709.834 6 135787485.466 6     -3213.442 6        38.552               
> 2025 01 08 17 44 48.0000000  0  6                                             
G26  22662092.036 7 118808014.418 7      1207.617 7        43.391               
G27  24436421.491 6 128413920.087 6      2510.221 6        40.332               
G23  25070776.203 6 131748772.572 6     -2607.020 6        39.007               
G18  23071904.247 6 121242563.624 6     -1277.390 6        41.920               
G16  22774961.988 7 119950347.314 7     -1083.505 7        42.856               
G29  25840319.722 6 135790696.262 6     -3209.607 6        37.739               
> 2025 01 08 17 44 49.0000000  0  6                                             
G26  22662325.173 7 118806806.802 7      1208.064 7        43.179               
G27  24435950.321 6 128411411.337 6      2507.165 6        39.865               
G23  25070284.233 6 131751381.233 6     -2612.311 6        38.449               
G18  23072150.071 7 121243840.813 7     -1280.883 7        42.535               
G16  22774757.691 7 119951432.734 7     -1085.678 7        43.329               
G29  25840939.116 6 135793907.316 6     -3214.072 6        38.373               
> 2025 01 08 17 44 50.0000000  0  6                                             
G26  22662556.577 7 118805598.376 7      1210.446 7        43.153               
G27  24435470.180 6 128408903.081 6      2510.053 6        40.217               
G23  25069788.635 6 131753989.311 6     -2608.820 6        39.049               
G18  23072395.913 7 121245118.774 7     -1275.310 7        42.927               
G16  22774555.646 7 119952517.377 7     -1084.020 7        43.102               
G29  25841552.845 6 135797118.723 6     -3214.148 6        38.388               
> 2025 01 08 17 44 51.0000000  0  6                                             
G26  22662787.570 7 118804389.320 7      1209.268 7        43.258               
G27  24434991.809 6 128406395.098 6      2510.848 6        39.630               
G23  25069296.737 6 131756596.984 6     -2609.876 6        38.638               
G18  23072640.969 7 121246397.335 7     -1277.233 7        42.637               
G16  22774346.328 7 119953601.436 7     -1085.890 7        42.871               
G29  25842168.075 6 135800330.290 6     -3209.818 6        38.537               
> 2025 01 08 17 44 52.0000000  0  6                                             
G26  22663020.957 7 118803179.797 7      1209.527 7        43.286               
G27  24434527.715 6 128403887.237 6      2509.342 6        39.274               
G23  25068816.953 6 131759204.442 6     -2609.113 6        38.812               
G18  23072888.616 7 121247676.325 7     -1279.441 7        42.602               
G16  22774143.765 7 119954685.053 7     -1081.763 7        42.852               
G29  25842778.070 6 135803541.848 6     -3208.721 6        39.002               
> 2025 01 08 17 44 53.0000000  0  6                                             
G26  22663250.896 7 118801969.527 7      1213.112 7        43.490               
G27  24434044.733 6 128401379.773 6      2508.943 6        39.489               
G23  25068312.136 6 131761811.396 6     -2605.178 6        39.545               
G18  23073130.562 7 121248956.016 7     -1277.094 7        42.425               
G16  22773936.949 7 119955767.977 7     -1082.711 7        43.427               
G29  25843403.647 6 135806753.695 6     -3211.791 6        38.966               
> 2025 01 08 17 44 54.0000000  0  6                                             
G26  22663485.462 7 118800758.762 7      1211.952 7        43.712               
G27  24433566.593 6 128398872.457 6      2507.477 6        39.202               
G23  25067812.303 6 131764418.089 6     -2609.223 6        39.368               
G18  23073373.242 7 121250236.165 7     -1279.016 7        42.294               
G16  22773734.975 7 119956850.439 7     -1081.795 7        43.682               
G29  25844010.211 6 135809965.591 6     -3215.199 6        38.761               
> 2025 01 08 17 44 55.0000000  0  6                                             
G26  22663718.296 7 118799547.495 7      1211.220 7        43.244               
G27  24433093.815 6 128396365.295 6      2506.570 6        39.275               
G23  25067322.960 6 131767024.504 6     -2610.264 6        39.385               
G18  23073627.214 7 121251516.791 7     -1278.688 7        42.674               
G16  22773532.341 7 119957932.421 7     -1083.572 7        43.174               
G29  25844618.097 6 135813177.494 6     -3214.451 6        39.573               
> 2025 01 08 17 44 56.0000000  0  6                                             
G26  22663950.414 7 118798335.420 7      1214.004 7        43.422               
G27  24432624.324 6 128393858.593 6      2507.478 6        39.656               
G23  25066829.400 6 131769630.324 6     -2608.428 6        39.158               
G18  23073867.159 7 121252798.172 7     -1282.504 7        42.511               
G16  22773326.400 7 119959013.652 7     -1080.932 7        43.661               
G29  25845219.979 6 135816389.759 6     -3214.637 6        39.215               
> 2025 01 08 17 44 57.0000000  0  6                                             
G26  22664183.587 7 118797122.484 7      1212.790 7        42.949               
G27  24432140.574 6 128391352.404 6      2504.768 6        40.124               
G23  25066334.017 6 131772235.552 6     -2599.178 6        38.860               
G18  23074113.037 7 121254080.395 7     -1280.342 7        42.293               
G16  22773124.802 7 119960094.049 7     -1081.844 7        43.358               
G29  25845850.131 6 135819602.420 6     -3214.129 6        38.629               
> 2025 01 08 17 44 58.0000000  0  6                                             
G26  22664414.723 7 118795909.157 7      1213.415 7        43.427               
G27  24431669.922 6 128388846.268 6      2506.179 6        39.692               
G23  25065834.614 6 131774840.618 6     -2602.081 6        39.267               
G18  23074360.452 7 121255362.966 7     -1284.439 7        42.692               
G16  22772917.450 7 119961174.070 7     -1079.098 7        43.395               
G29  25846476.368 6 135822815.001 6     -3209.973 6        39.239               
> 2025 01 08 17 44 59.0000000  0  6                                             
G26  22664646.038 7 118794695.649 7      1214.110 7        43.523               
G27  24431201.307 6 128386339.964 6      2505.284 6        39.572               
G23  25065332.869 6 131777445.742 6     -2605.723 6        39.270               
G18  23074608.223 7 121256645.687 7     -1278.783 7        42.320               
G16  22772717.478 7 119962253.976 7     -1080.281 7        43.834               
G29  25847079.376 6 135826027.294 6     -3214.710 6        38.842               
> 2025 01 08 17 45 00.0000000  0  6                                             
G26  22664880.890 7 118793481.541 7      1213.358 7        43.584               
