     3.02           OBSERVATION DATA    E                   RINEX VERSION / TYPE
G = GPS  R = GLONASS  E = GALILEO  S = GEO  M = MIXED       COMMENT             
GNSS-SDR            jmfriedt            20250108 150151 UTC PGM / RUN BY / DATE 
GALILEO OBSERVATION DATA FILE GENERATED BY GNSS-SDR         COMMENT             
GNSS-SDR VERSION 0.0.19.git-main-87fcfd237                  COMMENT             
See https://gnss-sdr.org                                    COMMENT             
DEFAULT MARKER NAME                                         MARKER NAME         
jmfriedt            CTTC                                    OBSERVER / AGENCY   
GNSS-SDR            Software Receiver   0.0.19.gi           REC # / TYPE / VERS 
Antenna number      Antenna type                            ANT # / TYPE        
        0.0000        0.0000        0.0000                  APPROX POSITION XYZ 
        0.0000        0.0000        0.0000                  ANTENNA: DELTA H/E/N
E    4 C1B L1B D1B S1B                                      SYS / # / OBS TYPES 
DBHZ                                                        SIGNAL STRENGTH UNIT
  2025    01    08    14    20   36.1600000     GAL         TIME OF FIRST OBS   
    18    18   137     7                                    LEAP SECONDS        
    18    18   137     7                                    LEAP SECONDS        
                                                            END OF HEADER       
> 2025 01 08 14 20 37.0000000  0  4                                             
E02  27115563.988 6 142489985.900 6      1930.445 6        40.711               
E07  28273782.898 6 148579723.134 6     -2260.926 6        38.511               
E30  26200779.764 6 137686568.998 6      -326.130 6        40.289               
E34  28291874.337 6 148678936.700 6     -2458.518 6        38.975               
> 2025 01 08 14 20 38.0000000  0  4                                             
E02  27115934.217 6 142488056.204 6      1928.814 6        40.879               
E07  28274213.809 6 148581984.333 6     -2262.538 6        38.615               
E30  26200717.419 6 137686894.044 6      -326.385 6        40.051               
E34  28291407.169 6 148681394.827 6     -2458.936 6        38.824               
> 2025 01 08 14 20 39.0000000  0  4                                             
E02  27116300.800 6 142486126.346 6      1930.016 6        40.803               
E07  28274646.347 6 148584245.907 6     -2261.648 6        38.530               
E30  26200659.291 6 137687218.870 6      -324.842 6        39.786               
E34  28290944.504 6 148683852.682 6     -2458.372 6        38.826               
> 2025 01 08 14 20 40.0000000  0  4                                             
E02  27116671.082 6 142484196.098 6      1929.320 6        40.627               
E07  28275076.758 6 148586508.087 6     -2262.230 6        38.603               
E30  26200600.359 6 137687543.244 6      -324.840 6        40.062               
E34  28290475.710 6 148686310.041 6     -2457.219 6        38.820               
> 2025 01 08 14 20 41.0000000  0  4                                             
E02  27117037.736 6 142482265.578 6      1931.312 6        40.380               
E07  28275512.190 6 148588770.706 6     -2262.512 6        38.387               
E30  26200540.408 6 137687867.283 6      -321.929 6        40.120               
E34  28290009.382 6 148688767.026 6     -2458.314 6        39.134               
> 2025 01 08 14 20 42.0000000  0  4                                             
E02  27117409.644 6 142480334.453 6      1930.707 6        40.530               
E07  28275945.604 6 148591034.151 6     -2264.663 6        38.622               
E30  26200482.477 6 137688190.687 6      -324.259 6        39.919               
E34  28289544.663 6 148691223.286 6     -2456.021 6        39.080               
> 2025 01 08 14 20 43.0000000  0  4                                             
E02  27117773.279 6 142478403.275 6      1931.593 6        40.302               
E07  28276376.176 6 148593297.834 6     -2263.897 6        39.126               
E30  26200422.080 6 137688513.936 6      -320.539 6        40.193               
E34  28289079.461 6 148693679.354 6     -2456.170 6        39.016               
> 2025 01 08 14 20 44.0000000  0  4                                             
E02  27118147.349 6 142476471.989 6      1930.058 6        40.858               
E07  28276810.250 6 148595561.826 6     -2263.344 6        39.221               
E30  26200362.201 6 137688837.062 6      -320.739 6        40.262               
E34  28288616.832 6 148696135.236 6     -2455.594 6        39.455               
> 2025 01 08 14 20 45.0000000  0  4                                             
E02  27118517.809 6 142474540.532 6      1931.692 6        40.589               
E07  28277238.785 6 148597826.191 6     -2265.230 6        39.232               
E30  26200299.230 6 137689159.929 6      -324.397 6        40.193               
E34  28288145.876 6 148698590.816 6     -2456.547 6        39.462               
> 2025 01 08 14 20 46.0000000  0  4                                             
E02  27118885.304 6 142472609.001 6      1931.359 6        40.591               
E07  28277670.947 6 148600090.850 6     -2264.885 6        39.402               
E30  26200241.710 6 137689482.663 6      -322.057 6        40.322               
E34  28287681.889 6 148701046.208 6     -2455.216 6        39.295               
> 2025 01 08 14 20 47.0000000  0  4                                             
E02  27119254.799 6 142470677.065 6      1931.575 6        40.704               
E07  28278109.703 6 148602356.094 6     -2263.494 6        39.505               
E30  26200180.741 6 137689804.929 6      -321.039 6        40.211               
E34  28287213.792 6 148703501.098 6     -2455.555 6        39.446               
> 2025 01 08 14 20 48.0000000  0  4                                             
E02  27119627.636 6 142468745.110 6      1932.312 6        40.839               
E07  28278541.079 6 148604621.537 6     -2266.385 6        39.482               
E30  26200121.862 6 137690127.138 6      -322.306 6        40.183               
E34  28286755.183 6 148705955.816 6     -2456.101 6        39.519               
> 2025 01 08 14 20 49.0000000  0  4                                             
E02  27119993.505 6 142466812.751 6      1933.551 6        40.961               
E07  28278968.506 6 148606887.614 6     -2266.555 6        39.052               
E30  26200062.519 6 137690448.872 6      -322.183 6        39.996               
E34  28286288.212 6 148708410.053 6     -2454.020 6        39.649               
> 2025 01 08 14 20 50.0000000  0  4                                             
E02  27120366.020 6 142464879.528 6      1932.559 6        40.847               
E07  28279404.921 6 148609154.747 6     -2267.518 6        38.915               
E30  26200005.124 6 137690769.667 6      -321.077 6        39.782               
E34  28285817.828 6 148710863.306 6     -2453.690 6        39.557               
> 2025 01 08 14 20 51.0000000  0  4                                             
E02  27120735.212 6 142462946.615 6      1934.575 6        40.541               
E07  28279836.458 6 148611421.766 6     -2265.844 6        38.827               
E30  26199943.905 6 137691090.735 6      -321.368 6        39.962               
E34  28285357.164 6 148713316.740 6     -2452.492 6        39.593               
> 2025 01 08 14 20 52.0000000  0  4                                             
E02  27121102.921 6 142461013.661 6      1933.875 6        40.723               
E07  28280269.335 6 148613689.029 6     -2269.436 6        39.078               
E30  26199883.168 6 137691411.704 6      -321.994 6        40.161               
E34  28284891.980 6 148715770.035 6     -2451.723 6        39.367               
> 2025 01 08 14 20 53.0000000  0  4                                             
E02  27121475.204 6 142459080.274 6      1932.553 6        40.362               
E07  28280704.535 6 148615956.914 6     -2268.337 6        39.043               
E30  26199824.897 6 137691732.160 6      -320.477 6        40.086               
E34  28284427.779 6 148718222.761 6     -2452.164 6        39.279               
> 2025 01 08 14 20 54.0000000  0  4                                             
E02  27121840.751 6 142457146.388 6      1933.604 6        40.580               
E07  28281139.718 6 148618225.515 6     -2269.476 6        38.947               
E30  26199767.752 6 137692052.064 6      -319.434 6        40.004               
E34  28283963.738 6 148720674.887 6     -2452.455 6        39.322               
> 2025 01 08 14 20 55.0000000  0  4                                             
E02  27122212.266 6 142455212.472 6      1935.005 6        40.454               
E07  28281572.130 6 148620494.310 6     -2269.389 6        38.987               
E30  26199707.694 6 137692371.902 6      -319.872 6        39.988               
E34  28283496.392 6 148723126.892 6     -2451.841 6        39.076               
> 2025 01 08 14 20 56.0000000  0  5                                             
E02  27122584.156 6 142453278.634 6      1933.732 6        40.208               
E07  28282004.954 6 148622763.239 6     -2270.368 6        39.059               
E29  28998890.374 6 152390253.980 6      -338.992 6        36.577               
E30  26199651.800 6 137692691.727 6      -319.876 6        39.888               
E34  28283027.866 6 148725578.850 6     -2453.358 6        39.107               
> 2025 01 08 14 20 57.0000000  0  5                                             
E02  27122954.027 6 142451344.666 6      1934.622 6        40.194               
E07  28282440.583 6 148625032.505 6     -2269.827 6        38.733               
E29  28998827.725 6 152390592.844 6      -339.123 6        36.566               
E30  26199590.527 6 137693011.408 6      -318.118 6        39.898               
E34  28282566.041 6 148728030.566 6     -2452.522 6        39.153               
> 2025 01 08 14 20 58.0000000  0  5                                             
E02  27123323.326 6 142449410.537 6      1935.426 6        40.323               
E07  28282868.885 6 148627302.108 6     -2268.199 6        38.659               
E29  28998760.752 6 152390931.263 6      -335.752 6        36.502               
E30  26199532.542 6 137693330.824 6      -321.388 6        40.151               
E34  28282100.106 6 148730481.997 6     -2449.719 6        39.513               
> 2025 01 08 14 20 59.0000000  0  5                                             
E02  27123691.302 6 142447476.397 6      1933.648 6        40.468               
E07  28283305.372 6 148629571.971 6     -2271.081 6        38.384               
E29  28998697.764 6 152391269.294 6      -336.812 6        36.458               
E30  26199473.145 6 137693650.182 6      -317.967 6        40.347               
E34  28281634.743 6 148732933.312 6     -2451.569 6        39.320               
> 2025 01 08 14 21 00.0000000  0  5                                             
E02  27124064.086 6 142445541.969 6      1935.495 6        40.533               
E07  28283739.964 6 148631842.268 6     -2270.496 6        38.380               
E29  28998636.312 6 152391606.721 6      -337.974 6        36.423               
E30  26199413.588 6 137693969.189 6      -318.788 6        40.493               
E34  28281174.098 6 148735384.200 6     -2449.637 6        39.648               
> 2025 01 08 14 21 01.0000000  0  5                                             
E02  27124431.723 6 142443607.278 6      1934.186 6        40.417               
E07  28284175.146 6 148634113.030 6     -2270.993 6        38.461               
E29  28998577.380 6 152391943.574 6      -336.416 6        36.709               
E30  26199352.619 6 137694287.888 6      -317.085 6        40.252               
E34  28280708.377 6 148737834.728 6     -2450.094 6        39.399               
> 2025 01 08 14 21 02.0000000  0  5                                             
E02  27124800.701 6 142441672.552 6      1935.503 6        40.612               
E07  28284608.595 6 148636384.048 6     -2271.523 6        38.382               
E29  28998519.699 6 152392280.017 6      -333.951 6        36.721               
E30  26199296.617 6 137694606.468 6      -317.567 6        40.157               
E34  28280246.409 6 148740285.113 6     -2449.534 6        39.188               
> 2025 01 08 14 21 03.0000000  0  5                                             
E02  27125171.769 6 142439737.778 6      1935.184 6        40.484               
E07  28285042.920 6 148638655.324 6     -2271.341 6        38.661               
E29  28998445.953 6 152392616.103 6      -336.309 6        36.213               
E30  26199236.631 6 137694924.953 6      -319.529 6        39.906               
E34  28279780.582 6 148742735.313 6     -2449.719 6        39.482               
> 2025 01 08 14 21 04.0000000  0  5                                             
E02  27125541.372 6 142437802.520 6      1934.848 6        40.415               
E07  28285473.921 6 148640927.245 6     -2271.713 6        38.671               
E29  28998385.771 6 152392951.350 6      -335.569 6        36.078               
E30  26199177.556 6 137695242.883 6      -317.992 6        39.570               
E34  28279314.325 6 148745184.934 6     -2450.111 6        39.612               
> 2025 01 08 14 21 05.0000000  0  5                                             
E02  27125912.493 6 142435867.098 6      1934.633 6        40.587               
E07  28285911.694 6 148643199.545 6     -2272.193 6        38.443               
E29  28998326.571 6 152393286.130 6      -335.806 6        36.076               
E30  26199118.195 6 137695560.632 6      -319.556 6        39.686               
E34  28278853.537 6 148747634.266 6     -2450.030 6        39.635               
> 2025 01 08 14 21 06.0000000  0  5                                             
E02  27126281.167 6 142433931.643 6      1936.040 6        40.345               
E07  28286344.321 6 148645472.081 6     -2272.057 6        38.549               
E29  28998263.350 6 152393620.520 6      -334.319 6        36.049               
E30  26199058.995 6 137695878.241 6      -319.002 6        40.018               
E34  28278388.478 6 148750083.450 6     -2449.767 6        39.590               
> 2025 01 08 14 21 07.0000000  0  5                                             
E02  27126655.559 6 142431995.994 6      1936.693 6        40.340               
E07  28286779.699 6 148647744.998 6     -2273.856 6        38.844               
E29  28998208.278 6 152393954.413 6      -334.920 6        36.283               
E30  26198998.401 6 137696195.631 6      -316.681 6        40.304               
E34  28277921.131 6 148752532.352 6     -2449.337 6        39.727               
> 2025 01 08 14 21 08.0000000  0  5                                             
E02  27127025.680 6 142430060.458 6      1936.739 6        40.611               
E07  28287216.418 6 148650018.019 6     -2272.784 6        38.859               
E29  28998142.216 6 152394288.094 6      -336.059 6        36.187               
E30  26198945.634 6 137696513.066 6      -318.112 6        40.179               
E34  28277458.717 6 148754981.229 6     -2448.873 6        39.371               
> 2025 01 08 14 21 09.0000000  0  5                                             
E02  27127394.961 6 142428124.755 6      1937.254 6        40.654               
E07  28287645.346 6 148652291.377 6     -2273.489 6        38.726               
E29  28998075.439 6 152394621.205 6      -334.955 6        36.011               
E30  26198884.343 6 137696830.246 6      -316.269 6        40.097               
E34  28276995.855 6 148757429.810 6     -2447.661 6        39.829               
> 2025 01 08 14 21 10.0000000  0  5                                             
E02  27127763.009 6 142426188.509 6      1936.618 6        40.801               
E07  28288085.478 6 148654565.463 6     -2273.162 6        38.740               
E29  28998015.721 6 152394953.493 6      -332.081 6        36.032               
E30  26198827.234 6 137697146.856 6      -314.987 6        39.866               
E34  28276529.492 6 148759877.764 6     -2446.872 6        39.627               
> 2025 01 08 14 21 11.0000000  0  5                                             
E02  27128134.042 6 142424252.108 6      1936.145 6        40.652               
E07  28288517.766 6 148656839.953 6     -2274.488 6        38.864               
E29  28997959.845 6 152395285.263 6      -333.018 6        36.188               
E30  26198768.087 6 137697463.218 6      -316.969 6        39.819               
E34  28276068.971 6 148762325.403 6     -2446.603 6        39.543               
> 2025 01 08 14 21 12.0000000  0  5                                             
E02  27128505.861 6 142422315.429 6      1936.038 6        40.763               
E07  28288954.038 6 148659114.887 6     -2275.723 6        39.195               
E29  28997895.355 6 152395616.459 6      -332.278 6        36.346               
E30  26198709.388 6 137697779.264 6      -315.583 6        39.712               
E34  28275600.446 6 148764772.675 6     -2447.148 6        39.113               
> 2025 01 08 14 21 13.0000000  0  5                                             
E02  27128873.373 6 142420378.561 6      1936.643 6        40.625               
E07  28289386.504 6 148661390.223 6     -2276.256 6        39.275               
E29  28997833.511 5 152395947.105 5      -331.658 5        35.828               
E30  26198652.010 6 137698095.050 6      -317.012 6        39.565               
E34  28275138.460 6 148767219.650 6     -2448.187 6        39.062               
> 2025 01 08 14 21 14.0000000  0  5                                             
E02  27129243.279 6 142418441.692 6      1936.647 6        40.647               
E07  28289821.454 6 148663665.732 6     -2275.948 6        39.107               
E29  28997771.577 5 152396277.470 5      -328.787 5        35.882               
E30  26198592.399 6 137698410.791 6      -315.169 6        39.470               
E34  28274669.112 6 148769666.518 6     -2445.565 6        39.027               
> 2025 01 08 14 21 15.0000000  0  5                                             
E02  27129615.634 6 142416504.060 6      1938.273 6        40.526               
E07  28290255.385 6 148665942.199 6     -2277.209 6        38.893               
E29  28997711.680 6 152396606.670 6      -327.042 6        36.096               
E30  26198533.556 6 137698725.706 6      -315.887 6        39.948               
E34  28274210.111 6 148772112.502 6     -2446.618 6        38.813               
> 2025 01 08 14 21 16.0000000  0  5                                             
E02  27129982.163 6 142414566.064 6      1938.429 6        40.535               
E07  28290689.352 6 148668219.272 6     -2276.499 6        39.025               
E29  28997652.605 6 152396935.195 6      -327.394 6        36.014               
E30  26198477.519 6 137699040.172 6      -314.363 6        40.194               
E34  28273740.119 6 148774557.991 6     -2445.580 6        39.074               
> 2025 01 08 14 21 17.0000000  0  5                                             
E02  27130356.359 6 142412628.318 6      1938.455 6        40.555               
E07  28291129.502 6 148670496.237 6     -2277.526 6        39.093               
E29  28997593.833 5 152397263.660 5      -329.486 5        35.884               
E30  26198419.427 6 137699354.872 6      -314.564 6        40.006               
E34  28273279.939 6 148777003.615 6     -2445.118 6        39.278               
> 2025 01 08 14 21 18.0000000  0  5                                             
E02  27130723.388 6 142410690.656 6      1938.920 6        40.682               
E07  28291562.218 6 148672773.364 6     -2277.142 6        39.092               
E29  28997529.148 6 152397591.856 6      -325.846 6        36.067               
E30  26198361.781 6 137699669.566 6      -314.903 6        39.941               
E34  28272821.920 6 148779449.193 6     -2445.861 6        38.836               
> 2025 01 08 14 21 19.0000000  0  5                                             
E02  27131099.907 6 142408752.529 6      1938.139 6        40.758               
E07  28291996.757 6 148675051.100 6     -2276.815 6        38.876               
E29  28997469.251 5 152397919.258 5      -327.040 5        35.774               
E30  26198302.742 6 137699983.751 6      -313.427 6        39.834               
E34  28272354.841 6 148781894.238 6     -2443.532 6        38.779               
> 2025 01 08 14 21 20.0000000  0  5                                             
E02  27131466.865 6 142406814.062 6      1938.967 6        40.575               
E07  28292431.100 6 148677329.403 6     -2277.389 6        38.825               
E29  28997408.353 5 152398246.003 5      -328.080 5        35.659               
E30  26198246.115 6 137700297.522 6      -312.410 6        40.105               
E34  28271893.106 6 148784338.805 6     -2443.815 6        38.947               
> 2025 01 08 14 21 21.0000000  0  5                                             
E02  27131837.433 6 142404875.609 6      1939.497 6        40.913               
E07  28292865.442 6 148679607.881 6     -2277.012 6        38.756               
E29  28997344.721 5 152398572.422 5      -327.127 5        35.600               
E30  26198186.272 6 137700611.264 6      -312.470 6        40.074               
E34  28271428.583 6 148786783.262 6     -2443.137 6        39.327               
> 2025 01 08 14 21 22.0000000  0  5                                             
E02  27132208.090 6 142402936.819 6      1939.930 6        40.296               
E07  28293303.608 6 148681886.912 6     -2279.536 6        38.420               
E29  28997281.554 5 152398898.167 5      -325.495 5        35.578               
E30  26198128.894 6 137700924.591 6      -313.366 6        40.202               
E34  28270965.471 6 148789227.257 6     -2442.776 6        39.253               
> 2025 01 08 14 21 23.0000000  0  5                                             
E02  27132579.962 6 142400997.434 6      1940.153 6        40.337               
E07  28293734.395 6 148684166.733 6     -2279.410 6        39.027               
E29  28997226.214 5 152399222.967 5      -327.299 5        35.486               
E30  26198073.358 6 137701237.256 6      -312.390 6        39.416               
E34  28270501.341 6 148791670.549 6     -2442.774 6        39.076               
> 2025 01 08 14 21 24.0000000  0  5                                             
E02  27132953.353 6 142399058.110 6      1938.753 6        40.428               
E07  28294172.954 6 148686446.691 6     -2280.279 6        39.066               
E29  28997163.351 5 152399547.489 5      -324.044 5        35.361               
E30  26198015.122 6 137701549.931 6      -311.459 6        39.380               
E34  28270039.302 6 148794113.773 6     -2444.336 6        39.094               
> 2025 01 08 14 21 25.0000000  0  5                                             
E02  27133318.650 6 142397118.749 6      1939.470 6        40.634               
E07  28294609.548 6 148688726.858 6     -2280.278 6        38.856               
E29  28997104.687 5 152399871.670 5      -322.665 5        35.655               
E30  26197956.155 6 137701862.524 6      -311.991 6        40.403               
E34  28269573.903 6 148796556.871 6     -2442.963 6        39.212               
> 2025 01 08 14 21 26.0000000  0  5                                             
E02  27133696.025 6 142395179.135 6      1939.335 6        40.234               
E07  28295044.391 6 148691007.483 6     -2280.597 6        38.710               
E29  28997046.863 5 152400195.277 5      -323.047 5        35.732               
E30  26197898.152 6 137702174.818 6      -312.596 6        40.178               
E34  28269116.903 6 148798999.598 6     -2441.488 6        38.850               
> 2025 01 08 14 21 27.0000000  0  5                                             
E02  27134063.645 6 142393239.332 6      1939.281 6        40.269               
E07  28295478.822 6 148693288.500 6     -2280.950 6        38.185               
E29  28996994.363 5 152400518.325 5      -321.109 5        35.683               
E30  26197842.293 6 137702486.830 6      -309.628 6        40.261               
E34  28268653.702 6 148801442.015 6     -2442.754 6        38.818               
> 2025 01 08 14 21 28.0000000  0  5                                             
E02  27134433.891 6 142391299.302 6      1939.470 6        40.557               
E07  28295918.043 6 148695569.934 6     -2281.822 6        38.190               
E29  28996921.529 5 152400840.845 5      -323.031 5        35.530               
E30  26197785.756 6 137702798.572 6      -311.677 6        40.125               
E34  28268190.198 6 148803884.070 6     -2442.488 6        38.872               
> 2025 01 08 14 21 29.0000000  0  5                                             
E02  27134807.228 6 142389358.758 6      1939.490 6        40.647               
E07  28296354.530 6 148697852.103 6     -2282.396 6        38.405               
E29  28996871.210 5 152401162.441 5      -319.982 5        35.935               
E30  26197725.162 6 137703109.726 6      -311.518 6        39.947               
E34  28267729.838 6 148806325.491 6     -2441.611 6        39.305               
> 2025 01 08 14 21 30.0000000  0  5                                             
E02  27135180.352 6 142387417.985 6      1939.693 6        40.737               
E07  28296791.052 6 148700134.653 6     -2282.544 6        38.354               
E29  28996805.774 5 152401483.569 5      -322.318 5        35.866               
E30  26197669.964 6 137703420.603 6      -309.364 6        39.861               
E34  28267263.546 6 148808766.596 6     -2441.034 6        39.193               
> 2025 01 08 14 21 31.0000000  0  5                                             
E02  27135550.365 6 142385477.295 6      1941.315 6        40.727               
E07  28297227.449 6 148702417.362 6     -2282.328 6        38.384               
E29  28996753.078 5 152401804.389 5      -320.667 5        35.812               
E30  26197612.515 6 137703731.493 6      -312.395 6        39.994               
E34  28266802.614 6 148811207.651 6     -2441.420 6        39.255               
> 2025 01 08 14 21 32.0000000  0  5                                             
E02  27135921.648 6 142383536.580 6      1940.933 6        40.741               
E07  28297661.988 6 148704700.279 6     -2283.481 6        38.392               
E29  28996686.569 5 152402124.896 5      -319.967 5        35.695               
E30  26197553.959 6 137704042.310 6      -309.870 6        39.882               
E34  28266336.018 6 148813648.560 6     -2440.522 6        39.432               
> 2025 01 08 14 21 33.0000000  0  5                                             
E02  27136290.232 6 142381595.677 6      1940.785 6        40.631               
E07  28298096.098 6 148706983.582 6     -2284.191 6        38.549               
E29  28996633.713 5 152402444.862 5      -320.238 5        35.720               
E30  26197497.278 6 137704352.869 6      -309.053 6        40.021               
E34  28265877.160 6 148816089.152 6     -2440.112 6        39.308               
> 2025 01 08 14 21 34.0000000  0  5                                             
E02  27136661.676 6 142379654.777 6      1940.346 6        40.566               
E07  28298537.231 6 148709267.059 6     -2283.829 6        38.837               
E29  28996576.997 5 152402764.501 5      -320.590 5        35.692               
E30  26197441.831 6 137704663.365 6      -311.216 6        40.073               
E34  28265413.780 6 148818529.666 6     -2439.472 6        39.148               
> 2025 01 08 14 21 35.0000000  0  5                                             
E02  27137037.211 6 142377713.848 6      1941.153 6        40.533               
E07  28298969.411 6 148711550.772 6     -2285.880 6        38.644               
E29  28996511.364 5 152403083.774 5      -318.130 5        35.550               
E30  26197383.863 6 137704973.787 6      -309.057 6        39.987               
E34  28264949.847 6 148820970.029 6     -2439.884 6        39.128               
> 2025 01 08 14 21 36.0000000  0  5                                             
E02  27137405.170 6 142375772.506 6      1941.958 6        40.285               
E07  28299408.203 6 148713835.125 6     -2284.583 6        38.613               
E29  28996454.880 5 152403402.262 5      -318.354 5        35.732               
E30  26197327.129 6 137705283.717 6      -309.206 6        39.961               
E34  28264490.845 6 148823409.818 6     -2440.819 6        39.124               
> 2025 01 08 14 21 37.0000000  0  5                                             
E02  27137777.650 6 142373830.594 6      1942.222 6        40.223               
E07  28299846.190 6 148716120.190 6     -2286.210 6        38.558               
E29  28996398.628 5 152403719.925 5      -317.097 5        35.950               
E30  26197269.770 6 137705593.041 6      -308.085 6        39.937               
E34  28264024.142 6 148825848.977 6     -2440.457 6        39.414               
> 2025 01 08 14 21 38.0000000  0  5                                             
E02  27138150.130 6 142371888.740 6      1942.018 6        40.329               
E07  28300280.550 6 148718405.377 6     -2285.919 6        38.969               
E29  28996338.856 5 152404037.282 5      -315.741 5        35.924               
E30  26197212.142 6 137705902.370 6      -310.256 6        40.052               
E34  28263561.995 6 148828288.044 6     -2437.337 6        39.709               
> 2025 01 08 14 21 39.0000000  0  5                                             
E02  27138515.623 6 142369946.802 6      1942.231 6        40.528               
E07  28300716.555 6 148720690.921 6     -2286.057 6        38.796               
E29  28996280.603 5 152404354.186 5      -315.502 5        35.637               
E30  26197155.694 6 137706211.523 6      -308.966 6        39.959               
E34  28263101.136 6 148830726.903 6     -2439.295 6        39.711               
> 2025 01 08 14 21 40.0000000  0  5                                             
E02  27138888.460 6 142368005.366 6      1941.184 6        40.888               
E07  28301157.651 6 148722976.112 6     -2285.542 6        38.829               
E29  28996217.954 5 152404671.272 5      -314.901 5        35.569               
E30  26197096.619 6 137706521.127 6      -309.753 6        39.875               
E34  28262643.867 6 148833166.161 6     -2440.063 6        39.301               
> 2025 01 08 14 21 41.0000000  0  5                                             
E02  27139262.065 6 142366062.671 6      1943.753 6        40.686               
E07  28301590.064 6 148725262.753 6     -2288.898 6        38.754               
E29  28996156.038 5 152404986.774 5      -315.987 5        35.551               
E30  26197040.921 6 137706829.420 6      -305.503 6        39.966               
E34  28262174.877 6 148835604.041 6     -2435.459 6        39.383               
> 2025 01 08 14 21 42.0000000  0  5                                             
E02  27139634.027 6 142364118.696 6      1941.964 6        40.875               
E07  28302026.729 6 148727550.873 6     -2285.244 6        38.560               
E29  28996101.270 5 152405300.699 5      -316.057 5        35.476               
E30  26196987.028 6 137707136.356 6      -306.780 6        39.752               
E34  28261715.375 6 148838040.514 6     -2437.343 6        39.258               
> 2025 01 08 14 21 43.0000000  0  5                                             
E02  27140004.184 6 142362175.510 6      1942.235 6        40.990               
E07  28302467.880 6 148729838.423 6     -2287.009 6        38.665               
E29  28996052.702 5 152405615.029 5      -314.113 5        35.665               
E30  26196928.096 6 137707444.036 6      -307.217 6        39.663               
E34  28261253.890 6 148840477.668 6     -2438.191 6        39.537               
> 2025 01 08 14 21 44.0000000  0  5                                             
E02  27140375.627 6 142360233.934 6      1940.025 6        40.767               
E07  28302904.563 6 148732124.516 6     -2285.296 6        38.711               
E29  28995986.050 5 152405930.657 5      -316.975 5        35.474               
E30  26196869.843 6 137707753.276 6      -310.380 6        39.755               
E34  28260789.527 6 148842916.290 6     -2437.706 6        39.641               
> 2025 01 08 14 21 45.0000000  0  5                                             
E02  27140747.732 6 142358291.209 6      1943.951 6        40.643               
E07  28303341.157 6 148734412.004 6     -2290.017 6        38.589               
E29  28995928.816 5 152406244.801 5      -312.501 5        35.394               
E30  26196814.217 6 137708061.282 6      -305.597 6        40.146               
E34  28260324.379 6 148845353.682 6     -2435.585 6        39.763               
> 2025 01 08 14 21 46.0000000  0  5                                             
E02  27141118.871 6 142356348.779 6      1942.146 6        40.354               
E07  28303779.359 6 148736699.348 6     -2286.070 6        38.465               
E29  28995871.867 5 152406558.901 5      -316.846 5        35.168               
E30  26196757.483 6 137708369.545 6      -309.055 6        40.037               
E34  28259864.001 6 148847791.257 6     -2438.937 6        39.846               
> 2025 01 08 14 21 47.0000000  0  5                                             
E02  27141490.225 6 142354405.756 6      1942.136 6        40.366               
E07  28304216.042 6 148738987.517 6     -2288.739 6        38.641               
E29  28995810.451 5 152406872.078 5      -312.068 5        35.527               
E30  26196700.284 6 137708677.145 6      -309.696 6        40.077               
E34  28259406.036 6 148850228.072 6     -2436.856 6        39.841               
> 2025 01 08 14 21 48.0000000  0  5                                             
E02  27141861.186 6 142352461.357 6      1944.286 6        40.210               
E07  28304650.223 6 148741277.212 6     -2290.960 6        38.532               
E29  28995755.826 5 152407183.548 5      -309.089 5        35.466               
E30  26196644.783 6 137708983.296 6      -305.419 6        40.099               
E34  28258946.177 6 148852663.426 6     -2433.023 6        39.654               
> 2025 01 08 14 21 49.0000000  0  5                                             
E02  27142230.950 6 142350517.356 6      1941.553 6        40.213               
E07  28305090.212 6 148743566.757 6     -2288.186 6        38.464               
E29  28995698.591 5 152407495.080 5      -311.512 5        35.242               
E30  26196587.941 6 137709289.796 6      -307.906 6        40.027               
E34  28258481.493 6 148855099.053 6     -2437.243 6        39.654               
> 2025 01 08 14 21 50.0000000  0  5                                             
E02  27142605.717 6 142348576.293 6      1940.605 6        40.395               
E07  28305527.324 6 148745853.530 6     -2285.415 6        38.309               
E29  28995641.518 5 152407809.234 5      -316.454 5        35.148               
E30  26196530.457 6 137709599.187 6      -310.267 6        39.973               
E34  28258019.132 6 148857537.501 6     -2438.673 6        39.519               
> 2025 01 08 14 21 51.0000000  0  5                                             
E02  27142974.408 6 142346633.757 6      1942.900 6        40.693               
E07  28305960.809 6 148748141.946 6     -2289.260 6        38.515               
E29  28995581.049 5 152408121.580 5      -308.181 5        34.800               
E30  26196474.205 6 137709907.042 6      -306.202 6        39.909               
E34  28257557.039 6 148859974.373 6     -2438.389 6        39.845               
> 2025 01 08 14 21 52.0000000  0  5                                             
E02  27143345.494 6 142344690.526 6      1942.636 6        40.183               
E07  28306404.032 6 148750431.304 6     -2288.975 6        38.751               
E29  28995527.799 5 152408432.860 5      -311.528 5        35.100               
E30  26196416.488 6 137710214.129 6      -305.622 6        40.058               
E34  28257097.823 6 148862410.401 6     -2435.312 6        39.830               
> 2025 01 08 14 21 53.0000000  0  5                                             
E02  27143719.064 6 142342747.067 6      1943.784 6        40.489               
E07  28306838.964 6 148752721.048 6     -2289.010 6        38.558               
E29  28995473.102 5 152408743.594 5      -308.850 5        35.297               
E30  26196357.949 6 137710520.943 6      -308.476 6        39.999               
E34  28256634.890 6 148864846.106 6     -2435.239 6        39.441               
> 2025 01 08 14 21 54.0000000  0  5                                             
E02  27144091.794 6 142340803.426 6      1944.411 6        40.214               
E07  28307277.113 6 148755011.203 6     -2292.061 6        38.373               
E29  28995413.580 5 152409053.827 5      -307.154 5        35.605               
E30  26196302.555 6 137710827.507 6      -307.452 6        40.109               
E34  28256173.012 6 148867281.499 6     -2434.886 6        39.582               
> 2025 01 08 14 21 55.0000000  0  5                                             
E02  27144460.361 6 142338859.455 6      1945.260 6        40.440               
E07  28307715.154 6 148757301.853 6     -2292.030 6        38.323               
E29  28995357.507 5 152409363.413 5      -309.106 5        35.237               
E30  26196247.948 6 137711133.686 6      -306.433 6        40.071               
E34  28255709.578 6 148869716.458 6     -2437.629 6        39.577               
> 2025 01 08 14 21 56.0000000  0  5                                             
E02  27144833.948 6 142336915.602 6      1943.790 6        40.457               
E07  28308153.052 6 148759592.587 6     -2293.131 6        38.545               
E29  28995303.150 5 152409672.728 5      -310.554 5        35.355               
E30  26196188.354 6 137711439.913 6      -305.044 6        39.917               
E34  28255248.665 6 148872151.397 6     -2434.098 6        39.499               
> 2025 01 08 14 21 57.0000000  0  5                                             
E02  27145207.107 6 142334970.703 6      1944.972 6        40.625               
E07  28308592.291 6 148761884.556 6     -2292.349 6        38.385               
E29  28995243.807 5 152409980.723 5      -307.809 5        35.508               
E30  26196133.121 6 137711745.042 6      -305.503 6        39.878               
E34  28254787.537 6 148874585.182 6     -2433.869 6        39.557               
> 2025 01 08 14 21 58.0000000  0  5                                             
E02  27145579.140 6 142333025.921 6      1945.530 6        40.721               
E07  28309020.629 6 148764176.604 6     -2290.990 6        38.503               
E29  28995185.429 5 152410288.440 5      -305.050 5        35.451               
E30  26196078.460 6 137712050.215 6      -304.561 6        40.048               
E34  28254327.963 6 148877018.955 6     -2433.709 6        39.566               
> 2025 01 08 14 21 59.0000000  0  5                                             
E02  27145949.994 6 142331081.298 6      1944.667 6        40.602               
E07  28309464.388 6 148766468.687 6     -2290.501 6        38.537               
E29  28995125.603 5 152410596.054 5      -306.106 5        35.356               
E30  26196021.315 6 137712355.506 6      -306.291 6        39.943               
E34  28253865.853 6 148879452.767 6     -2434.458 6        39.284               
> 2025 01 08 14 22 00.0000000  0  5                                             
E02  27146324.350 6 142329136.296 6      1944.895 6        40.269               
E07  28309901.340 6 148768761.348 6     -2292.722 6        38.610               
E29  28995071.799 5 152410902.892 5      -306.179 5        35.246               
E30  26195964.741 6 137712660.345 6      -304.551 6        39.936               
E34  28253404.099 6 148881886.100 6     -2432.042 6        39.228               
> 2025 01 08 14 22 01.0000000  0  5                                             
E02  27146696.419 6 142327191.319 6      1945.844 6        40.453               
E07  28310340.775 6 148771054.207 6     -2291.814 6        38.811               
E29  28995013.761 5 152411209.423 5      -308.226 5        35.344               
E30  26195907.650 6 137712965.150 6      -304.427 6        39.993               
E34  28252947.063 6 148884319.323 6     -2434.139 6        39.456               
> 2025 01 08 14 22 02.0000000  0  5                                             
E02  27147066.933 6 142325246.478 6      1943.028 6        40.288               
E07  28310779.155 6 148773347.107 6     -2292.931 6        38.766               
E29  28994962.495 5 152411515.774 5      -305.347 5        35.343               
E30  26195851.434 6 137713270.030 6      -304.945 6        39.909               
E34  28252484.952 6 148886752.564 6     -2431.970 6        39.441               
> 2025 01 08 14 22 03.0000000  0  5                                             
E02  27147437.965 6 142323301.358 6      1945.924 6        40.298               
E07  28311213.569 6 148775640.461 6     -2294.531 6        38.891               
E29  28994900.150 5 152411821.531 5      -305.246 5        35.241               
E30  26195796.469 6 137713574.572 6      -305.216 6        39.741               
E34  28252017.409 6 148889185.424 6     -2432.398 6        39.541               
> 2025 01 08 14 22 04.0000000  0  5                                             
E02  27147811.160 6 142321355.852 6      1947.321 6        40.175               
E07  28311650.252 6 148777934.409 6     -2295.716 6        39.049               
E29  28994847.132 5 152412126.548 5      -307.726 5        35.002               
E30  26195741.182 6 137713878.675 6      -305.148 6        39.848               
E34  28251559.194 6 148891617.763 6     -2430.678 6        39.439               
> 2025 01 08 14 22 05.0000000  0  5                                             
E02  27148186.963 6 142319410.150 6      1945.308 6        40.226               
E07  28312093.779 6 148780228.736 6     -2294.350 6        38.867               
E29  28994785.020 5 152412431.028 5      -303.831 5        35.371               
E30  26195682.357 6 137714182.503 6      -301.968 6        39.878               
E34  28251097.655 6 148894049.790 6     -2431.718 6        39.577               
> 2025 01 08 14 22 06.0000000  0  5                                             
E02  27148553.510 6 142317464.834 6      1946.048 6        40.117               
E07  28312531.320 6 148782522.882 6     -2292.282 6        38.584               
E29  28994728.643 5 152412735.587 5      -305.553 5        34.892               
E30  26195624.283 6 137714486.666 6      -303.197 6        39.477               
E34  28250636.527 6 148896482.064 6     -2431.628 6        39.647               
> 2025 01 08 14 22 07.0000000  0  5                                             
E02  27148925.686 6 142315519.395 6      1946.440 6        40.226               
E07  28312969.665 6 148784817.339 6     -2293.019 6        38.322               
E29  28994678.216 5 152413039.682 5      -304.232 5        34.901               
E30  26195573.517 6 137714790.657 6      -302.738 6        39.521               
E34  28250176.185 6 148898914.129 6     -2432.144 6        39.584               
> 2025 01 08 14 22 08.0000000  0  5                                             
E02  27149297.755 6 142313573.988 6      1944.115 6        40.401               
E07  28313403.329 6 148787111.963 6     -2295.143 6        38.286               
E29  28994622.519 5 152413343.447 5      -301.915 5        35.301               
E30  26195518.695 6 137715094.613 6      -305.873 6        39.639               
E34  28249714.682 6 148901346.102 6     -2433.818 6        39.839               
> 2025 01 08 14 22 09.0000000  0  5                                             
E02  27149665.410 6 142311628.653 6      1946.051 6        40.291               
E07  28313846.891 6 148789406.724 6     -2296.203 6        38.389               
E29  28994565.945 5 152413646.953 5      -303.716 5        35.506               
E30  26195458.994 6 137715398.567 6      -305.394 6        39.675               
E34  28249254.233 6 148903778.002 6     -2431.409 6        39.500               
> 2025 01 08 14 22 10.0000000  0  5                                             
E02  27150041.696 6 142309683.442 6      1945.084 6        40.668               
E07  28314284.629 6 148791701.519 6     -2294.540 6        38.101               
E29  28994505.155 5 152413950.278 5      -306.193 5        35.399               
E30  26195406.388 6 137715702.606 6      -302.109 6        39.889               
E34  28248792.390 6 148906209.928 6     -2431.624 6        39.305               
> 2025 01 08 14 22 11.0000000  0  5                                             
E02  27150415.355 6 142307737.750 6      1945.414 6        40.401               
E07  28314725.511 6 148793997.040 6     -2297.414 6        38.074               
E29  28994451.298 5 152414252.761 5      -299.240 5        35.040               
E30  26195348.725 6 137716006.080 6      -301.822 6        39.807               
E34  28248333.049 6 148908641.235 6     -2431.170 6        39.433               
> 2025 01 08 14 22 12.0000000  0  5                                             
E02  27150786.763 6 142305791.139 6      1947.316 6        40.399               
E07  28315160.729 6 148796293.620 6     -2297.273 6        38.037               
E29  28994396.082 5 152414554.011 5      -298.663 5        35.035               
E30  26195291.240 6 137716308.596 6      -301.975 6        39.995               
E34  28247868.687 6 148911071.511 6     -2429.270 6        39.647               
> 2025 01 08 14 22 13.0000000  0  5                                             
E02  27151157.831 6 142303843.613 6      1949.764 6        40.469               
E07  28315603.845 6 148798591.312 6     -2298.133 6        38.240               
E29  28994342.100 5 152414854.029 5      -298.707 5        35.144               
E30  26195238.455 6 137716610.145 6      -302.065 6        39.982               
E34  28247410.311 6 148913500.775 6     -2429.006 6        39.560               
> 2025 01 08 14 22 14.0000000  0  5                                             
E02  27151528.864 6 142301895.870 6      1947.457 6        40.190               
E07  28316042.190 6 148800889.456 6     -2298.445 6        38.237               
E29  28994287.278 5 152415153.452 5      -299.964 5        35.498               
E30  26195180.130 6 137716911.395 6      -302.337 6        39.713               
E34  28246952.506 6 148915929.651 6     -2427.362 6        39.450               
> 2025 01 08 14 22 15.0000000  0  5                                             
E02  27151903.309 6 142299948.071 6      1946.766 6        39.991               
E07  28316478.391 6 148803187.827 6     -2299.590 6        38.209               
E29  28994227.184 5 152415452.535 5      -297.250 5        35.467               
E30  26195127.274 6 137717212.531 6      -301.341 6        39.744               
E34  28246491.325 6 148918358.387 6     -2428.623 6        39.475               
> 2025 01 08 14 22 16.0000000  0  5                                             
E02  27152274.163 6 142298000.665 6      1946.774 6        40.098               
E07  28316913.716 6 148805485.993 6     -2296.333 6        37.858               
E29  28994175.882 5 152415751.633 5      -299.510 5        35.314               
E30  26195070.004 6 137717513.992 6      -303.735 6        39.790               
E34  28246030.393 6 148920787.384 6     -2429.184 6        39.293               
> 2025 01 08 14 22 17.0000000  0  5                                             
E02  27152648.733 6 142296053.224 6      1947.709 6        40.181               
E07  28317354.116 6 148807784.384 6     -2297.520 6        37.764               
E29  28994120.899 5 152416050.356 5      -296.368 5        35.591               
E30  26195015.628 6 137717815.377 6      -300.705 6        39.693               
E34  28245568.944 6 148923216.239 6     -2427.509 6        39.702               
> 2025 01 08 14 22 18.0000000  0  5                                             
E02  27153021.356 6 142294105.421 6      1949.430 6        40.035               
E07  28317798.090 6 148810083.352 6     -2296.933 6        37.821               
E29  28994067.864 5 152416348.408 5      -297.383 5        35.573               
E30  26194958.858 6 137718116.334 6      -300.956 6        39.701               
E34  28245112.605 6 148925644.606 6     -2427.194 6        39.772               
> 2025 01 08 14 22 19.0000000  0  5                                             
E02  27153391.852 6 142292157.280 6      1948.379 6        39.952               
E07  28318236.971 6 148812382.834 6     -2299.176 6        37.977               
E29  28994014.329 5 152416645.806 5      -301.843 5        35.218               
E30  26194903.214 6 137718416.878 6      -300.690 6        39.768               
E34  28244645.776 6 148928072.505 6     -2426.418 6        39.748               
> 2025 01 08 14 22 20.0000000  0  5                                             
E02  27153764.850 6 142290208.885 6      1948.840 6        40.159               
E07  28318676.513 6 148814682.764 6     -2299.077 6        37.858               
E29  28993955.522 5 152416942.603 5      -296.983 5        35.103               
E30  26194850.983 6 137718717.121 6      -299.116 6        39.619               
E34  28244189.652 6 148930500.041 6     -2428.025 6        39.403               
> 2025 01 08 14 22 21.0000000  0  5                                             
E02  27154137.509 6 142288260.180 6      1949.150 6        40.438               
E07  28319116.216 6 148816983.223 6     -2300.422 6        37.883               
E29  28993900.271 5 152417238.708 5      -298.130 5        35.077               
E30  26194794.749 6 137719016.985 6      -300.470 6        39.694               
E34  28243724.092 6 148932927.138 6     -2426.278 6        39.291               
> 2025 01 08 14 22 22.0000000  0  5                                             
E02  27154514.045 6 142286311.188 6      1949.901 6        40.661               
E07  28319557.045 6 148819284.134 6     -2300.956 6        37.755               
E29  28993849.219 5 152417534.259 5      -297.125 5        35.064               
E30  26194738.390 6 137719316.503 6      -299.601 6        39.903               
E34  28243263.875 6 148935353.829 6     -2427.381 6        39.311               
> 2025 01 08 14 22 23.0000000  0  5                                             
E02  27154885.417 6 142284361.699 6      1950.015 6        40.512               
E07  28319994.854 6 148821585.746 6     -2299.701 6        37.851               
E29  28993796.291 5 152417828.934 5      -294.138 5        35.223               
E30  26194683.532 6 137719615.469 6      -297.757 6        40.053               
E34  28242806.571 6 148937779.902 6     -2425.242 6        39.240               
> 2025 01 08 14 22 24.0000000  0  5                                             
E02  27155255.180 6 142282411.963 6      1950.337 6        40.383               
E07  28320434.450 6 148823887.786 6     -2302.260 6        37.673               
E29  28993742.559 5 152418123.035 5      -295.391 5        35.594               
E30  26194627.245 6 137719914.119 6      -298.387 6        40.274               
E34  28242349.142 6 148940205.600 6     -2425.987 6        39.177               
> 2025 01 08 14 22 25.0000000  0  5                                             
E02  27155630.555 6 142280462.133 6      1951.383 6        40.335               
E07  28320875.153 6 148826190.121 6     -2300.709 6        37.744               
E29  28993691.149 5 152418416.715 5      -290.978 5        35.469               
E30  26194574.120 6 137720212.623 6      -297.395 6        39.973               
E34  28241886.871 6 148942631.091 6     -2425.403 6        39.214               
> 2025 01 08 14 22 26.0000000  0  5                                             
E02  27156005.393 6 142278512.169 6      1949.556 6        40.655               
E07  28321315.786 6 148828492.783 6     -2303.693 6        37.851               
E29  28993634.183 5 152418709.927 5      -291.216 5        35.525               
E30  26194518.994 6 137720510.923 6      -296.856 6        39.903               
E34  28241428.959 6 148945056.337 6     -2425.745 6        38.814               
> 2025 01 08 14 22 27.0000000  0  5                                             
E02  27156376.783 6 142276562.094 6      1951.769 6        40.500               
E07  28321754.113 6 148830795.748 6     -2301.577 6        37.805               
E29  28993576.752 6 152419002.685 6      -292.866 6        36.063               
E30  26194463.654 6 137720809.066 6      -297.877 6        39.990               
E34  28240969.940 6 148947481.336 6     -2424.662 6        38.811               
> 2025 01 08 14 22 28.0000000  0  5                                             
E02  27156749.888 6 142274612.091 6      1949.554 6        40.490               
E07  28322193.780 6 148833098.852 6     -2302.860 6        37.733               
E29  28993528.273 6 152419295.202 6      -291.901 6        36.089               
E30  26194406.384 6 137721107.225 6      -298.875 6        39.921               
E34  28240510.884 6 148949906.305 6     -2425.056 6        38.946               
> 2025 01 08 14 22 29.0000000  0  5                                             
E02  27157122.922 6 142272662.134 6      1950.502 6        40.167               
E07  28322636.521 6 148835402.100 6     -2305.270 6        37.712               
E29  28993472.665 6 152419587.407 6      -291.695 6        36.024               
E30  26194356.511 6 137721405.326 6      -298.977 6        39.895               
E34  28240048.666 6 148952331.170 6     -2424.852 6        39.134               
> 2025 01 08 14 22 30.0000000  0  5                                             
E02  27157494.866 6 142270711.641 6      1950.959 6        40.076               
E07  28323077.260 6 148837706.049 6     -2303.102 6        37.726               
E29  28993420.755 6 152419878.751 6      -290.374 6        36.085               
E30  26194300.492 6 137721702.878 6      -297.274 6        39.680               
E34  28239594.722 6 148954755.363 6     -2422.994 6        38.946               
> 2025 01 08 14 22 31.0000000  0  5                                             
E02  27157872.331 6 142268760.905 6      1949.855 6        40.660               
E07  28323514.819 6 148840010.450 6     -2304.893 6        37.884               
E29  28993366.040 6 152420169.539 6      -291.081 6        36.258               
E30  26194244.616 6 137722000.103 6      -298.127 6        39.780               
E34  28239131.235 6 148957179.225 6     -2424.256 6        39.175               
> 2025 01 08 14 22 32.0000000  0  5                                             
E02  27158239.593 6 142266810.003 6      1951.241 6        40.682               
E07  28323955.165 6 148842315.201 6     -2304.718 6        37.956               
E29  28993312.415 6 152420459.795 6      -290.888 6        36.136               
E30  26194192.420 6 137722297.109 6      -295.034 6        39.854               
E34  28238673.180 6 148959602.810 6     -2423.046 6        39.192               
> 2025 01 08 14 22 33.0000000  0  5                                             
E02  27158613.252 6 142264858.915 6      1951.040 6        40.387               
E07  28324398.121 6 148844620.364 6     -2303.764 6        37.862               
E29  28993258.451 6 152420749.540 6      -289.513 6        36.388               
E30  26194135.918 6 137722593.864 6      -298.935 6        40.131               
E34  28238213.464 6 148962026.046 6     -2423.655 6        39.279               
> 2025 01 08 14 22 34.0000000  0  5                                             
E02  27158990.539 6 142262907.752 6      1951.564 6        40.575               
E07  28324838.306 6 148846925.754 6     -2304.428 6        37.951               
E29  28993202.771 6 152421038.882 6      -286.706 6        36.194               
E30  26194080.507 6 137722890.479 6      -297.746 6        40.100               
E34  28237755.249 6 148964449.117 6     -2422.737 6        39.203               
> 2025 01 08 14 22 35.0000000  0  5                                             
E02  27159363.108 6 142260956.412 6      1952.736 6        40.581               
E07  28325278.456 6 148849231.535 6     -2306.292 6        37.653               
E29  28993152.130 6 152421327.694 6      -291.128 6        36.455               
E30  26194027.507 6 137723186.876 6      -295.673 6        39.864               
E34  28237294.407 6 148966871.890 6     -2423.531 6        39.274               
> 2025 01 08 14 22 36.0000000  0  5                                             
E02  27159730.960 6 142259004.597 6      1952.687 6        40.581               
E07  28325716.104 6 148851537.986 6     -2307.578 6        37.941               
E29  28993105.081 6 152421615.703 6      -290.014 6        36.169               
E30  26193972.560 6 137723482.720 6      -296.371 6        39.723               
E34  28236834.512 6 148969294.039 6     -2422.860 6        39.385               
> 2025 01 08 14 22 37.0000000  0  5                                             
E02  27160107.013 6 142257052.575 6      1952.309 6        40.797               
E07  28326160.435 6 148853844.817 6     -2307.459 6        37.987               
E29  28993048.097 6 152421903.151 6      -286.377 6        36.309               
E30  26193917.702 6 137723778.290 6      -297.602 6        39.999               
E34  28236380.013 6 148971715.880 6     -2423.863 6        39.288               
> 2025 01 08 14 22 38.0000000  0  5                                             
E02  27160481.995 6 142255101.042 6      1951.366 6        40.848               
E07  28326596.332 6 148856151.357 6     -2306.612 6        37.942               
E29  28992994.240 5 152422190.809 5      -286.864 5        35.961               
E30  26193862.236 6 137724074.318 6      -296.999 6        39.922               
E34  28235917.348 6 148974138.106 6     -2421.919 6        39.430               
> 2025 01 08 14 22 39.0000000  0  5                                             
E02  27160854.010 6 142253149.062 6      1953.027 6        40.727               
E07  28327040.073 6 148858458.550 6     -2306.320 6        37.955               
E29  28992944.671 6 152422477.640 6      -288.297 6        36.024               
E30  26193808.844 6 137724369.790 6      -294.422 6        39.919               
E34  28235461.563 6 148976559.718 6     -2422.143 6        39.343               
> 2025 01 08 14 22 40.0000000  0  5                                             
E02  27161227.883 6 142251196.596 6      1954.020 6        40.849               
E07  28327484.226 6 148860766.434 6     -2309.704 6        38.108               
