     3.02           OBSERVATION DATA    G                   RINEX VERSION / TYPE
G = GPS  R = GLONASS  E = GALILEO  S = GEO  M = MIXED       COMMENT             
GNSS-SDR            jmfriedt            20250108 154501 UTC PGM / RUN BY / DATE 
GPS OBSERVATION DATA FILE GENERATED BY GNSS-SDR             COMMENT             
GNSS-SDR VERSION 0.0.19.git-main-87fcfd237                  COMMENT             
See https://gnss-sdr.org                                    COMMENT             
DEFAULT MARKER NAME                                         MARKER NAME         
jmfriedt            CTTC                                    OBSERVER / AGENCY   
GNSS-SDR            Software Receiver   0.0.19.gi           REC # / TYPE / VERS 
Antenna number      Antenna type                            ANT # / TYPE        
        0.0000        0.0000        0.0000                  APPROX POSITION XYZ 
        0.0000        0.0000        0.0000                  ANTENNA: DELTA H/E/N
G    4 C1C L1C D1C S1C                                      SYS / # / OBS TYPES 
DBHZ                                                        SIGNAL STRENGTH UNIT
  2025    01    08    14    20   48.1200000     GPS         TIME OF FIRST OBS   
    18    18   137     7                                    LEAP SECONDS        
                                                            END OF HEADER       
> 2025 01 08 14 20 49.0000000  0  4                                             
G25  22406091.675 7 117742926.921 7      1065.345 7        45.368               
G11  25591073.655 6 134482000.735 6     -1211.690 6        39.546               
G28  23862302.774 7 125399921.724 7     -1523.483 7        43.543               
G29  23192349.253 7 121878837.689 7     -1252.553 7        43.179               
> 2025 01 08 14 20 50.0000000  0  4                                             
G25  22406292.898 7 117741860.899 7      1066.531 7        45.666               
G11  25591314.350 6 134483210.032 6     -1210.469 6        39.214               
G28  23862020.086 7 125401443.876 7     -1523.091 7        43.463               
G29  23192119.314 7 121880090.952 7     -1254.158 7        43.336               
> 2025 01 08 14 20 51.0000000  0  4                                             
G25  22406502.216 7 117740794.902 7      1067.778 7        45.152               
G11  25591546.183 6 134484419.508 6     -1208.155 6        39.106               
G28  23861731.627 7 125402965.953 7     -1523.640 7        43.567               
G29  23191874.902 7 121881344.162 7     -1256.630 7        43.896               
> 2025 01 08 14 20 52.0000000  0  4                                             
G25  22406706.280 7 117739728.569 7      1064.350 7        45.095               
G11  25591766.330 6 134485629.517 6     -1212.037 6        39.047               
G28  23861440.987 7 125404487.619 7     -1523.858 7        43.565               
G29  23191640.192 7 121882596.923 7     -1252.986 7        43.928               
> 2025 01 08 14 20 53.0000000  0  4                                             
G25  22406914.133 7 117738661.514 7      1068.062 7        45.384               
G11  25592009.384 6 134486840.482 6     -1215.837 6        39.471               
G28  23861151.974 7 125406008.432 7     -1520.153 7        43.122               
G29  23191404.821 7 121883848.863 7     -1253.223 7        43.272               
> 2025 01 08 14 20 54.0000000  0  4                                             
G25  22407113.658 7 117737593.665 7      1070.122 7        45.573               
G11  25592235.534 6 134488052.401 6     -1214.768 6        39.491               
G28  23860866.998 7 125407528.377 7     -1519.379 7        43.300               
G29  23191171.899 7 121885099.906 7     -1251.437 7        43.365               
> 2025 01 08 14 20 55.0000000  0  4                                             
G25  22407323.512 7 117736525.531 7      1067.520 7        45.581               
G11  25592469.261 6 134489264.858 6     -1212.174 6        39.320               
G28  23860577.377 7 125409047.935 7     -1520.900 7        43.460               
G29  23190936.242 7 121886350.569 7     -1252.451 7        43.043               
> 2025 01 08 14 20 56.0000000  0  4                                             
G25  22407526.772 7 117735457.163 7      1067.511 7        45.250               
G11  25592702.845 6 134490477.770 6     -1213.494 6        38.816               
G28  23860293.832 7 125410567.150 7     -1515.056 7        43.249               
G29  23190693.974 7 121887600.894 7     -1246.532 7        42.677               
> 2025 01 08 14 20 57.0000000  0  4                                             
G25  22407731.497 7 117734388.399 7      1069.925 7        45.570               
G11  25592930.961 6 134491691.246 6     -1209.507 6        38.887               
G28  23860008.124 7 125412085.871 7     -1520.341 7        43.359               
G29  23190462.302 7 121888850.731 7     -1249.310 7        43.379               
> 2025 01 08 14 20 58.0000000  0  4                                             
G25  22407935.651 7 117733319.172 7      1070.229 7        45.278               
G11  25593171.371 6 134492905.402 6     -1216.689 6        38.298               
G28  23859718.342 7 125413604.023 7     -1520.610 7        43.050               
G29  23190227.431 7 121890099.974 7     -1251.085 7        43.487               
> 2025 01 08 14 20 59.0000000  0  4                                             
G25  22408141.520 7 117732249.647 7      1070.389 7        45.534               
G11  25593394.501 6 134494120.080 6     -1213.597 6        38.814               
G28  23859424.772 7 125415121.794 7     -1519.325 7        42.977               
G29  23189987.504 7 121891348.850 7     -1246.606 7        43.202               
> 2025 01 08 14 21 00.0000000  0  4                                             
G25  22408348.693 7 117731179.551 7      1068.200 7        44.902               
G11  25593632.570 6 134495335.517 6     -1212.985 6        39.023               
G28  23859136.151 7 125416638.880 7     -1517.897 7        42.678               
G29  23189756.082 7 121892597.049 7     -1245.408 7        43.717               
> 2025 01 08 14 21 01.0000000  0  4                                             
G25  22408552.472 7 117730108.904 7      1072.499 7        45.092               
G11  25593867.494 6 134496551.714 6     -1220.854 6        39.117               
G28  23858854.017 7 125418155.339 7     -1514.756 7        43.272               
G29  23189519.282 7 121893844.589 7     -1247.191 7        43.774               
> 2025 01 08 14 21 02.0000000  0  4                                             
G25  22408757.876 7 117729037.930 7      1070.447 7        45.847               
G11  25594109.673 6 134497768.477 6     -1219.811 6        39.502               
G28  23858565.826 7 125419671.350 7     -1519.907 7        42.994               
G29  23189282.928 7 121895091.710 7     -1248.761 7        43.341               
> 2025 01 08 14 21 03.0000000  0  4                                             
G25  22408965.568 7 117727966.619 7      1071.914 7        45.956               
G11  25594338.182 6 134498985.768 6     -1217.356 6        39.229               
G28  23858283.995 7 125421186.916 7     -1513.557 7        43.041               
G29  23189050.256 7 121896338.380 7     -1243.746 7        42.980               
> 2025 01 08 14 21 04.0000000  0  4                                             
G25  22409169.811 7 117726894.543 7      1070.434 7        45.625               
G11  25594566.477 6 134500204.036 6     -1223.912 6        38.452               
G28  23857990.300 7 125422701.637 7     -1515.149 7        42.921               
G29  23188814.474 7 121897584.197 7     -1248.501 7        43.185               
> 2025 01 08 14 21 05.0000000  0  4                                             
G25  22409377.520 7 117725822.029 7      1072.018 7        45.599               
G11  25594803.081 6 134501422.943 6     -1219.594 6        38.740               
G28  23857706.361 7 125424215.814 7     -1514.754 7        43.231               
G29  23188574.904 7 121898829.478 7     -1241.161 7        43.123               
> 2025 01 08 14 21 06.0000000  0  5                                             
G12  24864132.406 6 130661887.375 6     -2995.823 6        41.576               
G25  22409581.245 7 117724749.177 7      1074.014 7        45.579               
G11  25595036.700 6 134502642.371 6     -1222.860 6        38.393               
G28  23857421.601 7 125425729.553 7     -1515.026 7        42.819               
G29  23188345.591 7 121900074.310 7     -1244.984 7        43.125               
> 2025 01 08 14 21 07.0000000  0  5                                             
G12  24864698.032 6 130664885.163 6     -2997.927 6        41.549               
G25  22409787.293 7 117723675.870 7      1074.285 7        45.313               
G11  25595268.783 6 134503862.484 6     -1223.527 6        39.154               
G28  23857134.999 7 125427242.738 7     -1511.955 7        42.811               
G29  23188111.006 7 121901318.583 7     -1242.490 7        43.035               
> 2025 01 08 14 21 08.0000000  0  5                                             
G12  24865269.376 7 130667882.918 7     -2997.387 7        42.372               
G25  22409993.984 7 117722602.375 7      1072.843 7        45.954               
G11  25595505.083 6 134505083.004 6     -1222.922 6        39.439               
G28  23856847.076 7 125428755.633 7     -1514.081 7        42.271               
G29  23187869.185 7 121902562.583 7     -1245.334 7        43.776               
> 2025 01 08 14 21 09.0000000  0  5                                             
G12  24865846.045 7 130670880.939 7     -2999.790 7        42.077               
G25  22410199.442 7 117721528.411 7      1073.454 7        45.522               
G11  25595729.250 6 134506304.188 6     -1222.765 6        39.085               
G28  23856563.155 6 125430267.960 6     -1511.297 6        41.892               
G29  23187640.569 7 121903806.005 7     -1243.286 7        43.395               
> 2025 01 08 14 21 10.0000000  0  5                                             
G12  24866417.497 6 130673879.544 6     -2996.163 6        41.625               
G25  22410402.863 7 117720453.655 7      1073.804 7        45.369               
G11  25595969.981 6 134507526.375 6     -1223.213 6        38.953               
G28  23856275.678 7 125431779.380 7     -1510.511 7        42.205               
G29  23187403.500 7 121905048.526 7     -1241.182 7        43.538               
> 2025 01 08 14 21 11.0000000  0  5                                             
G12  24866982.390 6 130676878.397 6     -3003.339 6        41.785               
G25  22410611.519 7 117719378.406 7      1074.293 7        45.818               
G11  25596211.535 6 134508749.249 6     -1220.407 6        38.342               
G28  23855982.447 7 125433290.231 7     -1510.424 7        42.841               
G29  23187172.043 7 121906290.469 7     -1241.631 7        43.285               
> 2025 01 08 14 21 12.0000000  0  5                                             
G12  24867559.863 6 130679877.597 6     -2998.816 6        41.454               
G25  22410819.443 7 117718302.623 7      1076.709 7        45.633               
G11  25596440.955 6 134509972.888 6     -1221.587 6        38.387               
G28  23855703.172 7 125434800.438 7     -1508.588 7        42.416               
G29  23186936.601 7 121907531.764 7     -1240.734 7        43.664               
> 2025 01 08 14 21 13.0000000  0  5                                             
G12  24868133.191 6 130682877.057 6     -2998.080 6        41.803               
G25  22411025.455 7 117717226.349 7      1077.448 7        45.250               
G11  25596683.777 6 134511197.214 6     -1224.384 6        38.744               
G28  23855422.861 7 125436310.054 7     -1507.060 7        42.406               
G29  23186701.158 7 121908772.477 7     -1242.622 7        43.815               
> 2025 01 08 14 21 14.0000000  0  5                                             
G12  24868700.282 6 130685876.580 6     -3000.161 6        41.646               
G25  22411235.649 7 117716149.820 7      1077.468 7        45.305               
G11  25596907.569 6 134512422.024 6     -1225.056 6        38.447               
G28  23855132.007 7 125437819.305 7     -1509.248 7        42.330               
G29  23186464.251 7 121910012.834 7     -1239.192 7        43.699               
> 2025 01 08 14 21 15.0000000  0  5                                             
G12  24869273.771 6 130688876.927 6     -3002.315 6        41.497               
G25  22411440.320 7 117715072.229 7      1077.108 7        45.300               
G11  25597141.939 6 134513648.088 6     -1223.624 6        38.004               
G28  23854844.941 7 125439327.412 7     -1508.312 7        42.435               
G29  23186229.988 7 121911252.014 7     -1235.436 7        43.933               
> 2025 01 08 14 21 16.0000000  0  5                                             
G12  24869851.941 6 130691877.742 6     -3001.836 6        41.585               
G25  22411645.350 7 117713993.962 7      1078.496 7        45.870               
G11  25597380.651 6 134514875.026 6     -1232.838 6        38.084               
G28  23854569.097 7 125440834.716 7     -1506.091 7        42.255               
G29  23185998.495 7 121912490.418 7     -1238.815 7        43.744               
> 2025 01 08 14 21 17.0000000  0  5                                             
G12  24870421.569 7 130694878.340 7     -3000.020 7        42.238               
G25  22411853.559 7 117712915.685 7      1078.764 7        45.732               
G11  25597619.668 6 134516102.184 6     -1231.825 6        38.267               
G28  23854279.118 7 125442341.946 7     -1506.007 7        42.717               
G29  23185767.430 7 121913728.728 7     -1237.586 7        43.638               
> 2025 01 08 14 21 18.0000000  0  5                                             
G12  24871000.865 7 130697878.964 7     -2998.206 7        42.098               
G25  22412060.197 7 117711837.191 7      1081.434 7        45.441               
G11  25597852.197 6 134517329.756 6     -1230.012 6        37.628               
G28  23853991.642 7 125443848.818 7     -1507.019 7        42.821               
G29  23185532.596 7 121914966.706 7     -1234.958 7        43.523               
> 2025 01 08 14 21 19.0000000  0  5                                             
G12  24871564.311 6 130700880.091 6     -3003.723 6        40.948               
G25  22412273.017 7 117710757.985 7      1081.517 7        44.999               
G11  25598087.925 6 134518558.278 6     -1235.218 6        38.278               
G28  23853711.634 7 125445354.889 7     -1501.938 7        42.319               
G29  23185300.334 7 121916203.864 7     -1238.183 7        43.642               
> 2025 01 08 14 21 20.0000000  0  5                                             
G12  24872140.141 6 130703881.668 6     -3003.908 6        41.464               
G25  22412474.919 7 117709678.117 7      1077.913 7        45.001               
G11  25598317.757 6 134519787.670 6     -1236.597 6        38.904               
G28  23853424.818 7 125446860.205 7     -1505.863 7        42.653               
G29  23185068.966 7 121917440.264 7     -1235.758 7        43.618               
> 2025 01 08 14 21 21.0000000  0  5                                             
G12  24872713.540 6 130706883.283 6     -3003.023 6        41.362               
G25  22412679.448 7 117708597.978 7      1080.005 7        44.875               
G11  25598553.324 6 134521017.514 6     -1230.232 6        37.966               
G28  23853134.876 7 125448365.136 7     -1505.118 7        42.247               
G29  23184830.415 7 121918676.299 7     -1235.981 7        43.630               
> 2025 01 08 14 21 22.0000000  0  5                                             
G12  24873286.260 6 130709885.307 6     -3001.936 6        41.832               
G25  22412888.015 7 117707517.219 7      1081.274 7        44.674               
G11  25598804.080 6 134522248.194 6     -1236.544 6        38.865               
G28  23852850.454 6 125449869.351 6     -1502.614 6        41.664               
G29  23184598.028 7 121919911.598 7     -1235.635 7        43.825               
> 2025 01 08 14 21 23.0000000  0  5                                             
G12  24873859.855 6 130712888.024 6     -2999.974 6        41.759               
G25  22413094.670 7 117706435.565 7      1081.284 7        45.368               
G11  25599031.553 6 134523479.973 6     -1231.574 6        38.195               
G28  23852569.357 7 125451372.587 7     -1505.311 7        42.402               
G29  23184370.055 7 121921145.914 7     -1230.057 7        43.735               
> 2025 01 08 14 21 24.0000000  0  5                                             
G12  24874433.773 6 130715890.723 6     -3004.477 6        41.402               
G25  22413304.167 7 117705353.699 7      1082.143 7        45.475               
G11  25599271.587 6 134524712.185 6     -1228.850 6        38.477               
G28  23852282.863 7 125452875.482 7     -1500.728 7        42.430               
G29  23184132.826 7 121922379.911 7     -1233.200 7        43.962               
> 2025 01 08 14 21 25.0000000  0  5                                             
G12  24875004.170 6 130718893.540 6     -3006.037 6        41.726               
G25  22413510.465 7 117704271.514 7      1082.782 7        45.656               
G11  25599509.978 6 134525944.935 6     -1234.473 6        38.099               
G28  23852004.553 7 125454377.973 7     -1502.153 7        42.565               
G29  23183897.687 7 121923613.491 7     -1234.040 7        43.541               
> 2025 01 08 14 21 26.0000000  0  5                                             
G12  24875579.016 7 130721896.661 7     -3005.968 7        42.036               
G25  22413717.263 7 117703188.792 7      1083.101 7        45.251               
G11  25599738.683 6 134527178.385 6     -1231.550 6        38.656               
G28  23851717.916 7 125455879.832 7     -1499.971 7        42.591               
G29  23183667.695 7 121924846.423 7     -1231.047 7        43.936               
> 2025 01 08 14 21 27.0000000  0  5                                             
G12  24876153.773 7 130724900.071 7     -3004.308 7        42.044               
G25  22413924.365 7 117702105.594 7      1083.234 7        44.526               
G11  25599970.069 6 134528412.556 6     -1233.195 6        38.445               
G28  23851435.263 7 125457381.082 7     -1495.612 7        42.424               
G29  23183435.023 7 121926078.786 7     -1231.335 7        43.742               
> 2025 01 08 14 21 28.0000000  0  5                                             
G12  24876723.080 6 130727903.782 6     -3004.877 6        41.956               
G25  22414136.649 7 117701021.865 7      1085.026 7        44.841               
G11  25600206.852 6 134529647.441 6     -1236.621 6        38.213               
G28  23851147.429 7 125458881.735 7     -1496.083 7        42.963               
G29  23183201.921 7 121927310.531 7     -1229.585 7        43.719               
> 2025 01 08 14 21 29.0000000  0  5                                             
G12  24877298.749 6 130730908.067 6     -3003.276 6        41.566               
G25  22414339.712 7 117699937.334 7      1082.529 7        44.659               
G11  25600454.338 6 134530883.357 6     -1236.364 6        38.397               
G28  23850871.138 7 125460381.474 7     -1501.278 7        43.061               
G29  23182968.623 7 121928541.356 7     -1233.026 7        44.093               
> 2025 01 08 14 21 30.0000000  0  5                                             
G12  24877873.363 6 130733912.652 6     -3006.091 6        41.576               
G25  22414550.924 7 117698852.319 7      1084.791 7        44.745               
G11  25600686.957 6 134532119.950 6     -1232.124 6        38.988               
G28  23850587.271 7 125461880.605 7     -1497.256 7        43.207               
G29  23182737.059 7 121929771.607 7     -1230.726 7        43.856               
> 2025 01 08 14 21 31.0000000  0  5                                             
G12  24878447.763 7 130736917.243 7     -3002.379 7        42.020               
G25  22414761.493 7 117697767.072 7      1084.874 7        44.481               
G11  25600923.507 6 134533356.979 6     -1240.545 6        38.594               
G28  23850298.168 7 125463379.441 7     -1497.206 7        42.796               
G29  23182501.992 7 121931001.522 7     -1231.765 7        43.668               
> 2025 01 08 14 21 32.0000000  0  5                                             
G12  24879020.179 6 130739921.914 6     -3004.730 6        41.438               
G25  22414969.274 7 117696681.519 7      1084.591 7        44.606               
G11  25601174.978 6 134534594.539 6     -1239.935 6        38.645               
G28  23850023.521 7 125464877.831 7     -1497.053 7        43.225               
G29  23182269.962 7 121932231.046 7     -1229.656 7        43.482               
> 2025 01 08 14 21 33.0000000  0  5                                             
G12  24879590.826 6 130742926.863 6     -3003.644 6        41.790               
G25  22415173.624 7 117695595.501 7      1085.147 7        44.787               
G11  25601399.877 6 134535832.766 6     -1239.255 6        38.858               
G28  23849734.794 7 125466375.676 7     -1502.790 7        42.585               
G29  23182042.240 7 121933459.976 7     -1225.665 7        43.609               
> 2025 01 08 14 21 34.0000000  0  5                                             
G12  24880170.426 6 130745931.881 6     -3008.235 6        41.552               
G25  22415382.531 7 117694509.186 7      1087.184 7        44.683               
G11  25601627.797 6 134537071.494 6     -1237.244 6        38.417               
G28  23849449.801 7 125467873.115 7     -1496.675 7        43.004               
G29  23181804.850 7 121934688.523 7     -1228.643 7        43.195               
> 2025 01 08 14 21 35.0000000  0  5                                             
G12  24880737.392 6 130748936.976 6     -3003.263 6        41.826               
G25  22415590.973 7 117693422.578 7      1085.829 7        44.611               
G11  25601879.035 6 134538310.733 6     -1236.751 6        38.296               
G28  23849172.116 7 125469370.158 7     -1498.594 7        42.930               
G29  23181575.465 7 121935916.664 7     -1225.136 7        43.308               
> 2025 01 08 14 21 36.0000000  0  5                                             
G12  24881315.437 7 130751942.590 7     -3005.791 7        42.225               
G25  22415806.044 7 117692335.233 7      1089.121 7        44.467               
G11  25602113.119 6 134539550.898 6     -1236.248 6        37.800               
G28  23848886.158 7 125470866.364 7     -1499.802 7        42.944               
G29  23181340.291 7 121937143.985 7     -1228.592 7        43.028               
> 2025 01 08 14 21 37.0000000  0  5                                             
G12  24881888.318 7 130754948.801 7     -3008.617 7        42.065               
G25  22416009.769 7 117691247.069 7      1087.107 7        44.451               
G11  25602353.672 6 134540792.090 6     -1238.542 6        38.235               
G28  23848605.507 7 125472361.651 7     -1497.186 7        42.673               
G29  23181112.014 7 121938370.371 7     -1224.896 7        43.400               
> 2025 01 08 14 21 38.0000000  0  5                                             
G12  24882458.715 6 130757955.031 6     -3005.627 6        41.801               
G25  22416219.980 7 117690158.688 7      1089.440 7        44.378               
G11  25602597.459 6 134542033.734 6     -1243.961 6        38.435               
G28  23848324.034 7 125473856.599 7     -1493.714 7        42.953               
G29  23180879.985 7 121939596.440 7     -1226.433 7        43.090               
> 2025 01 08 14 21 39.0000000  0  5                                             
G12  24883036.385 6 130760961.444 6     -3006.831 6        41.554               
G25  22416432.103 7 117689069.892 7      1090.824 7        44.344               
G11  25602838.101 6 134543275.956 6     -1244.993 6        38.490               
G28  23848038.737 7 125475351.052 7     -1493.604 7        42.976               
G29  23180649.296 7 121940821.998 7     -1228.182 7        43.551               
> 2025 01 08 14 21 40.0000000  0  5                                             
G12  24883608.515 7 130763967.408 7     -3001.049 7        42.394               
G25  22416639.170 7 117687981.334 7      1087.886 7        44.710               
G11  25603061.142 6 134544518.190 6     -1247.176 6        38.677               
G28  23847755.621 7 125476845.630 7     -1498.825 7        42.453               
G29  23180415.104 7 121942047.682 7     -1226.767 7        43.741               
> 2025 01 08 14 21 41.0000000  0  5                                             
G12  24884183.397 6 130766974.718 6     -3007.280 6        41.771               
G25  22416847.737 7 117686891.236 7      1092.617 7        44.681               
G11  25603301.052 6 134545762.129 6     -1246.825 6        38.708               
G28  23847472.683 7 125478338.561 7     -1492.630 7        42.584               
G29  23180185.130 7 121943271.731 7     -1224.300 7        43.467               
> 2025 01 08 14 21 42.0000000  0  5                                             
G12  24884756.618 6 130769983.370 6     -3011.722 6        41.724               
G25  22417056.125 7 117685799.567 7      1089.348 7        44.787               
G11  25603552.380 6 134547007.881 6     -1243.580 6        39.000               
G28  23847192.335 7 125479829.819 7     -1492.970 7        42.789               
G29  23179951.582 7 121944494.107 7     -1221.775 7        43.410               
> 2025 01 08 14 21 43.0000000  0  5                                             
G12  24885338.916 6 130772991.308 6     -3006.658 6        41.979               
G25  22417261.494 7 117684708.386 7      1091.369 7        44.503               
G11  25603791.360 6 134548253.328 6     -1248.575 6        39.444               
G28  23846909.415 7 125481321.474 7     -1487.965 7        42.755               
G29  23179725.431 7 121945716.881 7     -1226.716 7        43.295               
> 2025 01 08 14 21 44.0000000  0  5                                             
G12  24885908.616 7 130775997.696 7     -3006.288 7        42.101               
G25  22417475.333 7 117683618.542 7      1090.311 7        44.771               
G11  25604014.633 6 134549497.650 6     -1242.848 6        39.404               
G28  23846626.173 7 125482814.358 7     -1494.614 7        42.791               
G29  23179487.684 7 121946940.895 7     -1226.243 7        43.288               
> 2025 01 08 14 21 45.0000000  0  5                                             
G12  24886482.569 7 130779005.325 7     -3013.934 7        42.560               
G25  22417687.509 7 117682527.263 7      1093.637 7        44.835               
G11  25604255.401 6 134550743.625 6     -1247.434 6        38.959               
G28  23846345.790 7 125484305.688 7     -1490.083 7        43.007               
G29  23179262.373 7 121948163.345 7     -1219.352 7        43.092               
> 2025 01 08 14 21 46.0000000  0  5                                             
G12  24887061.418 7 130782012.705 7     -3011.576 7        42.640               
G25  22417897.417 7 117681436.003 7      1089.463 7        44.845               
G11  25604503.226 6 134551989.777 6     -1243.650 6        39.433               
G28  23846062.870 7 125485796.951 7     -1488.578 7        43.195               
G29  23179031.649 7 121949385.733 7     -1224.343 7        43.552               
> 2025 01 08 14 21 47.0000000  0  5                                             
G12  24887633.441 6 130785020.772 6     -3008.071 6        41.954               
G25  22418100.087 7 117680343.846 7      1091.620 7        44.660               
G11  25604730.895 6 134553237.052 6     -1243.007 6        39.076               
G28  23845783.595 7 125487287.208 7     -1492.461 7        42.830               
G29  23178801.782 7 121950607.108 7     -1219.183 7        43.918               
> 2025 01 08 14 21 48.0000000  0  5                                             
G12  24888206.394 6 130788030.281 6     -3012.696 6        41.636               
G25  22418314.391 7 117679250.049 7      1098.789 7        44.293               
G11  25604968.947 6 134554486.161 6     -1246.375 6        39.682               
G28  23845502.212 7 125488775.718 7     -1483.602 7        43.102               
G29  23178572.111 7 121951826.738 7     -1215.998 7        43.523               
> 2025 01 08 14 21 49.0000000  0  5                                             
G12  24888775.576 6 130791039.467 6     -3008.277 6        41.851               
G25  22418525.084 7 117678156.337 7      1090.787 7        44.304               
G11  25605210.911 6 134555735.386 6     -1248.950 6        38.939               
G28  23845220.328 7 125490264.211 7     -1488.696 7        42.956               
G29  23178343.245 7 121953046.357 7     -1219.336 7        43.660               
> 2025 01 08 14 21 50.0000000  0  5                                             
G12  24889350.744 6 130794045.764 6     -3006.155 6        41.781               
G25  22418735.921 7 117677065.310 7      1091.692 7        44.529               
G11  25605456.485 6 134556982.150 6     -1248.403 6        38.997               
G28  23844937.533 7 125491755.274 7     -1490.532 7        43.250               
G29  23178109.321 7 121954268.551 7     -1218.618 7        43.763               
> 2025 01 08 14 21 51.0000000  0  5                                             
G12  24889927.145 6 130797053.606 6     -3008.430 6        41.962               
G25  22418940.896 7 117675972.517 7      1091.749 7        44.283               
G11  25605694.447 6 134558230.883 6     -1248.935 6        38.456               
G28  23844656.632 7 125493244.470 7     -1489.517 7        43.503               
G29  23177882.242 7 121955488.878 7     -1218.988 7        43.825               
> 2025 01 08 14 21 52.0000000  0  5                                             
G12  24890501.955 6 130800062.244 6     -3009.219 6        41.561               
G25  22419153.413 7 117674878.718 7      1096.295 7        44.482               
G11  25605934.553 6 134559480.807 6     -1253.146 6        38.954               
G28  23844378.268 7 125494732.576 7     -1490.010 7        43.516               
G29  23177649.551 7 121956708.111 7     -1216.511 7        43.328               
> 2025 01 08 14 21 53.0000000  0  5                                             
G12  24891076.927 7 130803071.161 7     -3009.775 7        42.322               
G25  22419360.872 7 117673784.421 7      1095.570 7        45.109               
G11  25606175.338 6 134560731.466 6     -1254.518 6        38.807               
G28  23844091.309 7 125496220.073 7     -1487.368 7        43.110               
G29  23177419.202 7 121957926.729 7     -1216.285 7        43.672               
> 2025 01 08 14 21 54.0000000  0  5                                             
G12  24891649.665 7 130806080.334 7     -3011.297 7        42.080               
G25  22419573.138 7 117672689.663 7      1098.334 7        44.544               
G11  25606406.652 6 134561982.780 6     -1253.631 6        38.053               
G28  23843812.249 7 125497706.987 7     -1486.797 7        43.057               
G29  23177187.440 7 121959144.776 7     -1219.136 7        43.734               
> 2025 01 08 14 21 55.0000000  0  5                                             
G12  24892227.281 7 130809089.901 7     -3007.915 7        42.392               
G25  22419785.226 7 117671594.279 7      1096.011 7        44.942               
G11  25606656.854 6 134563234.930 6     -1253.302 6        38.413               
G28  23843537.155 7 125499193.190 7     -1484.858 7        43.558               
G29  23176955.322 7 121960362.117 7     -1217.522 7        43.704               
> 2025 01 08 14 21 56.0000000  0  5                                             
G12  24892795.427 7 130812099.432 7     -3010.076 7        42.173               
G25  22419996.902 7 117670498.725 7      1095.657 7        45.062               
G11  25606893.976 6 134564487.466 6     -1253.757 6        38.890               
G28  23843249.911 7 125500679.101 7     -1482.903 7        43.137               
G29  23176728.475 7 121961579.173 7     -1217.345 7        43.637               
> 2025 01 08 14 21 57.0000000  0  5                                             
G12  24893367.057 7 130815110.078 7     -3005.485 7        42.355               
G25  22420206.059 7 117669401.849 7      1096.402 7        44.760               
G11  25607138.907 6 134565741.496 6     -1255.191 6        38.514               
G28  23842973.548 7 125502163.593 7     -1486.114 7        43.381               
G29  23176500.341 7 121962794.797 7     -1217.693 7        44.117               
> 2025 01 08 14 21 58.0000000  0  5                                             
G12  24893946.406 7 130818120.684 7     -3010.247 7        42.154               
G25  22420414.197 7 117668304.794 7      1094.011 7        44.237               
G11  25607371.061 6 134566995.949 6     -1257.771 6        38.216               
G28  23842695.935 7 125503647.799 7     -1482.549 7        43.376               
G29  23176272.600 7 121964010.147 7     -1215.579 7        43.788               
> 2025 01 08 14 21 59.0000000  0  5                                             
G12  24894522.289 7 130821131.199 7     -3011.511 7        42.331               
G25  22420624.480 7 117667207.603 7      1096.582 7        44.342               
G11  25607614.312 6 134568250.727 6     -1257.668 6        38.034               
G28  23842410.924 7 125505131.775 7     -1486.129 7        42.810               
G29  23176042.233 7 121965225.273 7     -1215.152 7        43.613               
> 2025 01 08 14 22 00.0000000  0  5                                             
G12  24895091.257 6 130824142.159 6     -3009.369 6        41.535               
G25  22420835.942 7 117666109.746 7      1098.274 7        44.204               
G11  25607860.530 6 134569506.354 6     -1254.646 6        38.418               
G28  23842132.614 7 125506615.003 7     -1484.599 7        43.174               
G29  23175812.651 7 121966439.630 7     -1210.944 7        43.431               
> 2025 01 08 14 22 01.0000000  0  5                                             
G12  24895671.660 6 130827153.177 6     -3008.822 6        41.991               
G25  22421046.028 7 117665011.635 7      1098.523 7        44.629               
G11  25608102.601 6 134570762.469 6     -1257.561 6        38.732               
G28  23841853.053 7 125508097.834 7     -1482.194 7        42.942               
G29  23175587.645 7 121967653.622 7     -1211.274 7        43.622               
> 2025 01 08 14 22 02.0000000  0  5                                             
G12  24896247.329 7 130830164.130 7     -3006.898 7        42.483               
G25  22421257.544 7 117663913.374 7      1099.582 7        44.488               
G11  25608339.062 6 134572018.936 6     -1258.699 6        38.602               
G28  23841568.364 7 125509580.422 7     -1483.894 7        42.807               
G29  23175354.007 7 121968867.366 7     -1214.009 7        43.378               
> 2025 01 08 14 22 03.0000000  0  5                                             
G12  24896818.244 7 130833175.408 7     -3011.756 7        42.099               
G25  22421468.523 7 117662814.556 7      1098.477 7        44.209               
G11  25608580.741 6 134573276.180 6     -1255.852 6        38.377               
G28  23841289.536 7 125511062.356 7     -1480.972 7        42.530               
G29  23175126.016 7 121970080.446 7     -1212.724 7        43.737               
> 2025 01 08 14 22 04.0000000  0  5                                             
G12  24897395.431 6 130836187.146 6     -3013.914 6        41.514               
G25  22421676.733 7 117661715.065 7      1101.370 7        44.512               
G11  25608823.205 6 134574534.282 6     -1259.505 6        38.051               
G28  23841008.671 7 125512543.502 7     -1480.080 7        42.617               
G29  23174897.829 7 121971292.749 7     -1212.607 7        43.679               
> 2025 01 08 14 22 05.0000000  0  5                                             
G12  24897968.759 7 130839199.163 7     -3013.327 7        42.296               
G25  22421890.304 7 117660615.102 7      1097.830 7        44.428               
G11  25609054.466 6 134575793.097 6     -1256.533 6        38.379               
G28  23840730.486 7 125514024.060 7     -1476.408 7        42.799               
G29  23174667.033 7 121972504.465 7     -1211.975 7        43.640               
> 2025 01 08 14 22 06.0000000  0  5                                             
G12  24898543.802 6 130842210.866 6     -3008.212 6        41.643               
G25  22422100.747 7 117659515.213 7      1098.122 7        44.116               
G11  25609302.703 6 134577052.014 6     -1263.219 6        38.313               
G28  23840448.781 7 125515504.593 7     -1479.167 7        42.845               
G29  23174438.577 7 121973716.157 7     -1210.884 7        43.730               
> 2025 01 08 14 22 07.0000000  0  5                                             
G12  24899127.690 6 130845222.747 6     -3011.707 6        41.864               
G25  22422314.997 7 117658414.942 7      1098.938 7        43.808               
G11  25609545.203 6 134578311.546 6     -1262.031 6        38.250               
G28  23840168.273 7 125516984.649 7     -1480.325 7        43.117               
G29  23174211.658 7 121974927.372 7     -1209.823 7        43.873               
> 2025 01 08 14 22 08.0000000  0  5                                             
G12  24899690.386 6 130848234.680 6     -3007.850 6        41.741               
G25  22422523.135 7 117657314.405 7      1100.546 7        44.076               
G11  25609778.251 6 134579571.541 6     -1261.173 6        37.657               
G28  23839881.385 7 125518464.318 7     -1480.906 7        42.790               
G29  23173979.325 7 121976138.212 7     -1210.757 7        44.004               
> 2025 01 08 14 22 09.0000000  0  5                                             
G12  24900269.860 6 130851246.604 6     -3009.228 6        41.022               
G25  22422733.418 7 117656213.634 7      1102.636 7        43.967               
G11  25610029.454 6 134580831.963 6     -1258.318 6        38.137               
G28  23839602.468 7 125519943.667 7     -1483.555 7        42.471               
G29  23173751.031 7 121977348.719 7     -1214.810 7        43.426               
> 2025 01 08 14 22 11.0000000  0  5                                             
G12  24901419.107 7 130857270.900 7     -3014.719 7        42.010               
G25  22423160.005 7 117654011.050 7      1102.498 7        44.664               
G11  25610505.306 6 134583354.476 6     -1261.954 6        37.839               
G28  23839044.007 7 125522900.988 7     -1480.971 7        43.186               
G29  23173294.513 7 121979768.374 7     -1210.967 7        43.500               
> 2025 01 08 14 22 12.0000000  0  5                                             
G12  24901986.001 6 130860284.302 6     -3014.148 6        41.105               
G25  22423373.111 7 117652908.162 7      1103.717 7        44.459               
G11  25610747.914 6 134584617.634 6     -1266.862 6        38.177               
G28  23838767.198 7 125524377.906 7     -1477.183 7        42.340               
G29  23173068.202 7 121980976.469 7     -1204.537 7        43.143               
> 2025 01 08 14 22 13.0000000  0  5                                             
G12  24902569.621 6 130863298.694 6     -3014.895 6        41.489               
G25  22423582.232 7 117651804.090 7      1103.350 7        44.429               
G11  25610995.453 6 134585882.210 6     -1267.204 6        38.361               
G28  23838492.909 7 125525853.505 7     -1476.799 7        42.296               
G29  23172842.552 7 121982183.251 7     -1207.209 7        43.600               
> 2025 01 08 14 22 14.0000000  0  5                                             
G12  24903140.519 6 130866313.392 6     -3015.488 6        41.672               
G25  22423794.284 7 117650699.483 7      1107.876 7        44.366               
G11  25611237.150 6 134587147.477 6     -1261.121 6        38.896               
G28  23838218.047 7 125527328.479 7     -1470.176 7        42.524               
G29  23172613.667 7 121983389.424 7     -1206.528 7        43.420               
> 2025 01 08 14 22 15.0000000  0  5                                             
G12  24903715.651 6 130869328.216 6     -3014.079 6        41.397               
G25  22424007.372 7 117649594.558 7      1106.731 7        44.105               
G11  25611481.723 6 134588413.317 6     -1269.041 6        38.530               
G28  23837938.451 7 125528803.032 7     -1470.376 7        42.865               
G29  23172384.962 7 121984595.151 7     -1204.462 7        42.994               
> 2025 01 08 14 22 16.0000000  0  5                                             
G12  24904294.125 7 130872342.714 7     -3017.418 7        42.370               
G25  22424219.638 7 117648489.730 7      1105.614 7        43.998               
G11  25611728.512 6 134589679.236 6     -1264.366 6        39.722               
G28  23837653.297 7 125530277.549 7     -1475.517 7        42.913               
G29  23172157.418 7 121985800.870 7     -1204.971 7        43.521               
> 2025 01 08 14 22 17.0000000  0  5                                             
G12  24904875.083 6 130875357.298 6     -3013.034 6        41.694               
G25  22424428.634 7 117647384.594 7      1106.899 7        44.421               
G11  25611968.582 6 134590945.695 6     -1264.366 6        38.922               
G28  23837376.274 7 125531751.680 7     -1471.285 7        43.008               
G29  23171927.390 7 121987006.200 7     -1204.366 7        43.438               
> 2025 01 08 14 22 18.0000000  0  5                                             
G12  24905448.571 6 130878372.324 6     -3017.517 6        41.516               
G25  22424644.099 7 117646278.794 7      1106.317 7        44.476               
G11  25612200.737 6 134592212.960 6     -1261.907 6        38.328               
G28  23837097.463 7 125533225.047 7     -1468.370 7        42.921               
G29  23171699.363 7 121988210.772 7     -1206.943 7        43.488               
> 2025 01 08 14 22 19.0000000  0  5                                             
G12  24906016.681 6 130881387.782 6     -3014.256 6        41.816               
G25  22424856.758 7 117645172.358 7      1108.172 7        44.468               
G11  25612457.854 6 134593481.118 6     -1265.856 6        38.524               
G28  23836819.761 7 125534697.665 7     -1469.670 7        43.046               
G29  23171475.232 7 121989414.605 7     -1202.206 7        43.518               
> 2025 01 08 14 22 20.0000000  0  5                                             
G12  24906601.445 6 130884403.547 6     -3015.660 6        41.847               
G25  22425069.578 7 117644065.417 7      1106.233 7        44.575               
G11  25612701.427 6 134594750.017 6     -1261.538 6        38.346               
G28  23836542.416 6 125536169.649 6     -1470.155 6        41.980               
G29  23171247.706 7 121990617.799 7     -1199.710 7        43.752               
> 2025 01 08 14 22 21.0000000  0  5                                             
G12  24907168.054 6 130887419.690 6     -3012.285 6        41.504               
G25  22425279.164 7 117642957.836 7      1107.516 7        44.214               
G11  25612937.244 6 134596019.703 6     -1269.976 6        38.509               
G28  23836259.263 7 125537640.924 7     -1470.954 7        42.944               
G29  23171022.770 7 121991820.295 7     -1201.738 7        43.695               
> 2025 01 08 14 22 22.0000000  0  5                                             
G12  24907749.101 6 130890436.194 6     -3017.032 6        41.825               
G25  22425489.804 7 117641849.709 7      1109.761 7        44.455               
G11  25613188.054 6 134597290.174 6     -1270.783 6        39.028               
G28  23835980.488 7 125539111.530 7     -1471.342 7        42.875               
G29  23170792.296 7 121993022.118 7     -1201.378 7        43.520               
> 2025 01 08 14 22 23.0000000  0  5                                             
G12  24908326.109 6 130893453.264 6     -3015.065 6        41.870               
G25  22425701.373 7 117640740.804 7      1109.843 7        44.368               
G11  25613418.457 6 134598561.619 6     -1268.238 6        38.963               
G28  23835708.361 7 125540581.247 7     -1471.019 7        42.957               
G29  23170567.879 7 121994223.057 7     -1200.764 7        43.218               
> 2025 01 08 14 22 24.0000000  0  5                                             
G12  24908901.903 6 130896470.657 6     -3018.560 6        41.088               
G25  22425919.250 7 117639631.353 7      1109.139 7        44.300               
G11  25613676.343 6 134599833.807 6     -1275.461 6        38.909               
G28  23835427.621 7 125542050.319 7     -1464.970 7        42.756               
G29  23170338.583 7 121995423.360 7     -1202.106 7        43.054               
> 2025 01 08 14 22 25.0000000  0  5                                             
G12  24909482.718 6 130899488.208 6     -3019.512 6        41.364               
G25  22426132.017 7 117638521.543 7      1110.305 7        44.150               
G11  25613919.218 6 134601106.587 6     -1270.177 6        38.836               
G28  23835153.439 7 125543518.910 7     -1470.250 7        43.135               
G29  23170116.918 7 121996623.162 7     -1200.598 7        43.698               
> 2025 01 08 14 22 26.0000000  0  5                                             
G12  24910058.886 6 130902505.954 6     -3017.803 6        41.965               
G25  22426349.304 7 117637411.297 7      1109.518 7        43.937               
G11  25614159.593 6 134602380.001 6     -1275.037 6        38.968               
G28  23834876.612 7 125544986.955 7     -1469.548 7        43.365               
G29  23169887.909 7 121997822.446 7     -1196.832 7        43.325               
> 2025 01 08 14 22 27.0000000  0  5                                             
G12  24910629.623 6 130905523.892 6     -3015.576 6        41.739               
G25  22426558.264 7 117636300.659 7      1109.530 7        44.274               
G11  25614403.844 6 134603654.002 6     -1272.982 6        38.719               
G28  23834600.785 7 125546454.513 7     -1462.212 7        42.768               
G29  23169661.723 7 121999021.230 7     -1200.024 7        43.484               
> 2025 01 08 14 22 28.0000000  0  5                                             
G12  24911209.348 6 130908541.828 6     -3017.635 6        41.577               
G25  22426770.513 7 117635189.820 7      1112.129 7        43.660               
G11  25614655.494 6 134604928.420 6     -1273.227 6        38.767               
G28  23834321.242 7 125547921.759 7     -1467.259 7        43.229               
G29  23169440.611 7 122000219.710 7     -1195.704 7        43.617               
> 2025 01 08 14 22 29.0000000  0  5                                             
G12  24911782.282 6 130911559.803 6     -3018.429 6        41.712               
G25  22426986.906 7 117634078.711 7      1110.991 7        44.375               
G11  25614889.399 6 134606203.324 6     -1276.207 6        38.673               
G28  23834037.482 7 125549388.627 7     -1468.446 7        42.649               
G29  23169206.992 7 122001417.824 7     -1196.817 7        43.826               
> 2025 01 08 14 22 30.0000000  0  5                                             
G12  24912354.806 6 130914578.371 6     -3014.792 6        41.817               
G25  22427198.172 7 117632966.790 7      1112.448 7        44.855               
G11  25615139.619 6 134607479.218 6     -1276.938 6        38.775               
G28  23833763.675 7 125550854.577 7     -1466.007 7        42.905               
G29  23168983.272 7 122002615.012 7     -1192.651 7        43.500               
> 2025 01 08 14 22 31.0000000  0  5                                             
G12  24912939.962 6 130917597.254 6     -3016.488 6        41.386               
G25  22427414.459 7 117631854.341 7      1113.053 7        44.633               
G11  25615386.015 6 134608755.850 6     -1271.647 6        38.556               
G28  23833485.115 7 125552319.899 7     -1467.475 7        42.819               
G29  23168756.371 7 122003811.587 7     -1192.616 7        43.429               
> 2025 01 08 14 22 32.0000000  0  5                                             
G12  24913506.661 6 130920616.383 6     -3022.137 6        41.340               
G25  22427630.209 7 117630741.459 7      1114.161 7        44.321               
G11  25615632.250 6 134610033.141 6     -1276.823 6        38.787               
G28  23833211.505 7 125553784.663 7     -1465.429 7        42.952               
G29  23168530.721 7 122005007.598 7     -1194.028 7        43.105               
> 2025 01 08 14 22 33.0000000  0  5                                             
G12  24914090.906 6 130923635.753 6     -3017.528 6        41.651               
G25  22427841.010 7 117629628.075 7      1115.519 7        44.545               
G11  25615866.692 6 134611311.124 6     -1276.606 6        38.841               
G28  23832929.960 7 125555248.833 7     -1461.892 7        42.705               
G29  23168309.252 7 122006203.037 7     -1196.835 7        43.415               
> 2025 01 08 14 22 34.0000000  0  5                                             
G12  24914668.951 6 130926655.293 6     -3020.142 6        41.819               
G25  22428056.975 7 117628514.349 7      1113.111 7        44.511               
G11  25616112.587 6 134612589.658 6     -1274.582 6        38.480               
G28  23832659.781 7 125556712.542 7     -1463.951 7        42.729               
G29  23168074.149 7 122007398.008 7     -1194.099 7        43.403               
> 2025 01 08 14 22 35.0000000  0  5                                             
G12  24915245.049 6 130929675.050 6     -3018.000 6        41.969               
G25  22428265.935 7 117627400.158 7      1115.208 7        44.341               
G11  25616370.866 6 134613868.874 6     -1281.241 6        38.664               
G28  23832381.578 7 125558175.686 7     -1463.812 7        42.125               
G29  23167854.736 7 122008592.415 7     -1194.376 7        43.627               
> 2025 01 08 14 22 36.0000000  0  5                                             
G12  24915819.359 6 130932695.370 6     -3021.663 6        41.553               
G25  22428487.118 7 117626285.203 7      1115.189 7        44.706               
G11  25616604.843 6 134615149.029 6     -1277.502 6        38.977               
G28  23832103.268 7 125559637.946 7     -1463.624 7        42.391               
G29  23167629.818 7 122009785.953 7     -1191.809 7        43.404               
> 2025 01 08 14 22 37.0000000  0  5                                             
G12  24916389.184 6 130935715.978 6     -3020.587 6        40.615               
G25  22428697.848 7 117625169.731 7      1114.870 7        43.909               
G11  25616847.987 6 134616429.961 6     -1275.976 6        38.761               
G28  23831830.872 7 125561099.593 7     -1461.223 7        42.967               
G29  23167401.023 7 122010978.887 7     -1194.540 7        43.168               
> 2025 01 08 14 22 38.0000000  0  5                                             
G12  24916971.839 6 130938736.116 6     -3021.211 6        41.130               
G25  22428911.954 7 117624054.518 7      1116.851 7        43.838               
G11  25617098.153 6 134617710.769 6     -1281.818 6        38.498               
G28  23831551.258 7 125562561.388 7     -1458.951 7        42.597               
G29  23167174.230 7 122012171.955 7     -1191.032 7        42.603               
> 2025 01 08 14 22 39.0000000  0  5                                             
G12  24917551.528 6 130941756.824 6     -3023.107 6        41.172               
G25  22429121.826 7 117622938.521 7      1114.593 7        44.377               
G11  25617341.744 6 134618992.593 6     -1279.811 6        39.343               
G28  23831278.094 7 125564022.296 7     -1461.655 7        43.095               
G29  23166950.241 7 122013364.136 7     -1194.083 7        43.289               
> 2025 01 08 14 22 40.0000000  0  5                                             
G12  24918120.853 6 130944778.059 6     -3022.787 6        41.436               
G25  22429339.042 7 117621821.790 7      1118.051 7        44.437               
G11  25617594.787 6 134620275.398 6     -1284.610 6        39.415               
G28  23830997.747 7 125565482.361 7     -1460.269 7        43.026               
G29  23166725.092 7 122014555.472 7     -1188.560 7        42.945               
> 2025 01 08 14 22 41.0000000  0  5                                             
G12  24918698.934 6 130947799.775 6     -3024.493 6        40.941               
G25  22429556.704 7 117620704.348 7      1120.003 7        44.903               
G11  25617833.589 6 134621559.088 6     -1283.235 6        39.086               
G28  23830728.139 7 125566941.603 7     -1456.254 7        43.116               
G29  23166503.444 7 122015746.012 7     -1190.381 7        43.413               
> 2025 01 08 14 22 42.0000000  0  5                                             
G12  24919279.570 6 130950821.069 6     -3021.789 6        41.645               
G25  22429769.274 7 117619587.106 7      1118.122 7        44.810               
G11  25618083.326 6 134622842.778 6     -1285.642 6        38.458               
G28  23830454.225 7 125568400.949 7     -1459.034 7        43.715               
G29  23166277.705 7 122016936.650 7     -1192.229 7        43.293               
> 2025 01 08 14 22 43.0000000  0  5                                             
G12  24919852.755 6 130953842.289 6     -3018.940 6        41.341               
G25  22429987.151 7 117618469.744 7      1116.928 7        44.740               
G11  25618327.971 6 134624126.816 6     -1285.613 6        38.957               
G28  23830174.146 7 125569860.038 7     -1457.004 7        42.870               
G29  23166052.520 7 122018127.025 7     -1189.528 7        43.509               
> 2025 01 08 14 22 44.0000000  0  5                                             
G12  24920431.497 6 130956864.532 6     -3022.946 6        41.283               
G25  22430196.898 7 117617351.132 7      1120.002 7        44.218               
G11  25618571.436 6 134625412.286 6     -1286.425 6        38.008               
G28  23829900.821 7 125571317.783 7     -1458.595 7        43.064               
G29  23165827.692 7 122019316.076 7     -1187.055 7        42.976               
> 2025 01 08 14 22 45.0000000  0  5                                             
G12  24921005.628 6 130959886.582 6     -3023.372 6        41.432               
G25  22430412.184 7 117616232.516 7      1119.495 7        44.432               
G11  25618823.586 6 134626697.989 6     -1286.082 6        38.462               
G28  23829628.212 7 125572775.404 7     -1459.126 7        43.510               
G29  23165607.509 7 122020505.019 7     -1189.967 7        43.795               
> 2025 01 08 14 22 46.0000000  0  5                                             
G12  24921590.946 6 130962909.048 6     -3023.830 6        41.485               
G25  22430625.433 7 117615113.254 7      1119.911 7        44.415               
G11  25619070.768 6 134627984.545 6     -1281.556 6        39.341               
G28  23829349.937 7 125574232.281 7     -1460.557 7        43.028               
G29  23165382.806 7 122021693.202 7     -1189.000 7        43.072               
> 2025 01 08 14 22 47.0000000  0  5                                             
G12  24922161.790 6 130965932.042 6     -3022.040 6        41.705               
G25  22430843.453 7 117613993.260 7      1118.150 7        44.147               
G11  25619314.323 6 134629272.008 6     -1282.913 6        38.899               
G28  23829074.808 7 125575688.314 7     -1454.347 7        43.473               
G29  23165154.315 7 122022880.563 7     -1185.233 7        43.153               
> 2025 01 08 14 22 48.0000000  0  5                                             
G12  24922743.177 6 130968955.354 6     -3026.889 6        41.500               
G25  22431053.253 7 117612872.706 7      1122.817 7        44.095               
G11  25619561.077 6 134630560.234 6     -1287.592 6        38.307               
G28  23828796.141 7 125577143.706 7     -1454.220 7        43.222               
G29  23164930.881 7 122024067.268 7     -1183.849 7        43.628               
> 2025 01 08 14 22 49.0000000  0  5                                             
G12  24923312.930 6 130971978.572 6     -3022.021 6        41.798               
G25  22431271.291 7 117611752.011 7      1119.490 7        44.309               
G11  25619806.972 6 134631848.843 6     -1286.260 6        38.770               
G28  23828524.263 7 125578598.811 7     -1456.225 7        42.953               
G29  23164707.161 7 122025253.714 7     -1186.299 7        43.337               
> 2025 01 08 14 22 50.0000000  0  5                                             
G12  24923901.161 6 130975002.784 6     -3022.611 6        41.528               
G25  22431486.648 7 117610630.167 7      1119.488 7        44.325               
G11  25620057.013 6 134633138.768 6     -1291.599 6        38.828               
G28  23828250.492 7 125580052.679 7     -1452.267 7        43.345               
G29  23164486.800 7 122026438.903 7     -1184.142 7        43.939               
> 2025 01 08 14 22 51.0000000  0  5                                             
G12  24924475.596 7 130978026.972 7     -3023.994 7        42.082               
G25  22431699.093 7 117609508.105 7      1123.194 7        44.099               
G11  25620297.441 6 134634429.137 6     -1294.896 6        38.820               
G28  23827976.685 7 125581506.199 7     -1452.787 7        43.476               
G29  23164263.205 7 122027623.782 7     -1183.430 7        43.498               
> 2025 01 08 14 22 52.0000000  0  5                                             
G12  24925057.983 6 130981051.205 6     -3024.930 6        41.937               
G25  22431914.879 7 117608385.753 7      1122.236 7        44.340               
G11  25620553.987 6 134635720.009 6     -1288.460 6        38.684               
G28  23827696.713 7 125582959.335 7     -1455.222 7        43.704               
G29  23164037.573 7 122028808.263 7     -1182.631 7        43.715               
> 2025 01 08 14 22 53.0000000  0  5                                             
G12  24925629.899 6 130984075.526 6     -3025.055 6        41.889               
