     3.02           OBSERVATION DATA    E                   RINEX VERSION / TYPE
G = GPS  R = GLONASS  E = GALILEO  S = GEO  M = MIXED       COMMENT             
GNSS-SDR            jmfriedt            20250108 204144 UTC PGM / RUN BY / DATE 
GALILEO OBSERVATION DATA FILE GENERATED BY GNSS-SDR         COMMENT             
GNSS-SDR VERSION 0.0.19.git-main-87fcfd237                  COMMENT             
See https://gnss-sdr.org                                    COMMENT             
DEFAULT MARKER NAME                                         MARKER NAME         
jmfriedt            CTTC                                    OBSERVER / AGENCY   
GNSS-SDR            Software Receiver   0.0.19.gi           REC # / TYPE / VERS 
Antenna number      Antenna type                            ANT # / TYPE        
        0.0000        0.0000        0.0000                  APPROX POSITION XYZ 
        0.0000        0.0000        0.0000                  ANTENNA: DELTA H/E/N
E    4 C1B L1B D1B S1B                                      SYS / # / OBS TYPES 
DBHZ                                                        SIGNAL STRENGTH UNIT
  2025    01    08    19    44    6.1600000     GAL         TIME OF FIRST OBS   
    18    18   137     7                                    LEAP SECONDS        
                                                            END OF HEADER       
> 2025 01 08 19 44 07.0000000  0  4                                             
E13  28126129.124 6 147804393.055 6      -357.524 6        41.781               
E15  29353278.362 6 154252488.103 6     -2119.736 6        40.149               
E21  28725148.217 6 150950954.107 6       428.476 6        39.903               
E27  30198333.370 6 158693318.641 6     -2967.429 6        38.197               
> 2025 01 08 19 44 08.0000000  0  4                                             
E13  28126061.007 6 147804750.155 6      -357.506 6        41.584               
E15  29353682.988 6 154254606.616 6     -2119.978 6        40.013               
E21  28725234.686 6 150950526.067 6       426.539 6        40.127               
E27  30198897.495 6 158696287.015 6     -2967.370 6        37.930               
> 2025 01 08 19 44 09.0000000  0  4                                             
E13  28125994.427 6 147805107.083 6      -357.064 6        41.716               
E15  29354085.773 6 154256725.183 6     -2118.981 6        39.646               
E21  28725314.364 6 150950097.695 6       428.049 6        40.172               
E27  30199466.194 6 158699255.528 6     -2968.460 6        38.191               
> 2025 01 08 19 44 10.0000000  0  4                                             
E13  28125932.404 6 147805463.928 6      -357.726 6        41.577               
E15  29354491.347 6 154258843.696 6     -2119.545 6        39.853               
E21  28725398.259 6 150949669.047 6       430.375 6        39.932               
E27  30200035.394 6 158702224.074 6     -2968.626 6        38.280               
> 2025 01 08 19 44 11.0000000  0  4                                             
E13  28125862.447 6 147805820.468 6      -354.735 6        41.389               
E15  29354896.384 6 154260962.371 6     -2118.420 6        39.947               
E21  28725481.850 6 150949239.948 6       428.843 6        40.103               
E27  30200600.413 6 158705192.851 6     -2967.342 6        38.260               
> 2025 01 08 19 44 12.0000000  0  4                                             
E13  28125796.939 6 147806176.864 6      -356.110 6        41.717               
E15  29355292.969 6 154263081.067 6     -2118.561 6        39.863               
E21  28725568.979 6 150948810.509 6       431.477 6        39.887               
E27  30201164.806 6 158708161.756 6     -2970.451 6        38.556               
> 2025 01 08 19 44 13.0000000  0  4                                             
E13  28125734.665 6 147806532.897 6      -355.795 6        41.681               
E15  29355704.010 6 154265199.987 6     -2118.175 6        39.444               
E21  28725646.442 6 150948380.551 6       429.833 6        39.577               
E27  30201734.327 6 158711130.962 6     -2967.455 6        38.413               
> 2025 01 08 19 44 14.0000000  0  4                                             
E13  28125666.173 6 147806888.168 6      -354.220 6        41.504               
E15  29356106.831 6 154267319.552 6     -2121.056 6        39.464               
E21  28725731.820 6 150947949.638 6       429.689 6        39.762               
E27  30202300.114 6 158714100.877 6     -2970.126 6        38.428               
> 2025 01 08 19 44 15.0000000  0  4                                             
E13  28125600.541 6 147807243.223 6      -355.426 6        41.641               
E15  29356512.565 6 154269439.187 6     -2119.553 6        39.578               
E21  28725818.270 6 150947518.328 6       430.968 6        39.816               
E27  30202867.045 6 158717070.968 6     -2971.723 6        38.489               
> 2025 01 08 19 44 16.0000000  0  4                                             
E13  28125535.265 6 147807598.245 6      -355.642 6        41.778               
E15  29356918.532 6 154271558.720 6     -2119.282 6        39.570               
E21  28725899.306 6 150947086.832 6       431.795 6        39.956               
E27  30203434.922 6 158720041.051 6     -2970.141 6        38.333               
> 2025 01 08 19 44 17.0000000  0  4                                             
E13  28125468.685 6 147807952.874 6      -353.197 6        41.517               
E15  29357319.781 6 154273678.514 6     -2119.973 6        39.716               
E21  28725985.256 6 150946654.756 6       434.909 6        39.893               
E27  30203998.636 6 158723011.444 6     -2971.314 6        38.365               
> 2025 01 08 19 44 18.0000000  0  4                                             
E13  28125404.267 6 147808307.294 6      -355.017 6        41.475               
E15  29357732.090 6 154275798.398 6     -2119.645 6        39.797               
E21  28726068.722 6 150946222.301 6       433.511 6        39.887               
E27  30204572.160 6 158725982.038 6     -2973.306 6        38.468               
> 2025 01 08 19 44 19.0000000  0  4                                             
E13  28125338.384 6 147808661.354 6      -353.453 6        41.415               
E15  29358133.357 6 154277918.492 6     -2120.195 6        39.663               
E21  28726153.582 6 150945789.322 6       432.870 6        39.994               
E27  30205135.035 6 158728952.907 6     -2972.676 6        38.742               
> 2025 01 08 19 44 20.0000000  0  4                                             
E13  28125272.805 6 147809015.167 6      -352.595 6        41.344               
E15  29358538.716 6 154280038.672 6     -2120.937 6        39.547               
E21  28726238.907 6 150945355.917 6       434.257 6        40.020               
E27  30205706.379 6 158731923.972 6     -2970.519 6        38.581               
> 2025 01 08 19 44 21.0000000  0  4                                             
E13  28125206.672 6 147809368.103 6      -353.440 6        41.442               
E15  29358946.666 6 154282159.650 6     -2119.441 6        39.429               
E21  28726321.676 6 150944921.452 6       433.502 6        40.001               
E27  30206270.182 6 158734895.898 6     -2972.618 6        38.210               
> 2025 01 08 19 44 22.0000000  0  4                                             
E13  28125142.522 6 147809721.478 6      -352.202 6        41.266               
E15  29359347.468 6 154284279.980 6     -2121.140 6        39.613               
E21  28726407.483 6 150944487.271 6       436.224 6        40.280               
E27  30206843.403 6 158737867.306 6     -2970.632 6        38.354               
> 2025 01 08 19 44 23.0000000  0  4                                             
E13  28125075.638 6 147810074.654 6      -352.945 6        41.419               
E15  29359755.060 6 154286400.452 6     -2120.334 6        39.960               
E21  28726490.753 6 150944052.689 6       433.840 6        40.333               
E27  30207404.275 6 158740838.893 6     -2970.822 6        38.795               
> 2025 01 08 19 44 24.0000000  0  4                                             
E13  28125010.738 6 147810427.790 6      -352.267 6        41.413               
E15  29360163.993 6 154288520.769 6     -2119.960 6        39.883               
E21  28726574.987 6 150943617.920 6       434.771 6        40.339               
E27  30207974.762 6 158743810.431 6     -2971.269 6        39.057               
> 2025 01 08 19 44 25.0000000  0  4                                             
E13  28124946.338 6 147810780.744 6      -352.504 6        41.316               
E15  29360566.260 6 154290641.161 6     -2119.417 6        39.933               
E21  28726658.168 6 150943182.788 6       435.337 6        40.153               
E27  30208542.157 6 158746782.130 6     -2971.428 6        38.763               
> 2025 01 08 19 44 26.0000000  0  4                                             
E13  28124879.097 6 147811133.389 6      -352.094 6        41.371               
E15  29360974.407 6 154292761.757 6     -2122.279 6        39.859               
E21  28726744.422 6 150942747.151 6       436.098 6        39.991               
E27  30209104.995 6 158749754.109 6     -2972.820 6        38.546               
> 2025 01 08 19 44 27.0000000  0  4                                             
E13  28124816.144 6 147811485.322 6      -353.225 6        41.325               
E15  29361379.658 6 154294882.889 6     -2121.030 6        39.557               
E21  28726829.317 6 150942310.640 6       437.853 6        40.118               
E27  30209673.087 6 158752726.700 6     -2972.693 6        38.356               
> 2025 01 08 19 44 28.0000000  0  4                                             
E13  28124749.153 6 147811836.804 6      -352.003 6        41.019               
E15  29361784.856 6 154297004.336 6     -2122.221 6        39.240               
E21  28726913.373 6 150941873.526 6       435.277 6        40.263               
E27  30210243.091 6 158755699.714 6     -2973.493 6        38.519               
> 2025 01 08 19 44 29.0000000  0  4                                             
E13  28124683.341 6 147812188.030 6      -351.512 6        41.114               
E15  29362189.536 6 154299125.900 6     -2122.422 6        39.588               
E21  28726996.536 6 150941435.959 6       438.890 6        40.019               
E27  30210808.342 6 158758672.912 6     -2974.824 6        38.437               
> 2025 01 08 19 44 30.0000000  0  4                                             
E13  28124622.122 6 147812538.742 6      -351.010 6        41.055               
E15  29362593.519 6 154301247.853 6     -2121.228 6        39.722               
E21  28727084.487 6 150940997.718 6       438.508 6        40.008               
E27  30211378.578 6 158761646.600 6     -2973.606 6        38.650               
> 2025 01 08 19 44 31.0000000  0  4                                             
E13  28124556.757 6 147812889.398 6      -349.830 6        41.015               
E15  29362997.609 6 154303369.740 6     -2122.786 6        39.723               
E21  28727172.796 6 150940559.217 6       440.636 6        40.093               
E27  30211946.867 6 158764620.290 6     -2974.168 6        38.969               
> 2025 01 08 19 44 32.0000000  0  4                                             
E13  28124492.322 6 147813240.045 6      -350.444 6        41.199               
E15  29363401.074 6 154305491.494 6     -2121.248 6        39.815               
E21  28727255.011 6 150940120.568 6       436.084 6        40.032               
E27  30212513.422 6 158767593.935 6     -2972.002 6        38.992               
> 2025 01 08 19 44 33.0000000  0  4                                             
E13  28124426.135 6 147813590.321 6      -350.815 6        41.269               
E15  29363811.454 6 154307613.496 6     -2122.158 6        39.594               
E21  28727338.191 6 150939681.354 6       440.161 6        39.951               
E27  30213081.157 6 158770567.900 6     -2974.997 6        38.671               
> 2025 01 08 19 44 34.0000000  0  4                                             
E13  28124364.058 6 147813940.073 6      -349.551 6        41.185               
E15  29364217.992 6 154309735.881 6     -2124.029 6        39.393               
E21  28727425.696 6 150939241.450 6       441.418 6        39.911               
E27  30213650.714 6 158773542.346 6     -2973.027 6        38.979               
> 2025 01 08 19 44 35.0000000  0  4                                             
E13  28124297.603 6 147814289.252 6      -348.508 6        41.222               
E15  29364621.099 6 154311858.674 6     -2123.223 6        39.580               
E21  28727512.325 6 150938800.796 6       441.118 6        40.121               
E27  30214215.107 6 158776517.305 6     -2974.983 6        39.165               
> 2025 01 08 19 44 36.0000000  0  4                                             
E13  28124230.219 6 147814638.174 6      -349.089 6        41.267               
E15  29365025.350 6 154313981.615 6     -2121.783 6        39.679               
E21  28727597.328 6 150938359.712 6       440.804 6        40.180               
E27  30214785.183 6 158779492.482 6     -2974.470 6        39.250               
> 2025 01 08 19 44 37.0000000  0  4                                             
E13  28124165.962 6 147814987.082 6      -348.801 6        40.994               
E15  29365428.797 6 154316104.444 6     -2122.813 6        39.606               
E21  28727683.206 6 150937918.419 6       443.141 6        40.036               
E27  30215349.093 6 158782467.617 6     -2973.660 6        38.982               
> 2025 01 08 19 44 38.0000000  0  4                                             
E13  28124105.011 6 147815335.669 6      -348.479 6        40.728               
E15  29365836.979 6 154318227.455 6     -2123.090 6        39.401               
E21  28727769.764 6 150937476.655 6       444.365 6        40.188               
E27  30215922.439 6 158785443.034 6     -2974.357 6        38.752               
> 2025 01 08 19 44 39.0000000  0  4                                             
E13  28124036.536 6 147815683.880 6      -347.994 6        41.062               
E15  29366243.106 6 154320350.689 6     -2123.342 6        39.135               
E21  28727854.249 6 150937034.338 6       439.350 6        39.969               
E27  30216488.172 6 158788418.757 6     -2977.281 6        38.505               
> 2025 01 08 19 44 40.0000000  0  4                                             
E13  28123973.459 6 147816031.651 6      -347.497 6        41.219               
E15  29366653.468 6 154322474.242 6     -2123.013 6        39.420               
E21  28727940.520 6 150936591.397 6       442.788 6        39.951               
E27  30217053.816 6 158791394.878 6     -2975.858 6        38.897               
> 2025 01 08 19 44 41.0000000  0  4                                             
E13  28123909.238 6 147816379.080 6      -347.506 6        41.207               
E15  29367051.822 6 154324598.005 6     -2124.260 6        39.329               
E21  28728029.437 6 150936147.948 6       442.661 6        40.244               
E27  30217620.407 6 158794371.302 6     -2976.439 6        38.947               
> 2025 01 08 19 44 42.0000000  0  4                                             
E13  28123846.053 6 147816726.485 6      -347.125 6        41.028               
E15  29367463.132 6 154326721.669 6     -2121.778 6        39.572               
E21  28728113.403 6 150935704.307 6       441.762 6        40.271               
E27  30218191.608 6 158797347.674 6     -2977.170 6        39.005               
> 2025 01 08 19 44 43.0000000  0  4                                             
E13  28123783.279 6 147817073.841 6      -346.370 6        41.128               
E15  29367867.954 6 154328845.226 6     -2123.250 6        39.861               
E21  28728199.836 6 150935260.417 6       444.326 6        40.292               
E27  30218761.630 6 158800324.063 6     -2974.798 6        39.139               
> 2025 01 08 19 44 44.0000000  0  4                                             
E13  28123716.842 6 147817420.722 6      -348.591 6        40.667               
E15  29368271.598 6 154330969.131 6     -2124.177 6        39.981               
E21  28728288.448 6 150934815.891 6       442.545 6        40.412               
E27  30219328.149 6 158803300.883 6     -2975.114 6        39.196               
> 2025 01 08 19 44 45.0000000  0  4                                             
E13  28123651.173 6 147817767.202 6      -346.045 6        40.761               
E15  29368677.010 6 154333093.283 6     -2124.487 6        39.974               
E21  28728371.896 6 150934370.792 6       445.237 6        40.086               
E27  30219902.853 6 158806278.054 6     -2975.847 6        38.761               
> 2025 01 08 19 44 46.0000000  0  4                                             
E13  28123587.988 6 147818113.429 6      -347.164 6        40.956               
E15  29369086.103 6 154335217.604 6     -2125.332 6        39.702               
E21  28728459.937 6 150933925.262 6       443.601 6        40.493               
E27  30220464.173 6 158809255.417 6     -2976.608 6        38.772               
> 2025 01 08 19 44 47.0000000  0  4                                             
E13  28123522.373 6 147818459.434 6      -346.421 6        40.667               
E15  29369491.105 6 154337341.941 6     -2124.308 6        39.645               
E21  28728546.191 6 150933479.322 6       445.499 6        40.466               
E27  30221035.249 6 158812232.962 6     -2977.276 6        38.871               
> 2025 01 08 19 44 48.0000000  0  4                                             
E13  28123462.691 6 147818805.223 6      -345.736 6        40.541               
E15  29369897.697 6 154339466.407 6     -2124.196 6        39.794               
E21  28728634.535 6 150933033.019 6       446.661 6        40.334               
E27  30221600.982 6 158815210.634 6     -2977.862 6        38.896               
> 2025 01 08 19 44 49.0000000  0  4                                             
E13  28123395.378 6 147819150.787 6      -345.097 6        40.592               
E15  29370303.842 6 154341590.973 6     -2126.111 6        39.612               
E21  28728722.665 6 150932586.288 6       448.275 6        40.242               
E27  30222169.253 6 158818188.521 6     -2976.423 6        38.963               
> 2025 01 08 19 44 50.0000000  0  4                                             
E13  28123332.032 6 147819496.008 6      -346.033 6        40.835               
E15  29370710.558 6 154343715.704 6     -2125.236 6        39.725               
E21  28728805.292 6 150932139.079 6       445.117 6        40.239               
E27  30222741.043 6 158821166.711 6     -2978.641 6        38.711               
> 2025 01 08 19 44 51.0000000  0  4                                             
E13  28123271.296 6 147819840.910 6      -344.728 6        40.789               
E15  29371117.525 6 154345840.655 6     -2125.315 6        39.915               
E21  28728894.154 6 150931691.336 6       445.800 6        40.189               
E27  30223309.725 6 158824145.134 6     -2978.487 6        38.860               
> 2025 01 08 19 44 52.0000000  0  4                                             
E13  28123204.876 6 147820185.736 6      -345.664 6        40.829               
E15  29371525.171 6 154347965.528 6     -2125.008 6        40.128               
E21  28728980.766 6 150931243.368 6       445.826 6        40.171               
E27  30223878.746 6 158827123.612 6     -2976.167 6        38.827               
> 2025 01 08 19 44 53.0000000  0  4                                             
E13  28123140.208 6 147820530.332 6      -344.000 6        40.736               
E15  29371926.939 6 154350090.495 6     -2124.595 6        39.955               
E21  28729067.984 6 150930794.982 6       448.949 6        40.381               
E27  30224446.785 6 158830102.239 6     -2979.220 6        38.793               
> 2025 01 08 19 44 54.0000000  0  4                                             
E13  28123077.309 6 147820874.024 6      -342.800 6        40.577               
E15  29372338.230 6 154352216.235 6     -2126.351 6        39.963               
E21  28729154.881 6 150930345.525 6       450.126 6        40.134               
E27  30225018.004 6 158833081.740 6     -2978.964 6        39.158               
> 2025 01 08 19 44 55.0000000  0  4                                             
E13  28123014.893 6 147821217.440 6      -344.456 6        40.422               
E15  29372746.180 6 154354342.131 6     -2125.709 6        39.999               
E21  28729243.512 6 150929895.602 6       449.517 6        40.345               
E27  30225584.505 6 158836061.472 6     -2979.447 6        38.809               
> 2025 01 08 19 44 56.0000000  0  4                                             
E13  28122950.082 6 147821560.535 6      -344.137 6        40.591               
E15  29373151.878 6 154356468.176 6     -2126.093 6        40.312               
E21  28729330.659 6 150929445.211 6       449.991 6        40.118               
E27  30226150.918 6 158839041.456 6     -2980.269 6        38.895               
> 2025 01 08 19 44 57.0000000  0  4                                             
E13  28122886.129 6 147821903.252 6      -342.808 6        40.721               
E15  29373552.305 6 154358594.472 6     -2125.950 6        40.196               
E21  28729418.896 6 150928994.240 6       450.993 6        40.018               
E27  30226718.599 6 158842021.754 6     -2978.009 6        38.815               
> 2025 01 08 19 44 58.0000000  0  4                                             
E13  28122826.553 6 147822245.665 6      -341.697 6        40.626               
E15  29373963.936 6 154360720.970 6     -2127.826 6        40.200               
E21  28729507.902 6 150928542.792 6       451.076 6        40.296               
E27  30227290.604 6 158845002.351 6     -2981.029 6        38.476               
> 2025 01 08 19 44 59.0000000  0  4                                             
E13  28122761.457 6 147822587.605 6      -340.387 6        40.470               
E15  29374369.277 6 154362847.782 6     -2126.919 6        40.221               
E21  28729596.228 6 150928090.706 6       453.984 6        40.257               
E27  30227857.284 6 158847983.330 6     -2980.413 6        38.741               
> 2025 01 08 19 45 00.0000000  0  4                                             
E13  28122696.789 6 147822929.337 6      -341.411 6        40.400               
E15  29374776.315 6 154364974.669 6     -2126.711 6        40.033               
E21  28729686.985 6 150927638.228 6       452.811 6        40.594               
E27  30228428.914 6 158850964.482 6     -2978.631 6        38.611               
> 2025 01 08 19 45 01.0000000  0  4                                             
E13  28122635.426 6 147823270.818 6      -340.975 6        40.383               
E15  29375177.564 6 154367101.665 6     -2127.141 6        39.599               
E21  28729770.576 6 150927185.354 6       451.414 6        40.708               
E27  30229000.830 6 158853945.833 6     -2982.060 6        38.576               
> 2025 01 08 19 45 02.0000000  0  4                                             
E13  28122572.760 6 147823612.317 6      -341.512 6        40.601               
E15  29375589.248 6 154369228.509 6     -2126.178 6        39.750               
E21  28729856.097 6 150926732.293 6       452.183 6        40.851               
E27  30229564.491 6 158856927.088 6     -2979.973 6        38.330               
> 2025 01 08 19 45 03.0000000  0  4                                             
E13  28122508.020 6 147823953.727 6      -340.988 6        40.626               
E15  29375994.232 6 154371355.311 6     -2126.494 6        39.732               
E21  28729946.765 6 150926278.963 6       454.246 6        40.651               
E27  30230133.744 6 158859908.445 6     -2981.838 6        38.623               
> 2025 01 08 19 45 04.0000000  0  4                                             
E13  28122446.801 6 147824294.727 6      -340.303 6        40.295               
E15  29376401.038 6 154373482.386 6     -2128.087 6        39.633               
E21  28730034.520 6 150925825.067 6       455.248 6        40.630               
E27  30230704.088 6 158862890.090 6     -2980.575 6        38.620               
> 2025 01 08 19 45 05.0000000  0  4                                             
E13  28122381.400 6 147824635.306 6      -340.135 6        40.122               
E15  29376804.360 6 154375609.750 6     -2127.244 6        39.644               
E21  28730121.327 6 150925370.574 6       454.242 6        40.637               
E27  30231275.718 6 158865872.162 6     -2982.733 6        38.498               
> 2025 01 08 19 45 06.0000000  0  4                                             
E13  28122320.378 6 147824975.529 6      -339.876 6        40.040               
E15  29377212.024 6 154377737.330 6     -2127.776 6        39.838               
E21  28730212.031 6 150924915.543 6       454.409 6        40.591               
E27  30231841.201 6 158868854.497 6     -2980.576 6        38.782               
> 2025 01 08 19 45 07.0000000  0  4                                             
E13  28122257.264 6 147825315.557 6      -338.978 6        40.091               
E15  29377618.866 6 154379865.001 6     -2127.390 6        39.993               
E21  28730301.662 6 150924460.120 6       455.229 6        40.361               
E27  30232411.383 6 158871837.007 6     -2981.916 6        38.493               
> 2025 01 08 19 45 08.0000000  0  4                                             
E13  28122191.774 6 147825655.097 6      -339.355 6        40.166               
E15  29378025.708 6 154381992.990 6     -2128.259 6        39.840               
E21  28730387.987 6 150924004.068 6       453.984 6        40.304               
E27  30232985.247 6 158874819.954 6     -2984.120 6        38.457               
> 2025 01 08 19 45 09.0000000  0  4                                             
E13  28122130.287 6 147825994.281 6      -338.090 6        40.101               
E15  29378433.872 6 154384121.214 6     -2129.407 6        39.748               
E21  28730477.707 6 150923547.457 6       457.063 6        40.408               
E27  30233553.982 6 158877803.208 6     -2982.603 6        38.591               
> 2025 01 08 19 45 10.0000000  0  4                                             
E13  28122072.016 6 147826333.282 6      -338.451 6        40.098               
E15  29378838.230 6 154386249.468 6     -2129.200 6        39.688               
E21  28730566.355 6 150923090.520 6       457.284 6        40.684               
E27  30234118.733 6 158880786.537 6     -2984.112 6        38.498               
> 2025 01 08 19 45 11.0000000  0  4                                             
E13  28122005.722 6 147826672.193 6      -339.401 6        40.455               
E15  29379246.537 6 154388377.679 6     -2128.001 6        39.606               
E21  28730654.200 6 150922633.295 6       458.519 6        40.628               
E27  30234689.666 6 158883769.965 6     -2983.519 6        38.586               
> 2025 01 08 19 45 12.0000000  0  4                                             
E13  28121942.626 6 147827010.709 6      -337.636 6        40.524               
E15  29379652.754 6 154390506.157 6     -2129.703 6        39.217               
E21  28730742.687 6 150922175.508 6       457.659 6        40.641               
E27  30235260.867 6 158886753.733 6     -2983.028 6        38.342               
> 2025 01 08 19 45 13.0000000  0  4                                             
E13  28121880.299 6 147827348.913 6      -339.243 6        40.508               
E15  29380058.166 6 154392634.823 6     -2128.136 6        39.404               
E21  28730830.049 6 150921717.231 6       457.486 6        40.624               
E27  30235831.711 6 158889737.748 6     -2984.483 6        38.446               
> 2025 01 08 19 45 14.0000000  0  4                                             
E13  28121820.206 6 147827686.900 6      -337.302 6        40.670               
E15  29380466.527 6 154394763.548 6     -2128.930 6        39.538               
E21  28730921.627 6 150921258.571 6       458.809 6        40.783               
E27  30236398.409 6 158892721.899 6     -2984.235 6        38.499               
> 2025 01 08 19 45 15.0000000  0  4                                             
E13  28121757.235 6 147828024.781 6      -337.815 6        40.606               
E15  29380876.174 6 154396892.235 6     -2128.572 6        39.961               
E21  28731011.562 6 150920799.637 6       458.683 6        40.868               
E27  30236970.164 6 158895706.127 6     -2984.379 6        38.522               
> 2025 01 08 19 45 16.0000000  0  4                                             
E13  28121691.513 6 147828362.361 6      -337.538 6        40.390               
E15  29381284.714 6 154399021.133 6     -2129.589 6        39.713               
E21  28731100.103 6 150920340.196 6       459.259 6        40.656               
E27  30237538.453 6 158898690.620 6     -2986.629 6        38.384               
> 2025 01 08 19 45 17.0000000  0  4                                             
E13  28121632.992 6 147828699.436 6      -337.505 6        40.171               
E15  29381688.875 6 154401150.358 6     -2128.964 6        39.659               
E21  28731188.930 6 150919880.105 6       458.273 6        40.787               
E27  30238108.510 6 158901675.554 6     -2986.511 6        38.181               
> 2025 01 08 19 45 18.0000000  0  4                                             
E13  28121567.037 6 147829036.220 6      -336.027 6        40.203               
E15  29382095.914 6 154403279.757 6     -2129.113 6        39.673               
E21  28731278.507 6 150919419.525 6       462.554 6        40.675               
E27  30238679.533 6 158904660.734 6     -2982.779 6        38.225               
> 2025 01 08 19 45 19.0000000  0  4                                             
E13  28121507.194 6 147829372.898 6      -337.237 6        40.109               
E15  29382502.934 6 154405409.145 6     -2129.714 6        39.804               
E21  28731367.209 6 150918958.653 6       460.898 6        40.782               
E27  30239248.054 6 158907645.979 6     -2985.015 6        38.057               
> 2025 01 08 19 45 20.0000000  0  4                                             
E13  28121446.761 6 147829709.298 6      -336.211 6        40.241               
E15  29382907.703 6 154407538.611 6     -2128.200 6        40.035               
E21  28731457.591 6 150918497.365 6       461.302 6        40.889               
E27  30239818.772 6 158910631.423 6     -2985.688 6        38.054               
> 2025 01 08 19 45 21.0000000  0  4                                             
E13  28121382.272 6 147830045.430 6      -336.402 6        39.887               
E15  29383316.118 6 154409668.258 6     -2130.858 6        40.188               
E21  28731547.150 6 150918035.615 6       463.092 6        40.927               
E27  30240389.187 6 158913617.095 6     -2985.593 6        38.226               
> 2025 01 08 19 45 22.0000000  0  4                                             
E13  28121321.356 6 147830381.187 6      -335.571 6        39.927               
E15  29383721.351 6 154411798.153 6     -2130.509 6        40.373               
E21  28731638.568 6 150917573.311 6       463.079 6        40.877               
E27  30240961.300 6 158916603.114 6     -2987.243 6        37.916               
> 2025 01 08 19 45 23.0000000  0  4                                             
E13  28121256.635 6 147830716.637 6      -335.744 6        40.037               
E15  29384130.159 6 154413928.203 6     -2130.837 6        40.497               
E21  28731728.092 6 150917110.512 6       465.736 6        41.120               
E27  30241528.087 6 158919589.353 6     -2985.577 6        38.144               
> 2025 01 08 19 45 24.0000000  0  4                                             
E13  28121194.540 6 147831051.844 6      -335.045 6        40.282               
E15  29384542.022 6 154416058.361 6     -2130.361 6        40.150               
E21  28731815.918 6 150916647.323 6       462.760 6        40.961               
E27  30242096.555 6 158922575.776 6     -2987.156 6        37.988               
> 2025 01 08 19 45 25.0000000  0  4                                             
E13  28121133.910 6 147831386.631 6      -334.704 6        40.217               
E15  29384945.469 6 154418188.785 6     -2131.055 6        40.421               
E21  28731905.960 6 150916183.545 6       463.127 6        40.752               
E27  30242667.702 6 158925562.601 6     -2986.628 6        37.857               
> 2025 01 08 19 45 26.0000000  0  4                                             
E13  28121073.763 6 147831721.040 6      -334.066 6        40.249               
E15  29385355.188 6 154420319.465 6     -2131.638 6        40.458               
E21  28731997.968 6 150915719.175 6       464.892 6        40.983               
E27  30243237.420 6 158928549.729 6     -2988.141 6        37.598               
> 2025 01 08 19 45 27.0000000  0  4                                             
E13  28121010.900 6 147832055.164 6      -332.422 6        39.990               
E15  29385758.795 6 154422450.283 6     -2130.168 6        40.244               
E21  28732087.670 6 150915254.369 6       467.014 6        41.031               
E27  30243810.605 6 158931537.104 6     -2986.611 6        38.118               
> 2025 01 08 19 45 28.0000000  0  4                                             
E13  28120948.948 6 147832388.786 6      -332.830 6        40.188               
E15  29386168.693 6 154424581.490 6     -2131.099 6        40.321               
E21  28732178.034 6 150914788.877 6       466.587 6        40.928               
E27  30244379.555 6 158934524.910 6     -2985.776 6        37.977               
> 2025 01 08 19 45 29.0000000  0  4                                             
E13  28120888.694 6 147832722.044 6      -332.365 6        39.869               
E15  29386574.927 6 154426712.914 6     -2130.905 6        40.712               
E21  28732269.809 6 150914322.838 6       466.004 6        41.036               
E27  30244947.057 6 158937513.058 6     -2987.205 6        38.199               
> 2025 01 08 19 45 30.0000000  0  4                                             
E13  28120823.936 6 147833055.003 6      -331.968 6        40.083               
E15  29386982.216 6 154428844.511 6     -2132.555 6        40.682               
E21  28732362.192 6 150913856.341 6       466.071 6        40.995               
E27  30245517.329 6 158940501.442 6     -2989.638 6        38.220               
> 2025 01 08 19 45 31.0000000  0  4                                             
E13  28120763.325 6 147833387.768 6      -332.043 6        39.976               
E15  29387386.324 6 154430976.151 6     -2131.210 6        40.750               
E21  28732450.412 6 150913389.466 6       467.586 6        40.912               
E27  30246087.690 6 158943489.930 6     -2987.935 6        37.767               
> 2025 01 08 19 45 32.0000000  0  4                                             
E13  28120699.300 6 147833720.131 6      -331.202 6        40.145               
E15  29387800.081 6 154433108.072 6     -2131.591 6        40.531               
E21  28732539.042 6 150912922.010 6       469.620 6        41.197               
E27  30246659.642 6 158946478.827 6     -2990.591 6        37.837               
> 2025 01 08 19 45 33.0000000  0  4                                             
E13  28120641.118 6 147834052.073 6      -333.497 6        39.580               
E15  29388207.673 6 154435240.274 6     -2132.234 6        40.308               
E21  28732631.550 6 150912453.966 6       467.649 6        41.053               
E27  30247228.181 6 158949468.063 6     -2989.093 6        38.118               
> 2025 01 08 19 45 34.0000000  0  4                                             
E13  28120577.898 6 147834383.849 6      -330.732 6        39.528               
E15  29388614.283 6 154437372.491 6     -2131.481 6        40.336               
E21  28732719.841 6 150911985.571 6       467.639 6        41.138               
E27  30247799.078 6 158952457.440 6     -2989.588 6        37.863               
> 2025 01 08 19 45 35.0000000  0  4                                             
E13  28120517.304 6 147834715.239 6      -330.468 6        39.318               
E15  29389018.266 6 154439504.962 6     -2133.671 6        40.508               
E21  28732812.795 6 150911516.625 6       468.775 6        40.998               
E27  30248369.475 6 158955447.096 6     -2987.938 6        37.779               
> 2025 01 08 19 45 36.0000000  0  4                                             
E13  28120459.998 6 147835046.286 6      -331.256 6        39.464               
E15  29389428.163 6 154441637.629 6     -2132.598 6        40.608               
E21  28732906.501 6 150911047.150 6       467.967 6        41.105               
E27  30248941.945 6 158958437.061 6     -2988.578 6        37.965               
> 2025 01 08 19 45 37.0000000  0  4                                             
E13  28120396.259 6 147835376.881 6      -329.934 6        39.726               
E15  29389831.449 6 154443770.641 6     -2133.097 6        40.360               
E21  28732997.668 6 150910577.043 6       470.610 6        41.029               
E27  30249512.038 6 158961427.471 6     -2989.654 6        38.057               
> 2025 01 08 19 45 38.0000000  0  4                                             
E13  28120337.273 6 147835707.213 6      -332.524 6        39.614               
E15  29390242.902 6 154445903.778 6     -2134.321 6        40.473               
E21  28733087.442 6 150910106.518 6       470.682 6        40.968               
E27  30250082.150 6 158964418.036 6     -2988.420 6        37.712               
> 2025 01 08 19 45 39.0000000  0  4                                             
E13  28120275.375 6 147836037.294 6      -329.525 6        39.662               
E15  29390650.029 6 154448037.015 6     -2132.223 6        40.243               
E21  28733175.269 6 150909635.548 6       470.633 6        40.905               
E27  30250651.278 6 158967408.840 6     -2990.820 6        38.048               
> 2025 01 08 19 45 40.0000000  0  4                                             
E13  28120212.119 6 147836367.058 6      -328.561 6        39.787               
E15  29391056.585 6 154450170.445 6     -2133.902 6        40.284               
E21  28733272.190 6 150909164.096 6       470.974 6        40.914               
E27  30251223.676 6 158970399.884 6     -2992.487 6        37.936               
> 2025 01 08 19 45 41.0000000  0  4                                             
E13  28120152.937 6 147836696.412 6      -328.878 6        39.738               
E15  29391462.319 6 154452304.135 6     -2133.381 6        40.159               
E21  28733360.928 6 150908692.049 6       471.693 6        40.754               
E27  30251797.040 6 158973391.292 6     -2990.064 6        37.653               
> 2025 01 08 19 45 42.0000000  0  4                                             
E13  28120092.754 6 147837025.537 6      -328.866 6        39.675               
E15  29391871.824 6 154454437.917 6     -2133.253 6        40.088               
E21  28733452.846 6 150908219.611 6       473.257 6        41.084               
E27  30252367.705 6 158976382.866 6     -2991.727 6        37.808               
> 2025 01 08 19 45 43.0000000  0  4                                             
E13  28120029.247 6 147837354.413 6      -328.704 6        39.543               
E15  29392278.880 6 154456571.827 6     -2133.343 6        40.009               
E21  28733542.763 6 150907746.721 6       474.995 6        41.436               
E27  30252937.441 6 158979374.673 6     -2992.841 6        37.908               
> 2025 01 08 19 45 44.0000000  0  4                                             
E13  28119971.244 6 147837683.004 6      -328.532 6        39.393               
E15  29392687.152 6 154458705.871 6     -2134.460 6        39.979               
E21  28733634.181 6 150907273.399 6       474.466 6        41.107               
E27  30253507.874 6 158982366.649 6     -2989.450 6        37.890               
> 2025 01 08 19 45 45.0000000  0  4                                             
E13  28119907.774 6 147838011.232 6      -327.556 6        39.398               
E15  29393093.404 6 154460840.137 6     -2134.286 6        39.799               
E21  28733727.886 6 150906799.528 6       473.454 6        40.891               
E27  30254084.829 6 158985358.999 6     -2993.510 6        37.615               
> 2025 01 08 19 45 46.0000000  0  4                                             
E13  28119849.253 6 147838339.040 6      -327.843 6        39.453               
E15  29393506.893 6 154462974.699 6     -2134.118 6        39.846               
E21  28733822.091 6 150906325.058 6       474.415 6        40.901               
E27  30254653.046 6 158988351.678 6     -2993.766 6        37.673               
> 2025 01 08 19 45 47.0000000  0  4                                             
E13  28119789.373 6 147838666.209 6      -327.485 6        39.658               
E15  29393914.503 6 154465109.771 6     -2136.281 6        39.846               
E21  28733910.061 6 150905849.778 6       473.915 6        41.149               
E27  30255223.157 6 158991344.965 6     -2994.356 6        37.492               
> 2025 01 08 19 45 48.0000000  0  4                                             
E13  28119729.798 6 147838993.173 6      -325.766 6        39.588               
E15  29394321.220 6 154467244.914 6     -2135.031 6        39.859               
E21  28734007.411 6 150905374.091 6       475.601 6        41.134               
E27  30255793.447 6 158994338.403 6     -2991.589 6        37.989               
> 2025 01 08 19 45 49.0000000  0  4                                             
E13  28119668.954 6 147839320.168 6      -326.679 6        39.629               
E15  29394726.543 6 154469379.848 6     -2133.776 6        39.942               
E21  28734097.382 6 150904898.317 6       476.022 6        40.982               
E27  30256364.058 6 158997331.740 6     -2993.911 6        38.053               
> 2025 01 08 19 45 50.0000000  0  4                                             
E13  28119606.073 6 147839647.265 6      -327.118 6        39.615               
E15  29395139.443 6 154471514.605 6     -2135.143 6        39.935               
E21  28734190.854 6 150904422.400 6       475.752 6        41.289               
E27  30256937.475 6 159000324.911 6     -2993.444 6        37.968               
> 2025 01 08 19 45 51.0000000  0  4                                             
E13  28119545.336 6 147839974.209 6      -327.259 6        39.712               
E15  29395545.302 6 154473649.323 6     -2134.393 6        39.971               
E21  28734281.843 6 150903946.201 6       478.501 6        41.378               
E27  30257512.071 6 159003318.215 6     -2992.483 6        37.881               
> 2025 01 08 19 45 52.0000000  0  4                                             
E13  28119486.869 6 147840300.349 6      -325.951 6        39.525               
E15  29395956.647 6 154475784.743 6     -2137.198 6        39.978               
E21  28734375.424 6 150903469.012 6       476.786 6        41.683               
E27  30258076.983 6 159006312.242 6     -2994.834 6        37.538               
> 2025 01 08 19 45 53.0000000  0  4                                             
E13  28119429.062 6 147840625.913 6      -326.008 6        39.617               
E15  29396362.524 6 154477920.592 6     -2135.644 6        39.749               
E21  28734468.003 6 150902991.044 6       479.670 6        41.542               
E27  30258645.021 6 159009306.841 6     -2996.683 6        37.247               
> 2025 01 08 19 45 54.0000000  0  4                                             
E13  28119365.395 6 147840951.842 6      -325.063 6        39.615               
E15  29396768.222 6 154480055.922 6     -2137.033 6        39.891               
E21  28734561.386 6 150902513.313 6       478.252 6        41.376               
E27  30259221.494 6 159012300.953 6     -2993.658 6        37.319               
> 2025 01 08 19 45 55.0000000  0  4                                             
E13  28119307.625 6 147841277.260 6      -323.638 6        39.605               
E15  29397177.029 6 154482191.638 6     -2135.602 6        39.741               
E21  28734654.931 6 150902034.862 6       478.673 6        41.153               
E27  30259792.034 6 159015295.562 6     -2994.705 6        37.331               
> 2025 01 08 19 45 56.0000000  0  4                                             
E13  28119247.603 6 147841602.370 6      -324.454 6        39.710               
E15  29397586.445 6 154484327.521 6     -2134.014 6        39.752               
E21  28734746.760 6 150901555.935 6       479.074 6        41.219               
E27  30260365.147 6 159018290.424 6     -2994.393 6        37.120               
> 2025 01 08 19 45 57.0000000  0  4                                             
E13  28119187.420 6 147841927.191 6      -324.567 6        39.495               
E15  29397992.357 6 154486463.576 6     -2135.516 6        39.769               
E21  28734838.446 6 150901076.553 6       478.433 6        41.484               
E27  30260934.793 6 159021285.517 6     -2994.560 6        37.091               
> 2025 01 08 19 45 58.0000000  0  4                                             
E13  28119124.556 6 147842252.832 6      -326.058 6        39.319               
E15  29398399.896 6 154488598.676 6     -2135.703 6        39.793               
E21  28734934.545 6 150900597.784 6       478.793 6        41.535               
E27  30261510.676 6 159024279.763 6     -2996.214 6        36.922               
> 2025 01 08 19 45 59.0000000  0  4                                             
E13  28119066.393 6 147842577.585 6      -324.595 6        39.427               
E15  29398807.542 6 154490734.503 6     -2137.034 6        39.916               
E21  28735025.141 6 150900117.988 6       480.124 6        41.581               
E27  30262082.789 6 159027274.798 6     -2996.176 6        37.165               
> 2025 01 08 19 46 00.0000000  0  4                                             
E13  28119005.459 6 147842901.866 6      -324.333 6        39.161               
E15  29399216.010 6 154492870.691 6     -2136.372 6        39.733               
E21  28735119.740 6 150899637.526 6       480.522 6        41.376               
E27  30262650.809 6 159030270.294 6     -2996.122 6        37.355               
> 2025 01 08 19 46 01.0000000  0  4                                             
E13  28118948.832 6 147843225.991 6      -324.041 6        39.195               
E15  29399624.496 6 154495006.875 6     -2136.536 6        39.641               
E21  28735215.536 6 150899156.713 6       483.113 6        41.585               
E27  30263221.349 6 159033265.844 6     -2995.553 6        37.214               
> 2025 01 08 19 46 02.0000000  0  4                                             
E13  28118885.701 6 147843550.316 6      -325.082 6        39.571               
E15  29400031.517 6 154497142.736 6     -2135.942 6        39.607               
E21  28735306.614 6 150898675.943 6       482.662 6        41.537               
E27  30263800.574 6 159036261.203 6     -2994.816 6        37.423               
> 2025 01 08 19 46 03.0000000  0  4                                             
E13  28118828.038 6 147843874.297 6      -324.182 6        39.635               
E15  29400439.645 6 154499278.793 6     -2135.904 6        39.474               
E21  28735401.910 6 150898194.668 6       481.172 6        41.629               
E27  30264365.092 6 159039256.798 6     -2995.923 6        37.216               
> 2025 01 08 19 46 04.0000000  0  4                                             
E13  28118765.711 6 147844197.065 6      -322.913 6        39.488               
E15  29400855.850 6 154501415.946 6     -2138.283 6        39.432               
E21  28735492.684 6 150897711.998 6       483.904 6        41.623               
E27  30264943.280 6 159042253.585 6     -2997.084 6        37.399               
> 2025 01 08 19 46 05.0000000  0  4                                             
E13  28118705.760 6 147844518.708 6      -321.079 6        39.442               
E15  29401261.477 6 154503554.074 6     -2137.492 6        39.678               
E21  28735588.677 6 150897227.991 6       486.605 6        41.822               
E27  30265509.156 6 159045251.444 6     -2996.438 6        37.067               
> 2025 01 08 19 46 06.0000000  0  4                                             
E13  28118647.454 6 147844840.056 6      -321.107 6        39.420               
E15  29401668.408 6 154505692.350 6     -2137.934 6        39.890               
E21  28735681.024 6 150896743.560 6       484.744 6        41.720               
E27  30266082.698 6 159048249.526 6     -2999.468 6        37.276               
> 2025 01 08 19 46 07.0000000  0  4                                             
E13  28118589.844 6 147845161.799 6      -322.116 6        39.204               
E15  29402075.769 6 154507830.103 6     -2137.774 6        40.181               
E21  28735775.604 6 150896259.311 6       483.835 6        41.639               
E27  30266658.742 6 159051247.170 6     -2998.973 6        37.144               
> 2025 01 08 19 46 08.0000000  0  4                                             
E13  28118529.071 6 147845483.443 6      -321.148 6        39.060               
E15  29402482.360 6 154509967.810 6     -2137.706 6        39.916               
E21  28735867.916 6 150895774.807 6       485.585 6        41.748               
E27  30267229.693 6 159054244.853 6     -2999.194 6        36.796               
> 2025 01 08 19 46 09.0000000  0  4                                             
E13  28118470.872 6 147845804.393 6      -320.760 6        39.058               
E15  29402895.117 6 154512106.106 6     -2138.458 6        39.918               
E21  28735963.658 6 150895289.430 6       485.997 6        41.501               
E27  30267805.897 6 159057243.183 6     -2999.338 6        37.195               
> 2025 01 08 19 46 10.0000000  0  4                                             
E13  28118411.386 6 147846124.794 6      -319.988 6        39.443               
E15  29403305.640 6 154514244.789 6     -2139.390 6        39.862               
E21  28736057.435 6 150894803.312 6       487.322 6        41.666               
E27  30268379.171 6 159060242.033 6     -2997.364 6        37.224               
> 2025 01 08 19 46 11.0000000  0  4                                             
E13  28118352.239 6 147846444.888 6      -320.135 6        39.542               
E15  29403710.838 6 154516383.642 6     -2139.213 6        39.920               
E21  28736152.105 6 150894316.726 6       485.538 6        41.693               
E27  30268949.015 6 159063241.069 6     -2997.394 6        37.321               
> 2025 01 08 19 46 12.0000000  0  4                                             
E13  28118293.522 6 147846764.643 6      -319.263 6        39.450               
E15  29404119.413 6 154518522.682 6     -2140.013 6        40.019               
E21  28736245.542 6 150893829.642 6       487.547 6        41.928               
E27  30269518.554 6 159066240.423 6     -3000.440 6        37.481               
> 2025 01 08 19 46 13.0000000  0  4                                             
E13  28118235.090 6 147847084.137 6      -319.526 6        39.229               
E15  29404530.436 6 154520661.868 6     -2138.722 6        39.945               
E21  28736341.016 6 150893342.111 6       488.147 6        41.945               
E27  30270090.273 6 159069239.977 6     -2999.294 6        37.802               
> 2025 01 08 19 46 14.0000000  0  4                                             
E13  28118176.694 6 147847403.639 6      -319.130 6        39.207               
E15  29404937.868 6 154522800.909 6     -2139.164 6        39.684               
E21  28736439.063 7 150892854.374 7       488.558 7        42.112               
E27  30270663.243 6 159072239.498 6     -3000.420 6        37.503               
> 2025 01 08 19 46 15.0000000  0  4                                             
E13  28118117.494 6 147847723.054 6      -318.205 6        39.177               
E15  29405346.818 6 154524939.906 6     -2139.250 6        39.987               
E21  28736529.159 7 150892366.407 7       487.919 7        42.070               
E27  30271234.784 6 159075239.050 6     -3001.193 6        37.649               
> 2025 01 08 19 46 16.0000000  0  4                                             
E13  28118057.329 6 147848042.111 6      -318.832 6        39.076               
E15  29405755.376 6 154527079.111 6     -2139.198 6        39.758               
E21  28736627.046 7 150891877.895 7       487.165 7        42.048               
E27  30271807.647 6 159078238.886 6     -2998.133 6        37.659               
> 2025 01 08 19 46 17.0000000  0  4                                             
E13  28117999.648 6 147848360.774 6      -318.279 6        39.192               
E15  29406160.520 6 154529218.558 6     -2138.668 6        39.693               
E21  28736722.377 7 150891388.828 7       489.956 7        42.305               
E27  30272383.173 6 159081239.067 6     -3002.275 6        37.542               
> 2025 01 08 19 46 18.0000000  0  4                                             
E13  28117939.215 6 147848678.920 6      -317.514 6        39.317               
E15  29406574.617 6 154531358.423 6     -2141.223 6        40.002               
E21  28736817.619 7 150890899.027 7       491.062 7        42.474               
E27  30272956.054 6 159084239.720 6     -3001.677 6        37.263               
> 2025 01 08 19 46 19.0000000  0  4                                             
E13  28117883.785 6 147848996.206 6      -315.963 6        39.177               
E15  29406979.332 6 154533498.976 6     -2141.430 6        39.983               
E21  28736908.983 7 150890408.233 7       492.646 7        42.169               
E27  30273530.739 6 159087241.168 6     -3003.634 6        37.538               
> 2025 01 08 19 46 20.0000000  0  4                                             
E13  28117821.869 6 147849312.895 6      -317.254 6        39.074               
E15  29407391.177 6 154535639.993 6     -2140.195 6        39.990               
E21  28737007.102 7 150889916.661 7       492.528 7        42.387               
E27  30274103.102 6 159090243.152 6     -3001.822 6        37.464               
> 2025 01 08 19 46 21.0000000  0  4                                             
E13  28117765.796 6 147849629.325 6      -315.275 6        38.913               
E15  29407802.951 6 154537781.176 6     -2141.275 6        40.392               
E21  28737103.612 7 150889424.609 7       493.122 7        42.324               
E27  30274669.889 6 159093245.378 6     -3002.097 6        37.329               
> 2025 01 08 19 46 22.0000000  0  4                                             
E13  28117705.631 6 147849946.127 6      -317.415 6        39.027               
E15  29408212.027 6 154539921.807 6     -2139.965 6        40.489               
E21  28737195.227 6 150888932.792 6       490.955 6        41.893               
E27  30275249.096 6 159096247.148 6     -3000.972 6        37.036               
> 2025 01 08 19 46 23.0000000  0  4                                             
E13  28117648.825 6 147850262.790 6      -316.543 6        39.060               
E15  29408620.316 6 154542062.448 6     -2139.121 6        40.494               
E21  28737291.988 6 150888440.648 6       492.969 6        41.786               
E27  30275820.351 6 159099249.006 6     -3002.521 6        37.214               
> 2025 01 08 19 46 24.0000000  0  4                                             
E13  28117588.821 6 147850578.790 6      -315.056 6        38.712               
E15  29409030.374 6 154544203.612 6     -2141.116 6        40.689               
E21  28737388.051 6 150887947.670 6       493.520 6        41.726               
E27  30276393.035 6 159102251.464 6     -3000.554 6        37.502               
> 2025 01 08 19 46 25.0000000  0  4                                             
E13  28117532.158 6 147850894.434 6      -315.721 6        38.780               
E15  29409437.359 6 154546344.982 6     -2141.290 6        40.419               
E21  28737485.795 6 150887454.166 6       492.230 6        41.737               
E27  30276962.610 6 159105254.231 6     -3002.741 6        37.685               
> 2025 01 08 19 46 26.0000000  0  4                                             
E13  28117474.245 6 147851209.741 6      -315.103 6        38.919               
E15  29409846.792 6 154548486.570 6     -2141.848 6        40.416               
E21  28737581.537 6 150886960.135 6       494.323 6        41.788               
E27  30277539.869 6 159108257.288 6     -3003.966 6        37.497               
> 2025 01 08 19 46 27.0000000  0  4                                             
E13  28117414.330 6 147851524.338 6      -315.000 6        39.052               
E15  29410257.333 6 154550628.736 6     -2143.525 6        40.481               
E21  28737678.870 6 150886465.220 6       494.804 6        41.912               
E27  30278113.161 6 159111260.999 6     -3003.392 6        37.409               
> 2025 01 08 19 46 28.0000000  0  4                                             
E13  28117356.452 6 147851839.118 6      -315.307 6        39.467               
E15  29410666.909 6 154552770.568 6     -2142.598 6        40.279               
E21  28737771.842 6 150885970.322 6       495.083 6        41.928               
E27  30278684.148 6 159114264.481 6     -3001.745 6        37.114               
> 2025 01 08 19 46 29.0000000  0  4                                             
E13  28117299.254 6 147852153.833 6      -315.339 6        39.147               
E15  29411073.804 6 154554912.327 6     -2141.782 6        40.259               
E21  28737867.406 7 150885475.181 7       495.049 7        42.141               
E27  30279263.015 6 159117267.947 6     -3003.937 6        37.178               
> 2025 01 08 19 46 30.0000000  0  4                                             
E13  28117241.340 6 147852468.078 6      -313.066 6        39.113               
E15  29411486.257 6 154557054.457 6     -2143.494 6        40.187               
E21  28737964.596 7 150884979.357 7       495.847 7        42.154               
E27  30279832.590 6 159120271.880 6     -3004.304 6        37.240               
> 2025 01 08 19 46 31.0000000  0  4                                             
E13  28117182.212 6 147852782.201 6      -314.687 6        39.217               
E15  29411894.153 6 154559196.518 6     -2141.878 6        39.942               
