     3.02           OBSERVATION DATA    G                   RINEX VERSION / TYPE
G = GPS  R = GLONASS  E = GALILEO  S = GEO  M = MIXED       COMMENT             
GNSS-SDR            jmfriedt            20250108 205537 UTC PGM / RUN BY / DATE 
GPS OBSERVATION DATA FILE GENERATED BY GNSS-SDR             COMMENT             
GNSS-SDR VERSION 0.0.19.git-main-87fcfd237                  COMMENT             
See https://gnss-sdr.org                                    COMMENT             
DEFAULT MARKER NAME                                         MARKER NAME         
jmfriedt            CTTC                                    OBSERVER / AGENCY   
GNSS-SDR            Software Receiver   0.0.19.gi           REC # / TYPE / VERS 
Antenna number      Antenna type                            ANT # / TYPE        
        0.0000        0.0000        0.0000                  APPROX POSITION XYZ 
        0.0000        0.0000        0.0000                  ANTENNA: DELTA H/E/N
G    4 C1C L1C D1C S1C                                      SYS / # / OBS TYPES 
DBHZ                                                        SIGNAL STRENGTH UNIT
  2025    01    08    19    45   12.1200000     GPS         TIME OF FIRST OBS   
                                                            END OF HEADER       
> 2025 01 08 19 45 13.0000000  0  4                                             
G23  26321125.775 6 138315568.119 6      1636.784 6        41.859               
G16  26441390.822 6 138950443.392 6     -3144.754 6        41.785               
G08  25922348.508 7 136222924.040 7      1935.608 7        43.014               
G10  26018894.589 7 136732240.081 7     -1166.441 7        43.868               
> 2025 01 08 19 45 14.0000000  0  4                                             
G23  26321438.876 6 138313930.160 6      1633.951 6        41.744               
G16  26441994.009 6 138953590.305 6     -3146.408 6        41.424               
G08  25921986.106 7 136220988.162 7      1932.623 7        42.782               
G10  26018674.996 7 136733405.521 7     -1165.535 7        43.802               
> 2025 01 08 19 45 15.0000000  0  4                                             
G23  26321748.636 6 138312291.796 6      1641.143 6        41.590               
G16  26442593.783 6 138956737.438 6     -3146.643 6        41.567               
G08  25921627.261 7 136219052.408 7      1935.811 7        42.149               
G10  26018449.525 7 136734570.584 7     -1163.230 7        43.880               
> 2025 01 08 19 45 16.0000000  0  4                                             
G23  26322060.808 6 138310652.782 6      1641.141 6        41.482               
G16  26443196.648 7 138959885.054 7     -3146.033 7        42.403               
G08  25921251.403 7 136217117.020 7      1933.487 7        42.874               
G10  26018232.470 7 136735735.006 7     -1164.520 7        44.130               
> 2025 01 08 19 45 17.0000000  0  4                                             
G23  26322374.623 6 138309012.977 6      1643.315 6        41.098               
G16  26443788.648 7 138963033.239 7     -3146.433 7        42.222               
G08  25920893.004 7 136215182.109 7      1936.149 7        42.979               
G10  26018015.058 7 136736898.692 7     -1163.816 7        43.981               
> 2025 01 08 19 45 18.0000000  0  4                                             
G23  26322691.781 6 138307372.572 6      1642.155 6        41.219               
G16  26444388.654 7 138966181.899 7     -3146.781 7        42.067               
G08  25920525.957 7 136213247.548 7      1935.035 7        43.068               
G10  26017794.500 7 136738061.762 7     -1163.666 7        43.536               
> 2025 01 08 19 45 19.0000000  0  4                                             
G23  26323001.719 6 138305731.746 6      1640.455 6        41.710               
G16  26445000.258 6 138969330.773 6     -3149.624 6        41.632               
G08  25920160.428 7 136211313.139 7      1931.940 7        43.160               
G10  26017571.173 7 136739224.431 7     -1162.796 7        43.901               
> 2025 01 08 19 45 20.0000000  0  4                                             
G23  26323320.878 6 138304090.341 6      1641.972 6        41.747               
G16  26445600.317 6 138972480.066 6     -3147.533 6        41.320               
G08  25919794.542 7 136209378.997 7      1933.218 7        43.725               
G10  26017357.763 7 136740386.545 7     -1161.437 7        44.228               
> 2025 01 08 19 45 21.0000000  0  4                                             
G23  26323633.157 6 138302448.333 6      1646.515 6        41.606               
G16  26446195.088 6 138975629.764 6     -3150.690 6        41.469               
G08  25919427.780 7 136207445.196 7      1933.560 7        43.483               
G10  26017135.115 7 136741548.084 7     -1161.019 7        43.815               
> 2025 01 08 19 45 22.0000000  0  4                                             
G23  26323951.458 6 138300805.639 6      1642.252 6        41.994               
G16  26446804.207 6 138978779.981 6     -3149.535 6        41.828               
G08  25919064.253 7 136205511.795 7      1934.232 7        42.914               
G10  26016916.702 7 136742708.947 7     -1161.082 7        44.186               
> 2025 01 08 19 45 23.0000000  0  4                                             
G23  26324257.125 6 138299162.352 6      1640.649 6        40.982               
G16  26447395.421 7 138981930.607 7     -3149.423 7        42.118               
G08  25918698.724 7 136203578.711 7      1932.584 7        43.178               
G10  26016702.024 7 136743869.209 7     -1160.877 7        43.869               
> 2025 01 08 19 45 24.0000000  0  4                                             
G23  26324577.785 6 138297518.501 6      1642.380 6        41.634               
G16  26448001.342 6 138985081.638 6     -3152.700 6        41.905               
G08  25918336.144 7 136201645.906 7      1933.470 7        43.398               
G10  26016482.771 7 136745028.952 7     -1160.282 7        43.989               
> 2025 01 08 19 45 25.0000000  0  4                                             
G23  26324893.566 7 138295873.919 7      1644.251 7        42.581               
G16  26448607.602 6 138988233.207 6     -3152.191 6        41.785               
G08  25917965.701 7 136199713.547 7      1933.361 7        43.511               
G10  26016262.517 7 136746187.979 7     -1160.713 7        44.106               
> 2025 01 08 19 45 26.0000000  0  4                                             
G23  26325210.634 7 138294228.661 7      1643.577 7        42.342               
G16  26449206.554 7 138991385.273 7     -3150.473 7        42.060               
G08  25917601.691 7 136197781.583 7      1931.786 7        43.456               
G10  26016045.570 7 136747346.349 7     -1157.540 7        44.695               
> 2025 01 08 19 45 27.0000000  0  4                                             
G23  26325524.039 6 138292582.812 6      1644.518 6        41.983               
G16  26449812.028 6 138994537.740 6     -3151.229 6        41.933               
G08  25917234.054 7 136195849.931 7      1930.747 7        43.406               
G10  26015822.028 7 136748504.136 7     -1158.134 7        44.143               
> 2025 01 08 19 45 28.0000000  0  4                                             
G23  26325837.569 6 138290936.128 6      1649.392 6        41.866               
G16  26450411.427 6 138997690.897 6     -3154.943 6        41.709               
G08  25916866.345 7 136193918.819 7      1932.361 7        43.084               
G10  26015606.849 7 136749661.097 7     -1156.762 7        44.352               
> 2025 01 08 19 45 29.0000000  0  4                                             
G23  26326155.441 6 138289288.768 6      1645.774 6        41.912               
G16  26451000.961 6 139000844.522 6     -3154.340 6        41.759               
G08  25916506.552 7 136191988.129 7      1931.008 7        43.222               
G10  26015393.315 7 136750817.415 7     -1156.399 7        44.123               
> 2025 01 08 19 45 30.0000000  0  4                                             
G23  26326468.095 6 138287640.830 6      1646.774 6        41.859               
G16  26451613.744 6 139003998.551 6     -3154.426 6        41.749               
G08  25916135.949 7 136190057.724 7      1932.082 7        43.290               
G10  26015169.076 7 136751973.159 7     -1156.528 7        44.312               
> 2025 01 08 19 45 31.0000000  0  4                                             
G23  26326781.947 7 138285992.368 7      1647.041 7        42.014               
G16  26452218.181 6 139007152.916 6     -3152.699 6        41.695               
G08  25915770.224 7 136188127.585 7      1928.963 7        42.992               
G10  26014948.501 7 136753128.409 7     -1151.946 7        43.859               
> 2025 01 08 19 45 32.0000000  0  4                                             
G23  26327101.784 7 138284343.165 7      1650.924 7        42.187               
G16  26452810.504 6 139010307.839 6     -3156.717 6        41.827               
G08  25915410.484 7 136186197.859 7      1929.816 7        43.532               
G10  26014738.183 7 136754282.944 7     -1154.076 7        44.206               
> 2025 01 08 19 45 33.0000000  0  4                                             
G23  26327417.780 7 138282693.262 7      1650.025 7        42.054               
G16  26453416.657 6 139013463.315 6     -3157.058 6        41.643               
G08  25915042.329 7 136184268.580 7      1932.536 7        43.140               
G10  26014516.571 7 136755436.777 7     -1152.457 7        43.985               
> 2025 01 08 19 45 34.0000000  0  4                                             
G23  26327737.457 7 138281042.867 7      1654.658 7        42.201               
G16  26454021.005 6 139016619.064 6     -3156.488 6        41.565               
G08  25914674.263 7 136182339.503 7      1928.665 7        42.368               
G10  26014296.442 7 136756590.149 7     -1152.717 7        43.822               
> 2025 01 08 19 45 35.0000000  0  4                                             
G23  26328052.041 6 138279391.810 6      1653.591 6        41.548               
G16  26454614.935 6 139019775.341 6     -3159.012 6        41.724               
G08  25914311.450 7 136180410.828 7      1926.811 7        42.487               
G10  26014081.407 7 136757742.863 7     -1149.338 7        44.231               
> 2025 01 08 19 45 36.0000000  0  4                                             
G23  26328369.341 7 138277740.070 7      1652.605 7        42.032               
G16  26455225.824 6 139022932.104 6     -3156.997 6        41.623               
G08  25913946.815 7 136178482.531 7      1927.527 7        42.793               
G10  26013862.297 7 136758894.923 7     -1150.848 7        44.399               
> 2025 01 08 19 45 37.0000000  0  4                                             
G23  26328683.729 6 138276087.574 6      1656.456 6        41.915               
G16  26455831.405 6 139026089.453 6     -3158.927 6        41.303               
G08  25913574.299 7 136176554.726 7      1927.854 7        43.284               
G10  26013641.829 7 136760046.217 7     -1152.047 7        43.784               
> 2025 01 08 19 45 38.0000000  0  4                                             
G23  26328997.080 7 138274434.519 7      1653.196 7        42.421               
G16  26456426.247 6 139029247.164 6     -3157.904 6        41.763               
G08  25913209.736 7 136174627.196 7      1928.326 7        43.238               
G10  26013426.418 7 136761196.997 7     -1150.214 7        44.209               
> 2025 01 08 19 45 39.0000000  0  4                                             
G23  26329319.830 6 138272780.911 6      1654.423 6        41.780               
G16  26457029.523 6 139032405.267 6     -3155.918 6        41.379               
G08  25912854.160 7 136172699.963 7      1926.601 7        43.605               
G10  26013210.756 7 136762347.221 7     -1152.340 7        43.911               
> 2025 01 08 19 45 40.0000000  0  4                                             
G23  26329630.215 6 138271126.651 6      1651.654 6        41.899               
G16  26457634.497 6 139035563.863 6     -3157.842 6        41.367               
G08  25912483.020 7 136170773.062 7      1926.434 7        43.222               
G10  26012992.504 7 136763496.815 7     -1149.656 7        44.007               
> 2025 01 08 19 45 41.0000000  0  4                                             
G23  26329947.694 7 138269471.672 7      1656.118 7        42.210               
G16  26458238.059 6 139038722.955 6     -3158.849 6        41.614               
G08  25912116.366 7 136168846.622 7      1926.427 7        43.530               
G10  26012773.305 7 136764645.714 7     -1149.675 7        43.760               
> 2025 01 08 19 45 42.0000000  0  4                                             
G23  26330263.100 7 138267816.171 7      1656.993 7        42.269               
G16  26458841.746 6 139041882.398 6     -3160.542 6        41.877               
G08  25911749.372 7 136166920.415 7      1927.049 7        42.865               
G10  26012558.180 7 136765794.103 7     -1147.222 7        44.127               
> 2025 01 08 19 45 43.0000000  0  4                                             
G23  26330582.777 6 138266160.083 6      1656.389 6        41.620               
G16  26459443.199 6 139045042.260 6     -3158.003 6        41.668               
G08  25911384.451 7 136164994.516 7      1925.789 7        43.469               
G10  26012344.055 7 136766941.926 7     -1149.245 7        44.097               
> 2025 01 08 19 45 44.0000000  0  4                                             
G23  26330898.112 6 138264503.432 6      1657.162 6        41.641               
G16  26460047.726 6 139048202.505 6     -3161.201 6        41.896               
G08  25911031.430 7 136163068.909 7      1924.314 7        43.507               
G10  26012128.019 7 136768089.190 7     -1147.478 7        43.731               
> 2025 01 08 19 45 45.0000000  0  4                                             
G23  26331216.877 7 138262846.100 7      1656.540 7        42.330               
G16  26460643.854 6 139051363.247 6     -3161.035 6        40.940               
G08  25910660.666 7 136161143.709 7      1923.236 7        43.947               
G10  26011906.264 7 136769235.800 7     -1147.369 7        44.220               
> 2025 01 08 19 45 46.0000000  0  4                                             
G23  26331533.963 6 138261188.038 6      1659.481 6        41.961               
G16  26461248.024 6 139054524.541 6     -3159.270 6        41.228               
G08  25910291.796 7 136159218.956 7      1924.581 7        43.711               
G10  26011692.390 7 136770381.691 7     -1145.768 7        43.616               
> 2025 01 08 19 45 47.0000000  0  4                                             
G23  26331853.533 7 138259529.034 7      1657.242 7        42.272               
G16  26461860.789 6 139057686.622 6     -3161.926 6        41.835               
G08  25909935.273 7 136157294.872 7      1927.104 7        43.086               
G10  26011476.961 7 136771526.639 7     -1144.330 7        44.100               
> 2025 01 08 19 45 48.0000000  0  4                                             
G23  26332174.085 7 138257869.475 7      1659.041 7        42.207               
G16  26462462.117 6 139060849.052 6     -3160.392 6        41.772               
G08  25909573.461 7 136155371.063 7      1924.799 7        42.849               
G10  26011256.725 7 136772671.064 7     -1143.580 7        43.849               
> 2025 01 08 19 45 49.0000000  0  4                                             
G23  26332490.349 6 138256209.707 6      1660.356 6        41.961               
G16  26463071.147 7 139064011.542 7     -3162.521 7        42.614               
G08  25909200.695 7 136153447.193 7      1923.579 7        43.209               
G10  26011043.977 7 136773815.282 7     -1142.608 7        43.852               
> 2025 01 08 19 45 50.0000000  0  4                                             
G23  26332809.347 6 138254549.655 6      1660.239 6        41.392               
G16  26463671.957 6 139067174.093 6     -3163.186 6        41.425               
G08  25908841.153 7 136151523.297 7      1925.002 7        43.357               
G10  26010826.207 7 136774959.258 7     -1146.637 7        43.771               
> 2025 01 08 19 45 51.0000000  0  4                                             
G23  26333121.804 6 138252889.205 6      1660.396 6        41.140               
G16  26464272.356 6 139070336.904 6     -3162.801 6        41.125               
G08  25908476.231 7 136149599.544 7      1924.471 7        43.637               
G10  26010614.369 7 136776102.816 7     -1143.725 7        43.931               
> 2025 01 08 19 45 52.0000000  0  4                                             
G23  26333433.101 6 138251227.638 6      1659.686 6        41.778               
G16  26464883.941 6 139073500.640 6     -3164.781 6        41.675               
G08  25908110.327 7 136147676.618 7      1923.757 7        43.441               
G10  26010396.171 7 136777245.271 7     -1141.427 7        44.136               
> 2025 01 08 19 45 53.0000000  0  4                                             
G23  26333754.028 6 138249565.147 6      1662.218 6        40.983               
G16  26465475.049 7 139076665.106 7     -3164.674 7        42.076               
G08  25907749.391 7 136145754.362 7      1924.188 7        43.661               
G10  26010185.316 7 136778386.837 7     -1142.230 7        44.096               
> 2025 01 08 19 45 54.0000000  0  4                                             
G23  26334073.526 6 138247902.746 6      1660.066 6        41.020               
G16  26466082.703 7 139079829.310 7     -3165.828 7        42.144               
G08  25907378.841 7 136143831.718 7      1921.983 7        43.050               
G10  26009970.584 7 136779528.505 7     -1140.625 7        43.747               
> 2025 01 08 19 45 55.0000000  0  4                                             
G23  26334396.670 6 138246239.515 6      1663.002 6        41.520               
G16  26466690.428 7 139082994.170 7     -3168.458 7        42.122               
G08  25907013.348 7 136141909.631 7      1920.860 7        42.895               
G10  26009756.799 7 136780669.352 7     -1140.127 7        43.983               
> 2025 01 08 19 45 56.0000000  0  4                                             
G23  26334710.575 6 138244575.661 6      1664.334 6        41.626               
G16  26467289.970 6 139086159.455 6     -3166.323 6        41.445               
G08  25906659.541 7 136139987.898 7      1921.802 7        43.469               
G10  26009537.493 7 136781809.586 7     -1141.394 7        44.740               
> 2025 01 08 19 45 57.0000000  0  4                                             
G23  26335027.804 6 138242911.203 6      1664.705 6        41.026               
G16  26467897.481 6 139089325.161 6     -3164.071 6        41.635               
G08  25906288.277 7 136138066.461 7      1919.830 7        43.211               
G10  26009322.904 7 136782949.262 7     -1140.424 7        44.350               
> 2025 01 08 19 45 58.0000000  0  4                                             
G23  26335351.126 6 138241247.248 6      1664.167 6        40.880               
G16  26468502.258 7 139092490.201 7     -3164.881 7        42.084               
G08  25905924.553 7 136136144.280 7      1919.734 7        43.546               
G10  26009106.385 7 136784089.425 7     -1140.739 7        43.936               
> 2025 01 08 19 45 59.0000000  0  4                                             
G23  26335667.479 6 138239582.120 6      1663.661 6        41.098               
G16  26469104.890 7 139095656.240 7     -3167.005 7        42.017               
G08  25905562.937 7 136134222.980 7      1920.872 7        43.938               
G10  26008889.848 7 136785228.423 7     -1137.722 7        44.167               
> 2025 01 08 19 46 00.0000000  0  4                                             
G23  26335985.726 6 138237916.199 6      1665.873 6        41.508               
G16  26469712.938 7 139098822.902 7     -3167.666 7        42.029               
G08  25905197.409 7 136132302.199 7      1923.760 7        43.150               
G10  26008683.389 7 136786366.653 7     -1136.743 7        44.194               
> 2025 01 08 19 46 01.0000000  0  4                                             
G23  26336306.708 6 138236249.833 6      1666.588 6        41.904               
G16  26470313.426 7 139101989.816 7     -3167.070 7        42.029               
G08  25904833.971 7 136130381.589 7      1920.840 7        43.470               
G10  26008465.119 7 136787504.445 7     -1137.119 7        43.935               
> 2025 01 08 19 46 02.0000000  0  4                                             
G23  26336621.738 6 138234583.329 6      1667.507 6        41.303               
G16  26470921.509 6 139105156.664 6     -3163.641 6        41.601               
G08  25904471.855 7 136128460.823 7      1921.048 7        43.686               
G10  26008247.725 7 136788642.143 7     -1138.022 7        44.575               
> 2025 01 08 19 46 03.0000000  0  4                                             
G23  26336946.847 6 138232916.177 6      1670.876 6        41.664               
G16  26471529.217 6 139108324.013 6     -3168.951 6        41.289               
G08  25904100.197 7 136126540.436 7      1921.291 7        43.557               
G10  26008033.636 7 136789779.176 7     -1135.635 7        43.824               
> 2025 01 08 19 46 04.0000000  0  4                                             
G23  26337263.272 6 138231247.518 6      1668.890 6        41.685               
G16  26472122.593 6 139111492.686 6     -3170.349 6        41.591               
G08  25903743.192 7 136124621.294 7      1916.813 7        43.032               
G10  26007821.423 7 136790914.714 7     -1135.912 7        43.926               
> 2025 01 08 19 46 05.0000000  0  4                                             
G23  26337587.059 6 138229577.440 6      1668.955 6        41.670               
G16  26472735.143 6 139114662.611 6     -3169.768 6        41.543               
G08  25903378.985 7 136122703.306 7      1917.781 7        42.768               
G10  26007603.618 7 136792048.842 7     -1131.653 7        44.367               
> 2025 01 08 19 46 06.0000000  0  4                                             
G23  26337907.736 6 138227906.751 6      1667.415 6        41.690               
G16  26473331.933 6 139117832.956 6     -3171.714 6        41.870               
G08  25903016.459 7 136120785.623 7      1918.984 7        42.501               
G10  26007400.501 7 136793182.400 7     -1133.717 7        44.687               
> 2025 01 08 19 46 07.0000000  0  4                                             
G23  26338223.196 6 138226236.122 6      1671.028 6        41.149               
G16  26473941.392 6 139121003.030 6     -3170.165 6        41.785               
G08  25902658.739 7 136118867.602 7      1917.169 7        43.518               
G10  26007177.602 7 136794316.025 7     -1135.544 7        44.086               
> 2025 01 08 19 46 08.0000000  0  4                                             
G23  26338547.501 6 138224565.104 6      1666.750 6        41.424               
G16  26474550.279 7 139124173.353 7     -3171.549 7        42.325               
G08  25902291.280 7 136116949.711 7      1917.284 7        43.306               
G10  26006966.069 7 136795449.248 7     -1130.782 7        44.087               
> 2025 01 08 19 46 09.0000000  0  4                                             
G23  26338867.106 6 138222893.083 6      1671.654 6        41.925               
G16  26475154.216 7 139127344.502 7     -3171.583 7        42.643               
G08  25901930.755 7 136115032.552 7      1915.950 7        43.388               
G10  26006749.246 7 136796581.488 7     -1132.881 7        44.370               
> 2025 01 08 19 46 10.0000000  0  4                                             
G23  26339182.780 6 138221220.185 6      1673.913 6        41.813               
G16  26475757.599 7 139130516.312 7     -3169.726 7        42.494               
G08  25901565.834 7 136113115.981 7      1914.894 7        43.453               
G10  26006535.050 7 136797712.892 7     -1128.157 7        44.373               
> 2025 01 08 19 46 11.0000000  0  4                                             
G23  26339500.670 7 138219546.726 7      1673.959 7        42.032               
G16  26476367.934 7 139133688.562 7     -3174.196 7        42.190               
G08  25901203.521 7 136111199.724 7      1917.474 7        43.054               
G10  26006321.569 7 136798843.698 7     -1130.431 7        44.048               
> 2025 01 08 19 46 12.0000000  0  4                                             
G23  26339823.028 6 138217872.572 6      1673.967 6        41.441               
G16  26476970.674 7 139136861.257 7     -3174.627 7        42.266               
G08  25900839.654 7 136109283.839 7      1916.509 7        42.670               
G10  26006108.588 7 136799973.878 7     -1128.474 7        44.000               
> 2025 01 08 19 46 13.0000000  0  4                                             
G23  26340143.651 6 138216197.881 6      1676.487 6        41.693               
G16  26477576.666 7 139140034.355 7     -3173.903 7        42.572               
G08  25900476.699 7 136107368.245 7      1916.283 7        43.038               
G10  26005893.945 7 136801103.496 7     -1133.075 7        44.045               
> 2025 01 08 19 46 14.0000000  0  4                                             
G23  26340464.776 6 138214522.857 6      1674.095 6        41.446               
G16  26478179.620 7 139143207.596 7     -3175.820 7        42.371               
G08  25900110.419 7 136105452.695 7      1914.207 7        43.646               
G10  26005681.376 7 136802232.815 7     -1127.785 7        43.677               
> 2025 01 08 19 46 15.0000000  0  4                                             
G23  26340786.257 6 138212847.456 6      1673.442 6        41.361               
G16  26478783.182 7 139146381.028 7     -3175.419 7        42.251               
G08  25899749.483 7 136103537.260 7      1915.175 7        43.301               
G10  26005469.074 7 136803361.744 7     -1129.246 7        44.072               
> 2025 01 08 19 46 16.0000000  0  4                                             
G23  26341107.221 6 138211171.373 6      1676.943 6        41.261               
G16  26479389.835 6 139149554.955 6     -3172.688 6        41.935               
G08  25899389.244 7 136101622.217 7      1912.744 7        43.160               
G10  26005255.467 7 136804490.027 7     -1128.872 7        43.523               
> 2025 01 08 19 46 17.0000000  0  4                                             
G23  26341426.647 6 138209494.601 6      1678.031 6        41.765               
G16  26479994.112 7 139152729.397 7     -3175.560 7        42.058               
G08  25899026.753 7 136099707.606 7      1913.060 7        43.469               
G10  26005043.112 7 136805617.621 7     -1128.114 7        44.164               
> 2025 01 08 19 46 18.0000000  0  4                                             
G23  26341750.023 6 138207817.000 6      1680.073 6        40.925               
G16  26480605.269 7 139155904.493 7     -3177.117 7        42.004               
G08  25898659.919 7 136097793.536 7      1914.084 7        43.710               
G10  26004835.581 7 136806744.411 7     -1124.772 7        44.158               
> 2025 01 08 19 46 19.0000000  0  4                                             
G23  26342071.844 6 138206138.258 6      1677.375 6        41.276               
G16  26481210.885 7 139159080.547 7     -3177.269 7        42.314               
G08  25898298.769 7 136095880.350 7      1910.150 7        42.531               
G10  26004617.222 7 136807870.055 7     -1124.398 7        44.265               
> 2025 01 08 19 46 20.0000000  0  4                                             
G23  26342393.433 6 138204458.582 6      1679.934 6        41.682               
G16  26481820.630 7 139162257.365 7     -3175.995 7        42.280               
G08  25897934.008 7 136093967.809 7      1911.684 7        42.475               
G10  26004406.224 7 136808994.769 7     -1127.575 7        44.387               
> 2025 01 08 19 46 21.0000000  0  4                                             
G23  26342715.772 6 138202778.325 6      1683.264 6        41.590               
G16  26482423.728 6 139165434.567 6     -3178.650 6        41.733               
G08  25897573.108 7 136092055.570 7      1911.280 7        42.784               
G10  26004196.192 7 136810118.936 7     -1124.421 7        44.431               
> 2025 01 08 19 46 22.0000000  0  4                                             
G23  26343035.467 6 138201098.184 6      1679.545 6        41.675               
G16  26483031.042 6 139168611.496 6     -3178.373 6        41.882               
G08  25897214.226 7 136090142.965 7      1911.341 7        42.928               
G10  26003983.800 7 136811243.190 7     -1123.283 7        43.812               
> 2025 01 08 19 46 23.0000000  0  4                                             
G23  26343352.034 6 138199417.537 6      1681.685 6        41.696               
G16  26483638.964 7 139171788.732 7     -3177.520 7        42.202               
G08  25896851.324 7 136088230.581 7      1907.013 7        42.718               
G10  26003771.463 7 136812366.992 7     -1120.213 7        44.107               
> 2025 01 08 19 46 24.0000000  0  4                                             
G23  26343677.572 6 138197735.938 6      1681.193 6        41.377               
G16  26484246.421 7 139174966.745 7     -3178.808 7        42.137               
G08  25896486.564 7 136086318.851 7      1911.479 7        42.956               
G10  26003560.930 7 136813489.847 7     -1123.510 7        44.239               
> 2025 01 08 19 46 25.0000000  0  4                                             
G23  26343995.301 6 138196053.708 6      1681.475 6        41.009               
G16  26484853.379 7 139178145.210 7     -3179.918 7        42.038               
G08  25896129.326 7 136084407.503 7      1910.940 7        42.595               
G10  26003346.323 7 136814612.073 7     -1120.941 7        44.228               
> 2025 01 08 19 46 26.0000000  0  4                                             
G23  26344321.876 6 138194370.818 6      1682.519 6        41.520               
G16  26485456.726 7 139181324.145 7     -3179.853 7        42.458               
G08  25895770.070 7 136082496.546 7      1908.298 7        43.337               
G10  26003137.202 7 136815733.647 7     -1119.785 7        44.503               
> 2025 01 08 19 46 27.0000000  0  4                                             
G23  26344643.643 6 138192686.922 6      1682.607 6        41.625               
G16  26486065.363 7 139184503.927 7     -3180.072 7        42.378               
G08  25895401.146 7 136080586.304 7      1911.386 7        42.657               
G10  26002919.932 7 136816854.229 7     -1119.316 7        43.799               
> 2025 01 08 19 46 28.0000000  0  4                                             
G23  26344966.608 6 138191002.870 6      1684.790 6        41.553               
G16  26486676.805 7 139187683.661 7     -3178.920 7        42.239               
G08  25895042.050 7 136078675.961 7      1912.830 7        42.350               
G10  26002718.388 7 136817974.664 7     -1120.069 7        44.249               
> 2025 01 08 19 46 29.0000000  0  4                                             
G23  26345288.054 6 138189318.473 6      1684.635 6        41.290               
G16  26487276.382 7 139190863.568 7     -3181.070 7        42.228               
G08  25894679.827 7 136076765.675 7      1907.243 7        42.625               
G10  26002504.621 7 136819094.764 7     -1121.497 7        44.346               
> 2025 01 08 19 46 30.0000000  0  4                                             
G23  26345613.949 6 138187633.251 6      1685.335 6        41.381               
G16  26487887.771 6 139194044.111 6     -3179.331 6        41.985               
G08  25894318.194 7 136074855.938 7      1911.422 7        42.955               
G10  26002290.157 7 136820214.076 7     -1120.476 7        44.573               
> 2025 01 08 19 46 31.0000000  0  4                                             
G23  26345930.392 6 138185947.656 6      1686.165 6        40.980               
G16  26488490.654 7 139197224.851 7     -3178.291 7        42.483               
G08  25893962.618 7 136072946.315 7      1910.378 7        43.346               
G10  26002078.176 7 136821333.002 7     -1118.831 7        44.771               
> 2025 01 08 19 46 32.0000000  0  4                                             
G23  26346251.283 6 138184261.662 6      1687.365 6        40.874               
G16  26489098.111 6 139200405.821 6     -3178.441 6        41.996               
G08  25893600.127 7 136071036.822 7      1908.558 7        43.440               
G10  26001869.770 7 136822451.541 7     -1118.395 7        44.281               
> 2025 01 08 19 46 33.0000000  0  4                                             
G23  26346575.910 6 138182575.304 6      1688.787 6        41.153               
G16  26489703.675 6 139203586.973 6     -3179.998 6        41.929               
G08  25893234.134 7 136069127.410 7      1908.503 7        43.303               
G10  26001654.555 7 136823569.728 7     -1117.752 7        44.476               
> 2025 01 08 19 46 34.0000000  0  4                                             
G23  26346903.556 6 138180887.718 6      1687.054 6        41.661               
G16  26490320.567 6 139206769.179 6     -3184.358 6        41.997               
G08  25892873.412 7 136067218.945 7      1908.982 7        43.382               
G10  26001443.683 7 136824686.685 7     -1116.125 7        44.614               
> 2025 01 08 19 46 35.0000000  0  4                                             
G23  26347223.483 6 138179199.551 6      1690.862 6        41.610               
G16  26490916.499 6 139209951.773 6     -3181.085 6        41.485               
G08  25892510.492 7 136065310.803 7      1909.360 7        43.361               
G10  26001233.329 7 136825803.089 7     -1117.816 7        44.343               
> 2025 01 08 19 46 36.0000000  0  4                                             
G23  26347555.258 6 138177510.553 6      1687.012 6        41.690               
G16  26491531.426 6 139213135.038 6     -3182.826 6        41.759               
G08  25892150.467 7 136063403.204 7      1909.084 7        43.289               
G10  26001024.404 7 136826918.672 7     -1115.792 7        44.331               
> 2025 01 08 19 46 37.0000000  0  4                                             
G23  26347878.776 7 138175820.855 7      1688.636 7        42.277               
G16  26492136.489 6 139216318.790 6     -3183.621 6        41.891               
G08  25891790.227 7 136061496.038 7      1905.702 7        43.846               
G10  26000813.943 7 136828033.559 7     -1113.806 7        44.226               
> 2025 01 08 19 46 38.0000000  0  4                                             
G23  26348192.002 6 138174130.650 6      1688.717 6        41.772               
G16  26492741.963 6 139219502.890 6     -3184.642 6        41.931               
G08  25891427.164 7 136059589.108 7      1910.159 7        43.082               
G10  26000603.392 7 136829147.946 7     -1114.376 7        44.567               
> 2025 01 08 19 46 39.0000000  0  4                                             
G23  26348515.968 6 138172439.841 6      1690.745 6        41.668               
G16  26493351.171 6 139222687.410 6     -3186.847 6        40.841               
G08  25891064.387 7 136057682.503 7      1906.553 7        43.385               
G10  26000398.327 7 136830261.729 7     -1113.556 7        44.911               
> 2025 01 08 19 46 40.0000000  0  4                                             
G23  26348841.756 7 138170748.115 7      1693.782 7        42.020               
G16  26493961.809 7 139225872.658 7     -3184.660 7        42.099               
G08  25890708.025 7 136055776.547 7      1906.093 7        43.455               
G10  26000188.920 7 136831374.626 7     -1114.124 7        44.376               
> 2025 01 08 19 46 41.0000000  0  4                                             
G23  26349164.935 6 138169056.106 6      1693.045 6        41.949               
G16  26494574.234 6 139229058.023 6     -3187.014 6        41.783               
G08  25890348.947 7 136053870.611 7      1903.960 7        42.979               
G10  25999979.478 7 136832487.240 7     -1111.088 7        44.703               
> 2025 01 08 19 46 42.0000000  0  4                                             
G23  26349492.188 6 138167363.692 6      1690.724 6        41.634               
G16  26495174.258 7 139232243.624 7     -3187.846 7        42.195               
G08  25889977.861 7 136051964.827 7      1905.618 7        43.375               
G10  25999768.015 7 136833599.445 7     -1109.886 7        44.640               
> 2025 01 08 19 46 43.0000000  0  4                                             
G23  26349817.762 6 138165670.435 6      1695.448 6        41.566               
G16  26495794.456 6 139235429.860 6     -3187.641 6        41.741               
G08  25889626.985 7 136050059.575 7      1905.389 7        43.638               
G10  25999555.249 7 136834710.835 7     -1110.054 7        44.825               
> 2025 01 08 19 46 44.0000000  0  4                                             
G23  26350145.480 6 138163976.421 6      1693.073 6        41.842               
G16  26496399.233 6 139238616.705 6     -3186.163 6        41.923               
G08  25889268.604 7 136048154.821 7      1904.073 7        43.325               
G10  25999342.375 7 136835821.465 7     -1110.032 7        44.578               
> 2025 01 08 19 46 45.0000000  0  4                                             
G23  26350461.565 7 138162281.942 7      1694.939 7        42.046               
G16  26496996.505 6 139241803.808 6     -3186.562 6        41.315               
G08  25888903.075 7 136046250.276 7      1903.717 7        43.664               
G10  25999139.187 7 136836931.639 7     -1111.638 7        44.799               
> 2025 01 08 19 46 46.0000000  0  4                                             
G23  26350786.709 6 138160586.887 6      1697.793 6        41.766               
G16  26497604.499 6 139244991.329 6     -3184.781 6        41.526               
G08  25888544.927 7 136044346.013 7      1908.191 7        43.647               
G10  25998924.669 7 136838041.256 7     -1108.512 7        45.003               
> 2025 01 08 19 46 47.0000000  0  4                                             
G23  26351113.159 6 138158891.217 6      1693.406 6        41.765               
G16  26498214.619 6 139248179.283 6     -3185.586 6        41.626               
G08  25888182.525 7 136042442.108 7      1900.733 7        43.401               
G10  25998717.192 7 136839150.260 7     -1109.270 7        44.468               
> 2025 01 08 19 46 48.0000000  0  4                                             
G23  26351438.286 7 138157194.666 7      1697.251 7        42.346               
G16  26498825.328 6 139251367.955 6     -3191.735 6        41.328               
G08  25887826.914 7 136040538.824 7      1901.889 7        43.745               
G10  25998508.821 7 136840258.391 7     -1106.086 7        44.380               
> 2025 01 08 19 46 49.0000000  0  4                                             
G23  26351755.425 7 138155497.743 7      1699.296 7        42.154               
G16  26499436.538 6 139254556.793 6     -3189.851 6        41.346               
G08  25887469.765 7 136038635.619 7      1902.760 7        43.888               
G10  25998297.717 7 136841366.153 7     -1108.411 7        44.344               
> 2025 01 08 19 46 50.0000000  0  4                                             
G23  26352081.767 6 138153800.470 6      1698.234 6        41.939               
G16  26500042.566 6 139257745.816 6     -3187.368 6        41.451               
G08  25887097.339 7 136036732.520 7      1901.245 7        43.438               
G10  25998090.972 7 136842473.567 7     -1105.071 7        44.450               
> 2025 01 08 19 46 51.0000000  0  4                                             
G23  26352409.842 6 138152101.659 6      1695.564 6        41.847               
G16  26500646.146 6 139260936.194 6     -3191.257 6        41.727               
G08  25886737.082 7 136034830.646 7      1902.031 7        43.594               
G10  25997883.066 7 136843579.469 7     -1106.622 7        44.317               
> 2025 01 08 19 46 52.0000000  0  4                                             
G23  26352731.306 6 138150402.996 6      1701.777 6        40.779               
G16  26501252.889 6 139264126.215 6     -3189.756 6        40.628               
G08  25886382.668 7 136032928.376 7      1903.275 7        43.526               
G10  25997675.535 7 136844685.530 7     -1104.572 7        44.695               
> 2025 01 08 19 46 53.0000000  0  4                                             
G23  26353053.824 6 138148703.930 6      1699.956 6        41.242               
G16  26501868.512 6 139267316.475 6     -3190.643 6        41.609               
G08  25886024.590 7 136031026.254 7      1902.610 7        42.812               
G10  25997466.003 7 136845791.196 7     -1106.476 7        44.707               
> 2025 01 08 19 46 54.0000000  0  4                                             
G23  26353383.793 6 138147003.797 6      1701.089 6        41.602               
G16  26502475.327 6 139270507.604 6     -3188.891 6        41.627               
G08  25885663.028 7 136029124.886 7      1904.673 7        43.290               
G10  25997255.470 7 136846895.816 7     -1105.835 7        44.978               
> 2025 01 08 19 46 55.0000000  0  4                                             
G23  26353713.727 6 138145302.852 6      1703.119 6        41.788               
G16  26503079.335 6 139273699.400 6     -3190.873 6        41.212               
G08  25885298.661 7 136027224.102 7      1899.931 7        42.833               
G10  25997052.335 7 136847999.597 7     -1102.903 7        44.706               
> 2025 01 08 19 46 56.0000000  0  4                                             
G23  26354030.098 7 138143601.710 7      1702.284 7        42.005               
G16  26503700.248 6 139276891.205 6     -3190.723 6        41.343               
G08  25884940.030 7 136025323.242 7      1901.075 7        43.149               
G10  25996842.177 7 136849103.202 7     -1102.047 7        44.341               
> 2025 01 08 19 46 57.0000000  0  4                                             
G23  26354360.478 6 138141899.852 6      1697.458 6        41.545               
G16  26504303.721 6 139280083.542 6     -3192.480 6        41.529               
G08  25884579.147 7 136023422.802 7      1900.245 7        43.146               
G10  25996635.897 7 136850206.091 7     -1103.171 7        44.980               
> 2025 01 08 19 46 58.0000000  0  4                                             
G23  26354688.857 6 138140197.222 6      1701.299 6        41.542               
G16  26504909.999 6 139283276.452 6     -3193.339 6        41.446               
G08  25884217.693 7 136021522.882 7      1899.680 7        42.838               
G10  25996428.885 7 136851308.251 7     -1102.397 7        44.948               
> 2025 01 08 19 46 59.0000000  0  4                                             
G23  26355009.052 6 138138494.086 6      1703.052 6        41.698               
G16  26505524.854 6 139286469.716 6     -3191.192 6        41.159               
G08  25883868.764 7 136019623.202 7      1900.464 7        42.997               
G10  25996207.613 7 136852409.884 7     -1103.104 7        44.933               
> 2025 01 08 19 47 00.0000000  0  4                                             
G23  26355344.793 6 138136790.737 6      1701.761 6        41.963               
G16  26506136.261 6 139289663.006 6     -3192.179 6        40.704               
G08  25883502.932 7 136017723.441 7      1902.621 7        42.751               
G10  25996010.339 7 136853511.313 7     -1100.895 7        45.012               
> 2025 01 08 19 47 01.0000000  0  4                                             
G23  26355668.920 6 138135087.016 6      1704.429 6        41.639               
G16  26506735.659 6 139292856.467 6     -3196.609 6        41.150               
G08  25883138.493 7 136015823.816 7      1899.697 7        42.129               
G10  25995803.487 7 136854612.368 7     -1099.029 7        44.456               
> 2025 01 08 19 47 02.0000000  0  4                                             
G23  26355996.745 7 138133381.810 7      1705.688 7        42.001               
G16  26507345.529 6 139296051.254 6     -3196.806 6        41.531               
G08  25882788.957 7 136013925.399 7      1900.401 7        42.245               
G10  25995592.239 7 136855711.951 7     -1098.565 7        44.758               
> 2025 01 08 19 47 03.0000000  0  4                                             
G23  26356320.085 6 138131676.978 6      1702.449 6        41.810               
G16  26507965.995 6 139299245.475 6     -3192.370 6        41.754               
G08  25882436.169 7 136012026.332 7      1898.187 7        42.265               
G10  25995379.187 7 136856811.920 7     -1100.166 7        45.218               
> 2025 01 08 19 47 04.0000000  0  4                                             
G23  26356648.500 6 138129970.555 6      1705.014 6        41.586               
G16  26508565.626 6 139302441.101 6     -3193.988 6        41.143               
G08  25882064.243 7 136010128.559 7      1896.110 7        42.788               
G10  25995181.984 7 136857910.313 7     -1098.895 7        44.962               
> 2025 01 08 19 47 05.0000000  0  4                                             
G23  26356973.144 6 138128264.654 6      1703.574 6        41.225               
G16  26509188.504 6 139305636.032 6     -3193.203 6        41.070               
G08  25881718.602 7 136008230.044 7      1901.475 7        42.128               
G10  25994963.893 7 136859009.219 7     -1100.517 7        44.236               
> 2025 01 08 19 47 06.0000000  0  4                                             
G23  26357295.019 6 138126559.842 6      1703.563 6        41.525               
G16  26509790.940 6 139308829.702 6     -3194.938 6        41.081               
G08  25881347.963 7 136006330.156 7      1896.739 7        42.659               
G10  25994760.794 7 136860109.228 7     -1098.658 7        44.621               
> 2025 01 08 19 47 07.0000000  0  4                                             
G23  26357620.503 6 138124852.788 6      1709.424 6        41.450               
G16  26510404.848 6 139312025.416 6     -3197.322 6        41.846               
G08  25880985.276 7 136004432.219 7      1898.543 7        43.134               
G10  25994553.406 7 136861207.004 7     -1097.852 7        44.702               
> 2025 01 08 19 47 08.0000000  0  4                                             
G23  26357951.687 6 138123144.362 6      1710.581 6        41.871               
G16  26511006.927 6 139315222.316 6     -3198.285 6        41.421               
G08  25880622.320 7 136002535.402 7      1896.663 7        42.852               
G10  25994348.180 7 136862303.402 7     -1096.444 7        44.641               
> 2025 01 08 19 47 09.0000000  0  4                                             
G23  26358275.224 6 138121435.908 6      1709.295 6        41.776               
G16  26511620.889 6 139318419.075 6     -3196.947 6        41.322               
G08  25880266.530 7 136000638.349 7      1896.987 7        43.182               
G10  25994137.647 7 136863399.777 7     -1095.914 7        44.760               
> 2025 01 08 19 47 10.0000000  0  4                                             
G23  26358607.498 7 138119726.555 7      1713.718 7        42.148               
G16  26512228.525 6 139321616.540 6     -3199.675 6        41.202               
G08  25879907.791 7 135998741.917 7      1892.784 7        42.765               
G10  25993933.619 7 136864495.290 7     -1093.425 7        44.513               
> 2025 01 08 19 47 11.0000000  0  4                                             
G23  26358933.590 7 138118015.949 7      1706.312 7        42.354               
G16  26512830.640 6 139324815.083 6     -3201.060 6        41.321               
G08  25879548.642 7 135996846.457 7      1897.825 7        42.813               
G10  25993727.088 7 136865589.542 7     -1094.542 7        45.096               
> 2025 01 08 19 47 12.0000000  0  4                                             
G23  26359260.200 7 138116305.208 7      1711.405 7        42.353               
G16  26513452.625 6 139328013.566 6     -3193.725 6        41.171               
G08  25879185.561 7 135994950.883 7      1894.434 7        42.363               
G10  25993523.167 7 136866683.657 7     -1094.416 7        45.130               
> 2025 01 08 19 47 13.0000000  0  4                                             
G23  26359586.203 7 138114593.728 7      1711.809 7        42.080               
G16  26514052.810 6 139331212.636 6     -3198.345 6        41.430               
G08  25878828.610 7 135993055.774 7      1895.733 7        42.203               
G10  25993318.763 7 136867777.038 7     -1094.776 7        44.575               
> 2025 01 08 19 47 14.0000000  0  4                                             
G23  26359915.475 7 138112881.392 7      1712.312 7        42.066               
G16  26514670.756 6 139334412.376 6     -3201.250 6        41.063               
G08  25878467.298 7 135991161.255 7      1892.009 7        43.062               
G10  25993112.805 7 136868869.555 7     -1093.427 7        44.683               
> 2025 01 08 19 47 15.0000000  0  4                                             
G23  26360243.944 6 138111168.342 6      1713.845 6        41.728               
G16  26515280.215 6 139337612.613 6     -3200.228 6        40.949               
G08  25878115.314 7 135989267.164 7      1895.656 7        42.855               
G10  25992907.222 7 136869961.398 7     -1089.288 7        44.487               
> 2025 01 08 19 47 16.0000000  0  4                                             
G23  26360570.035 6 138109454.781 6      1711.477 6        41.939               
G16  26515891.425 6 139340813.215 6     -3203.002 6        41.213               
G08  25877753.574 7 135987373.349 7      1894.327 7        43.011               
G10  25992697.261 7 136871052.707 7     -1090.840 7        44.889               
> 2025 01 08 19 47 17.0000000  0  4                                             
G23  26360896.806 6 138107740.856 6      1714.300 6        41.190               
G16  26516506.262 6 139344013.995 6     -3203.405 6        41.124               
G08  25877400.017 7 135985479.605 7      1893.365 7        43.211               
G10  25992493.143 7 136872143.689 7     -1088.551 7        44.726               
> 2025 01 08 19 47 18.0000000  0  4                                             
G23  26361226.275 7 138106026.867 7      1715.293 7        42.038               
G16  26517115.131 6 139347214.639 6     -3201.173 6        41.155               
G08  25877037.294 7 135983585.651 7      1894.784 7        42.814               
G10  25992287.989 7 136873234.601 7     -1090.056 7        44.064               
> 2025 01 08 19 47 19.0000000  0  4                                             
G23  26361558.264 7 138104311.997 7      1715.745 7        42.067               
G16  26517732.542 7 139350416.020 7     -3200.642 7        42.287               
G08  25876678.108 6 135981692.354 6      1895.247 6        41.872               
G10  25992083.353 7 136874324.613 7     -1088.831 7        44.733               
> 2025 01 08 19 47 20.0000000  0  4                                             
G23  26361885.374 7 138102596.804 7      1715.210 7        42.137               
G16  26518340.160 7 139353617.532 7     -3200.922 7        42.106               
G08  25876319.870 7 135979799.083 7      1892.692 7        42.569               
G10  25991877.537 7 136875414.326 7     -1088.797 7        45.507               
> 2025 01 08 19 47 21.0000000  0  4                                             
G23  26362214.539 6 138100881.484 6      1714.621 6        41.661               
G16  26518940.237 6 139356818.957 6     -3200.475 6        41.369               
G08  25875963.437 7 135977905.671 7      1891.397 7        42.412               
G10  25991671.079 7 136876503.919 7     -1089.655 7        45.353               
> 2025 01 08 19 47 22.0000000  0  4                                             
G23  26362541.292 6 138099165.571 6      1715.120 6        41.086               
G16  26519555.986 6 139360020.820 6     -3206.840 6        41.270               
G08  25875598.820 7 135976012.594 7      1892.052 7        42.490               
G10  25991462.726 7 136877592.920 7     -1088.638 7        44.875               
> 2025 01 08 19 47 23.0000000  0  4                                             
G23  26362871.744 7 138097448.562 7      1717.182 7        42.109               
G16  26520168.554 7 139363223.592 7     -3200.440 7        42.039               
G08  25875251.142 7 135974120.317 7      1894.219 7        42.895               
G10  25991258.072 7 136878680.843 7     -1087.095 7        44.490               
> 2025 01 08 19 47 24.0000000  0  4                                             
G23  26363195.120 6 138095730.316 6      1719.866 6        41.914               
G16  26520791.450 6 139366427.439 6     -3204.585 6        41.375               
G08  25874882.450 7 135972229.058 7      1891.683 7        42.531               
G10  25991054.597 7 136879767.505 7     -1086.536 7        45.056               
> 2025 01 08 19 47 25.0000000  0  4                                             
G23  26363534.828 6 138094011.473 6      1719.398 6        41.876               
G16  26521397.121 7 139369631.672 7     -3202.790 7        42.131               
G08  25874519.048 7 135970338.101 7      1892.018 7        42.724               
G10  25990852.517 7 136880853.589 7     -1086.014 7        45.119               
> 2025 01 08 19 47 26.0000000  0  4                                             
G23  26363858.311 6 138092293.341 6      1719.256 6        41.445               
G16  26522011.243 6 139372835.017 6     -3204.454 6        41.961               
G08  25874160.631 7 135968446.167 7      1892.329 7        42.618               
G10  25990649.274 7 136881940.391 7     -1087.536 7        45.172               
> 2025 01 08 19 47 27.0000000  0  4                                             
G23  26364183.616 7 138090573.947 7      1719.079 7        42.009               
G16  26522616.110 6 139376039.442 6     -3203.122 6        41.757               
G08  25873807.521 7 135966555.231 7      1891.279 7        42.310               
G10  25990442.887 7 136883025.944 7     -1083.156 7        44.838               
> 2025 01 08 19 47 28.0000000  0  4                                             
G23  26364514.962 6 138088853.897 6      1718.736 6        41.767               
G16  26523235.146 6 139379244.340 6     -3201.671 6        41.735               
G08  25873446.942 7 135964664.683 7      1892.738 7        42.113               
G10  25990238.269 7 136884110.850 7     -1085.031 7        45.179               
> 2025 01 08 19 47 29.0000000  0  4                                             
G23  26364844.431 6 138087133.563 6      1717.818 6        41.577               
G16  26523846.857 7 139382449.359 7     -3203.432 7        42.228               
G08  25873091.206 7 135962774.165 7      1891.307 7        42.689               
G10  25990034.723 7 136885195.451 7     -1083.456 7        44.933               
> 2025 01 08 19 47 30.0000000  0  4                                             
G23  26365176.098 6 138085412.027 6      1724.108 6        41.862               
G16  26524454.886 6 139385655.364 6     -3204.713 6        41.771               
G08  25872734.790 7 135960884.561 7      1887.759 7        42.550               
G10  25989829.086 7 136886278.879 7     -1082.839 7        45.051               
> 2025 01 08 19 47 31.0000000  0  4                                             
G23  26365500.420 7 138083689.511 7      1722.302 7        42.229               
G16  26525066.596 7 139388862.197 7     -3206.917 7        42.490               
G08  25872376.088 7 135958995.689 7      1886.851 7        42.397               
G10  25989625.058 7 136887361.312 7     -1081.562 7        45.411               
> 2025 01 08 19 47 32.0000000  0  4                                             
G23  26365836.090 7 138081966.976 7      1721.592 7        42.062               
G16  26525676.770 6 139392068.865 6     -3207.798 6        41.949               
G08  25872016.063 7 135957106.574 7      1888.736 7        42.509               
G10  25989420.011 7 136888443.725 7     -1080.956 7        45.584               
> 2025 01 08 19 47 33.0000000  0  4                                             
G23  26366164.255 6 138080243.932 6      1723.196 6        41.806               
G16  26526293.930 7 139395275.876 7     -3204.721 7        42.024               
G08  25871668.778 7 135955217.709 7      1886.958 7        42.702               
G10  25989216.214 7 136889525.633 7     -1080.144 7        44.994               
> 2025 01 08 19 47 34.0000000  0  4                                             
G23  26366494.581 6 138078520.134 6      1723.445 6        41.878               
G16  26526903.853 7 139398483.431 7     -3207.712 7        42.007               
G08  25871303.785 7 135953329.299 7      1887.395 7        42.530               
G10  25989014.348 7 136890606.825 7     -1082.299 7        45.342               
> 2025 01 08 19 47 35.0000000  0  4                                             
G23  26366822.567 6 138076795.405 6      1721.052 6        41.642               
G16  26527519.817 6 139401691.749 6     -3209.000 6        41.930               
G08  25870949.050 7 135951441.581 7      1887.741 7        42.619               
G10  25988811.624 7 136891687.064 7     -1077.889 7        45.470               
> 2025 01 08 19 47 36.0000000  0  4                                             
G23  26367151.858 6 138075070.216 6      1726.476 6        41.456               
G16  26528127.899 7 139404900.330 7     -3210.163 7        42.253               
G08  25870594.546 7 135949554.033 7      1889.069 7        42.840               
G10  25988605.684 7 136892766.859 7     -1079.097 7        45.735               
> 2025 01 08 19 47 37.0000000  0  4                                             
G23  26367487.974 6 138073344.694 6      1727.608 6        41.376               
G16  26528740.253 7 139408109.073 7     -3209.181 7        42.334               
G08  25870234.557 7 135947666.574 7      1883.439 7        42.525               
