     3.02           OBSERVATION DATA    E                   RINEX VERSION / TYPE
G = GPS  R = GLONASS  E = GALILEO  S = GEO  M = MIXED       COMMENT             
GNSS-SDR            jmfriedt            20250104 072633 UTC PGM / RUN BY / DATE 
GALILEO OBSERVATION DATA FILE GENERATED BY GNSS-SDR         COMMENT             
GNSS-SDR VERSION 0.0.19                                     COMMENT             
See https://gnss-sdr.org                                    COMMENT             
DEFAULT MARKER NAME                                         MARKER NAME         
jmfriedt            CTTC                                    OBSERVER / AGENCY   
GNSS-SDR            Software Receiver   0.0.19              REC # / TYPE / VERS 
Antenna number      Antenna type                            ANT # / TYPE        
        0.0000        0.0000        0.0000                  APPROX POSITION XYZ 
        0.0000        0.0000        0.0000                  ANTENNA: DELTA H/E/N
E    4 C1B L1B D1B S1B                                      SYS / # / OBS TYPES 
DBHZ                                                        SIGNAL STRENGTH UNIT
  2025    01    03    15    38    6.1600000     GAL         TIME OF FIRST OBS   
    18    18   137     7                                    LEAP SECONDS        
    18    18   137     7                                    LEAP SECONDS        
    18    18   137     7                                    LEAP SECONDS        
                                                            END OF HEADER       
> 2025 01 03 15 38 07.0000000  0  5                                             
E05  27616365.836 6 145123253.501 6      1071.277 6        37.071               
E24  27889989.610 6 146562881.895 6      1928.621 6        41.087               
E26  28514203.633 6 149843148.812 6     -1208.290 6        37.470               
E31  26028750.606 6 136782015.581 6      -324.839 6        39.932               
E33  27297731.744 6 143450559.453 6      1541.935 6        40.921               
> 2025 01 03 15 38 08.0000000  0  5                                             
E05  27616571.920 6 145122181.957 6      1076.250 6        37.040               
E24  27889616.648 6 146560954.671 6      1922.903 6        41.116               
E26  28514435.912 6 149844358.755 6     -1214.396 6        37.526               
E31  26028810.699 6 136782343.277 6      -331.089 6        39.842               
E33  27297434.529 6 143449019.339 6      1536.307 6        40.582               
> 2025 01 03 15 38 09.0000000  0  5                                             
E05  27616770.516 6 145121110.070 6      1073.207 6        37.156               
E24  27889249.743 6 146559027.514 6      1928.726 6        41.168               
E26  28514657.989 6 149845569.034 6     -1207.448 6        37.561               
E31  26028871.454 6 136782671.116 6      -326.158 6        39.621               
E33  27297141.012 6 143447479.624 6      1542.766 6        40.739               
> 2025 01 03 15 38 10.0000000  0  5                                             
E05  27616971.292 6 145120039.527 6      1073.108 6        37.366               
E24  27888877.335 6 146557098.678 6      1930.844 6        40.779               
E26  28514885.569 6 149846777.975 6     -1206.387 6        37.606               
E31  26028929.350 6 136782997.409 6      -325.197 6        40.101               
E33  27296844.315 6 143445938.555 6      1540.764 6        40.638               
> 2025 01 03 15 38 11.0000000  0  5                                             
E05  27617175.410 6 145118967.647 6      1069.735 6        37.239               
E24  27888510.252 6 146555170.873 6      1930.843 6        40.629               
E26  28515111.862 6 149847988.285 6     -1207.729 6        37.280               
E31  26028990.408 6 136783324.822 6      -326.695 6        40.402               
E33  27296546.814 6 143444398.834 6      1540.457 6        40.754               
> 2025 01 03 15 38 12.0000000  0  5                                             
E05  27617376.454 6 145117896.249 6      1070.853 6        37.643               
E24  27888142.829 6 146553242.310 6      1927.757 6        40.446               
E26  28515342.068 6 149849198.148 6     -1212.005 6        37.124               
E31  26029051.127 6 136783651.581 6      -327.572 6        40.325               
E33  27296251.385 6 143442858.657 6      1540.644 6        40.575               
> 2025 01 03 15 38 13.0000000  0  5                                             
E05  27617577.838 6 145116822.686 6      1073.442 6        37.269               
E24  27887768.169 6 146551315.522 6      1927.149 6        40.630               
E26  28515569.648 6 149850410.108 6     -1211.614 6        37.623               
E31  26029111.417 6 136783980.239 6      -327.003 6        40.356               
E33  27295959.066 6 143441320.619 6      1538.944 6        40.654               
> 2025 01 03 15 38 14.0000000  0  5                                             
E05  27617778.490 6 145115751.206 6      1074.503 6        37.283               
E24  27887401.175 6 146549386.443 6      1929.770 6        40.704               
E26  28515799.015 6 149851620.087 6     -1210.977 6        37.647               
E31  26029168.866 6 136784306.666 6      -325.426 6        40.412               
E33  27295661.118 6 143439780.543 6      1541.628 6        40.411               
> 2025 01 03 15 38 15.0000000  0  5                                             
E05  27617977.193 6 145114678.538 6      1075.527 6        36.768               
E24  27887029.357 6 146547458.179 6      1926.849 6        40.621               
E26  28516028.811 6 149852831.204 6     -1212.013 6        37.921               
E31  26029230.621 6 136784634.076 6      -328.779 6        40.333               
E33  27295366.958 6 143438241.657 6      1538.241 6        40.431               
> 2025 01 03 15 38 16.0000000  0  5                                             
E05  27618181.490 6 145113606.610 6      1073.065 6        36.874               
E24  27886658.110 6 146545528.906 6      1929.084 6        40.672               
E26  28516259.178 6 149854041.620 6     -1209.877 6        37.764               
E31  26029289.178 6 136784960.533 6      -326.208 6        40.117               
E33  27295071.315 6 143436702.052 6      1538.749 6        40.390               
> 2025 01 03 15 38 17.0000000  0  5                                             
E05  27618382.409 6 145112533.580 6      1074.850 6        36.977               
E24  27886290.008 6 146543600.431 6      1929.886 6        40.933               
E26  28516483.756 6 149855253.159 6     -1211.238 6        37.659               
E31  26029347.485 6 136785287.886 6      -326.511 6        40.132               
E33  27294775.582 6 143435163.551 6      1540.197 6        40.437               
> 2025 01 03 15 38 18.0000000  0  5                                             
E05  27618585.151 6 145111460.268 6      1075.423 6        37.009               
E24  27885923.729 6 146541671.930 6      1927.833 6        40.783               
E26  28516710.764 6 149856464.985 6     -1212.883 6        37.622               
E31  26029408.097 6 136785615.337 6      -326.308 6        40.384               
E33  27294477.759 6 143433625.365 6      1537.115 6        40.777               
> 2025 01 03 15 38 19.0000000  0  5                                             
E05  27618786.714 6 145110387.195 6      1069.035 6        37.143               
E24  27885548.283 6 146539742.877 6      1932.613 6        40.715               
E26  28516934.842 6 149857676.593 6     -1209.369 6        37.779               
E31  26029467.261 6 136785942.355 6      -323.951 6        40.386               
E33  27294185.404 6 143432086.966 6      1540.729 6        40.971               
> 2025 01 03 15 38 20.0000000  0  5                                             
E05  27618983.952 6 145109313.805 6      1067.541 6        37.366               
E24  27885180.109 6 146537813.850 6      1931.071 6        40.944               
E26  28517170.409 6 149858888.546 6     -1209.634 6        38.043               
E31  26029526.818 6 136786269.482 6      -324.458 6        40.170               
E33  27293888.010 6 143430548.879 6      1539.967 6        40.792               
> 2025 01 03 15 38 21.0000000  0  5                                             
E05  27619189.660 6 145108242.754 6      1070.473 6        37.240               
E24  27884814.652 6 146535882.148 6      1929.009 6        40.491               
E26  28517394.594 6 149860098.132 6     -1212.001 6        38.156               
E31  26029586.179 6 136786594.044 6      -324.016 6        40.052               
E33  27293593.797 6 143429008.443 6      1540.507 6        40.915               
> 2025 01 03 15 38 22.0000000  0  5                                             
E05  27619387.667 6 145107170.622 6      1074.704 6        37.275               
E24  27884441.029 6 146533951.204 6      1929.852 6        40.511               
E26  28517623.049 6 149861308.814 6     -1213.069 6        38.063               
E31  26029643.628 6 136786919.476 6      -327.068 6        40.252               
E33  27293298.136 6 143427469.106 6      1537.848 6        40.811               
> 2025 01 03 15 38 23.0000000  0  5                                             
E05  27619591.159 6 145106098.403 6      1073.254 6        37.054               
E24  27884072.498 6 146532020.080 6      1930.028 6        40.484               
E26  28517850.361 6 149862519.610 6     -1211.962 6        37.950               
E31  26029704.311 6 136787244.829 6      -325.998 6        40.245               
E33  27293002.225 6 143425929.909 6      1536.343 6        41.148               
> 2025 01 03 15 38 24.0000000  0  5                                             
E05  27619791.042 6 145105025.711 6      1071.265 6        36.950               
E24  27883701.591 6 146530089.135 6      1932.392 6        40.818               
E26  28518079.245 6 149863730.926 6     -1209.680 6        38.034               
E31  26029764.280 6 136787570.460 6      -323.347 6        40.042               
E33  27292708.244 6 143424391.183 6      1538.642 6        41.130               
> 2025 01 03 15 38 25.0000000  0  5                                             
E05  27619996.679 6 145103952.886 6      1076.243 6        36.775               
E24  27883330.612 6 146528157.995 6      1927.557 6        40.633               
E26  28518306.343 6 149864942.343 6     -1214.417 6        38.477               
E31  26029823.301 6 136787895.998 6      -328.358 6        40.089               
E33  27292410.832 6 143422852.603 6      1535.166 6        41.031               
> 2025 01 03 15 38 26.0000000  0  5                                             
E05  27620196.508 6 145102880.533 6      1074.463 6        36.402               
E24  27882958.936 6 146526226.069 6      1931.050 6        40.829               
E26  28518531.439 6 149866153.338 6     -1212.490 6        38.695               
E31  26029880.357 6 136788220.872 6      -325.872 6        40.153               
E33  27292117.708 6 143421313.560 6      1536.038 6        40.805               
> 2025 01 03 15 38 27.0000000  0  5                                             
E05  27620402.359 6 145101807.447 6      1070.066 6        36.617               
E24  27882588.529 6 146524294.603 6      1932.003 6        40.787               
E26  28518767.042 6 149867365.093 6     -1210.562 6        38.500               
E31  26029944.507 6 136788546.301 6      -323.835 6        40.217               
E33  27291824.084 6 143419775.260 6      1540.908 6        40.452               
> 2025 01 03 15 38 28.0000000  0  5                                             
E05  27620599.133 6 145100735.675 6      1067.328 6        36.475               
E24  27882219.802 6 146522361.500 6      1936.543 6        40.584               
E26  28518989.458 6 149868575.504 6     -1208.368 6        38.403               
E31  26029998.989 6 136788870.181 6      -322.491 6        40.312               
E33  27291525.368 6 143418235.671 6      1542.066 6        40.674               
> 2025 01 03 15 38 29.0000000  0  5                                             
E05  27620799.462 6 145099663.714 6      1070.611 6        36.591               
E24  27881848.198 6 146520428.258 6      1933.663 6        40.614               
E26  28519217.752 6 149869786.131 6     -1210.475 6        38.168               
E31  26030060.941 6 136789194.065 6      -323.239 6        40.152               
E33  27291231.816 6 143416696.285 6      1540.911 6        40.586               
> 2025 01 03 15 38 30.0000000  0  5                                             
E05  27621003.687 6 145098591.999 6      1075.229 6        36.659               
E24  27881478.952 6 146518494.478 6      1932.177 6        40.855               
E26  28519442.795 6 149870996.497 6     -1210.038 6        37.924               
E31  26030119.516 6 136789517.488 6      -325.058 6        40.214               
E33  27290934.707 6 143415156.643 6      1537.966 6        40.579               
> 2025 01 03 15 38 31.0000000  0  5                                             
E05  27621206.376 6 145097518.624 6      1070.461 6        36.352               
E24  27881108.241 6 146516562.051 6      1937.764 6        40.906               
E26  28519671.357 6 149872208.558 6     -1207.256 6        37.958               
E31  26030177.465 6 136789842.364 6      -321.059 6        40.181               
E33  27290639.493 6 143413618.687 6      1541.751 6        40.540               
> 2025 01 03 15 38 32.0000000  0  5                                             
E05  27621406.848 6 145096447.602 6      1070.060 6        36.596               
E24  27880736.280 6 146514626.990 6      1935.961 6        40.788               
E26  28519899.223 6 149873418.288 6     -1207.455 6        38.160               
E31  26030238.541 6 136790164.711 6      -321.835 6        40.138               
E33  27290345.280 6 143412078.418 6      1539.024 6        40.682               
> 2025 01 03 15 38 33.0000000  0  5                                             
E05  27621606.892 6 145095376.341 6      1074.809 6        36.243               
E24  27880367.892 6 146512691.850 6      1932.219 6        40.507               
E26  28520129.180 6 149874628.286 6     -1213.124 6        37.592               
E31  26030295.669 6 136790487.107 6      -327.129 6        40.236               
E33  27290047.778 6 143410538.410 6      1536.166 6        40.804               
> 2025 01 03 15 38 34.0000000  0  6                                             
E05  27621811.600 5 145094304.867 5      1070.934 5        35.999               
E09  30212260.450 6 158765831.512 6      2835.966 6        36.225               
E24  27879996.466 6 146510756.615 6      1934.208 6        40.580               
E26  28520355.259 6 149875838.485 6     -1211.275 6        37.767               
E31  26030353.600 6 136790809.488 6      -322.135 6        40.366               
E33  27289754.208 6 143408998.581 6      1540.207 6        40.989               
> 2025 01 03 15 38 35.0000000  0  6                                             
E05  27622015.074 6 145093233.301 6      1071.888 6        36.016               
E09  30212791.697 6 158762996.654 6      2834.522 6        36.418               
E24  27879625.416 6 146508821.157 6      1933.329 6        40.696               
E26  28520581.927 6 149877048.785 6     -1210.567 6        37.836               
E31  26030416.249 6 136791131.757 6      -321.737 6        40.193               
E33  27289459.173 6 143407458.878 6      1539.392 6        41.012               
> 2025 01 03 15 38 36.0000000  0  6                                             
E05  27622207.756 6 145092160.579 6      1077.892 6        36.427               
E09  30213334.146 6 158760160.966 6      2837.377 6        36.148               
E24  27879254.866 6 146506886.547 6      1932.384 6        40.384               
E26  28520812.402 6 149878260.269 6     -1214.073 6        37.788               
E31  26030474.538 6 136791454.998 6      -324.588 6        40.298               
E33  27289161.832 6 143405920.371 6      1536.299 6        41.151               
> 2025 01 03 15 38 37.0000000  0  6                                             
E05  27622413.946 6 145091089.192 6      1072.348 6        36.385               
E09  30213868.126 6 158757326.914 6      2833.439 6        36.164               
E24  27878885.621 6 146504950.347 6      1935.354 6        40.692               
E26  28521041.304 6 149879470.470 6     -1212.966 6        37.880               
E31  26030531.343 6 136791776.731 6      -324.153 6        40.265               
E33  27288867.315 6 143404380.543 6      1537.416 6        40.995               
> 2025 01 03 15 38 38.0000000  0  6                                             
E05  27622616.528 6 145090017.692 6      1073.230 6        36.962               
E09  30214404.447 6 158754493.146 6      2833.614 6        36.394               
E24  27878513.034 6 146503013.896 6      1934.865 6        40.580               
E26  28521268.401 6 149880680.745 6     -1208.779 6        38.061               
E31  26030591.115 6 136792098.328 6      -322.244 6        39.975               
E33  27288570.725 6 143402840.820 6      1539.127 6        40.989               
> 2025 01 03 15 38 39.0000000  0  6                                             
E05  27622815.660 6 145088945.328 6      1073.165 6        36.909               
E09  30214939.482 6 158751658.836 6      2837.070 6        36.305               
E24  27878142.931 6 146501078.057 6      1934.162 6        40.732               
E26  28521495.963 6 149881891.927 6     -1214.017 6        37.971               
E31  26030649.279 6 136792420.621 6      -321.299 6        39.748               
E33  27288274.296 6 143401301.997 6      1537.847 6        41.165               
> 2025 01 03 15 38 40.0000000  0  6                                             
E05  27623026.121 6 145087874.696 6      1071.987 6        37.126               
E09  30215479.930 6 158748826.650 6      2832.319 6        36.200               
E24  27877773.399 6 146499140.112 6      1937.571 6        40.899               
E26  28521725.134 6 149883101.333 6     -1209.916 6        37.850               
E31  26030708.729 6 136792740.928 6      -321.452 6        39.821               
E33  27287979.260 6 143399761.409 6      1539.888 6        41.080               
> 2025 01 03 15 38 41.0000000  0  6                                             
E05  27623220.125 6 145086803.061 6      1069.761 6        37.182               
E09  30216015.858 6 158745993.743 6      2833.677 6        36.113               
E24  27877400.151 6 146497202.942 6      1936.407 6        41.072               
E26  28521949.211 6 149884311.826 6     -1213.812 6        38.120               
E31  26030769.519 6 136793062.115 6      -321.264 6        39.651               
E33  27287685.547 6 143398221.926 6      1538.626 6        41.041               
> 2025 01 03 15 38 42.0000000  0  6                                             
E05  27623420.241 6 145085731.054 6      1075.259 6        37.053               
E09  30216551.267 6 158743160.866 6      2831.914 6        36.319               
E24  27877029.387 6 146495265.784 6      1935.482 6        40.906               
E26  28522175.933 6 149885522.638 6     -1209.967 6        38.114               
E31  26030825.056 6 136793383.392 6      -321.616 6        39.725               
E33  27287388.368 6 143396682.752 6      1538.860 6        41.262               
> 2025 01 03 15 38 43.0000000  0  6                                             
E05  27623627.932 6 145084658.728 6      1068.775 6        37.272               
E09  30217088.321 6 158740327.946 6      2835.372 6        36.121               
E24  27876659.409 6 146493328.676 6      1937.412 6        40.773               
E26  28522406.515 6 149886733.857 6     -1210.609 6        38.212               
E31  26030883.256 6 136793704.867 6      -320.959 6        39.575               
E33  27287094.476 6 143395143.977 6      1537.803 6        40.982               
> 2025 01 03 15 38 44.0000000  0  6                                             
E05  27623822.544 6 145083586.404 6      1069.872 6        37.465               
E09  30217629.163 5 158737495.399 5      2831.825 5        35.985               
E24  27876287.751 6 146491391.241 6      1941.789 6        41.253               
E26  28522633.756 6 149887945.055 6     -1210.262 6        38.175               
E31  26030939.436 6 136794026.101 6      -317.905 6        39.564               
E33  27286801.442 6 143393605.181 6      1540.942 6        40.771               
> 2025 01 03 15 38 45.0000000  0  6                                             
E05  27624029.217 6 145082515.216 6      1071.822 6        37.344               
E09  30218162.660 6 158734664.371 6      2829.082 6        36.182               
E24  27875913.877 6 146489452.360 6      1941.524 6        41.158               
E26  28522860.960 6 149889155.114 6     -1208.591 6        38.085               
E31  26030999.798 6 136794345.989 6      -319.504 6        39.717               
E33  27286503.351 6 143392065.249 6      1540.825 6        41.099               
> 2025 01 03 15 38 46.0000000  0  6                                             
E05  27624226.830 6 145081443.195 6      1072.164 6        36.877               
E09  30218700.786 6 158731832.822 6      2834.053 6        36.084               
E24  27875544.096 6 146487514.028 6      1934.451 6        41.223               
E26  28523085.395 6 149890366.021 6     -1210.813 6        38.210               
E31  26031055.549 6 136794666.527 6      -322.278 6        39.772               
E33  27286208.333 6 143390526.186 6      1539.177 6        41.386               
> 2025 01 03 15 38 47.0000000  0  6                                             
E05  27624428.589 6 145080369.884 6      1070.382 6        36.924               
E09  30219230.924 5 158729000.333 5      2830.352 5        35.946               
E24  27875173.206 6 146485576.695 6      1937.622 6        41.214               
E26  28523314.851 6 149891578.292 6     -1212.866 6        37.720               
E31  26031115.392 6 136794988.167 6      -320.661 6        39.831               
E33  27285911.546 6 143388988.465 6      1537.337 6        41.150               
> 2025 01 03 15 38 48.0000000  0  6                                             
E05  27624629.598 6 145079298.490 6      1069.677 6        37.075               
E09  30219770.962 6 158726170.131 6      2828.512 6        36.235               
E24  27874798.940 6 146483637.056 6      1939.435 6        40.987               
E26  28523547.202 6 149892788.566 6     -1211.822 6        37.962               
E31  26031174.860 6 136795307.662 6      -321.392 6        39.890               
E33  27285616.207 6 143387448.761 6      1537.568 6        40.808               
> 2025 01 03 15 38 49.0000000  0  6                                             
E05  27624833.180 6 145078224.776 6      1074.520 6        37.103               
E09  30220305.978 6 158723337.916 6      2831.868 6        36.395               
E24  27874430.873 6 146481699.500 6      1938.887 6        40.965               
E26  28523772.745 6 149894001.244 6     -1212.519 6        37.668               
E31  26031232.917 6 136795629.298 6      -322.731 6        39.930               
E33  27285323.048 6 143385911.454 6      1536.910 6        40.881               
> 2025 01 03 15 38 50.0000000  0  6                                             
E05  27625034.278 6 145077148.894 6      1075.800 6        36.958               
E09  30220843.961 6 158720503.898 6      2830.312 6        36.194               
E24  27874058.554 6 146479763.836 6      1938.644 6        40.835               
E26  28524003.023 6 149895216.086 6     -1212.717 6        37.710               
E31  26031293.189 6 136795952.892 6      -322.208 6        40.003               
E33  27285026.404 6 143384376.311 6      1535.883 6        41.022               
> 2025 01 03 15 38 51.0000000  0  6                                             
E05  27625237.824 6 145076074.599 6      1078.763 6        36.802               
E09  30221383.194 6 158717671.808 6      2835.432 6        36.158               
E24  27873686.414 6 146477826.231 6      1935.715 6        41.209               
E26  28524230.103 6 149896429.319 6     -1216.421 6        37.704               
E31  26031349.745 6 136796274.671 6      -324.478 6        39.698               
E33  27284731.887 6 143382839.585 6      1533.953 6        41.163               
> 2025 01 03 15 38 52.0000000  0  6                                             
E05  27625437.689 6 145074998.401 6      1073.306 6        36.331               
E09  30221918.657 6 158714838.115 6      2832.240 6        36.063               
E24  27873315.239 6 146475890.275 6      1937.211 6        41.320               
E26  28524459.130 6 149897644.529 6     -1212.023 6        37.661               
E31  26031410.160 6 136796598.236 6      -321.941 6        40.033               
E33  27284438.496 6 143381304.823 6      1535.524 6        40.816               
> 2025 01 03 15 38 53.0000000  0  6                                             
E05  27625642.897 6 145073922.739 6      1073.966 6        36.467               
E09  30222450.189 6 158712005.385 6      2832.378 6        36.085               
E24  27872947.226 6 146473953.420 6      1935.854 6        41.382               
E26  28524688.800 6 149898859.163 6     -1216.482 6        37.799               
E31  26031467.680 6 136796920.990 6      -324.110 6        40.108               
E33  27284143.067 6 143379769.500 6      1535.251 6        40.603               
> 2025 01 03 15 38 54.0000000  0  6                                             
E05  27625836.972 6 145072847.007 6      1074.557 6        36.457               
E09  30222988.226 6 158709172.884 6      2830.274 6        36.128               
E24  27872576.265 6 146472016.370 6      1938.774 6        41.334               
E26  28524917.292 6 149900073.905 6     -1212.413 6        37.899               
E31  26031527.577 6 136797243.644 6      -320.811 6        40.001               
E33  27283845.923 6 143378234.275 6      1536.454 6        40.749               
> 2025 01 03 15 38 55.0000000  0  6                                             
E05  27626040.268 6 145071771.832 6      1077.993 6        36.382               
E09  30223526.530 6 158706341.312 6      2830.248 6        36.414               
E24  27872203.464 6 146470078.445 6      1936.674 6        41.634               
E26  28525145.425 6 149901288.103 6     -1215.410 6        37.744               
E31  26031586.009 6 136797565.528 6      -324.058 6        40.055               
E33  27283552.299 6 143376698.513 6      1533.636 6        41.017               
> 2025 01 03 15 38 56.0000000  0  6                                             
E05  27626243.993 6 145070696.509 6      1075.280 6        36.360               
E09  30224062.708 6 158703509.913 6      2833.102 6        36.546               
E24  27871833.825 6 146468140.375 6      1937.194 6        41.193               
E26  28525375.561 6 149902502.458 6     -1212.415 6        38.012               
E31  26031644.172 6 136797887.371 6      -320.341 6        39.889               
E33  27283259.176 6 143375162.909 6      1536.127 6        41.093               
> 2025 01 03 15 38 57.0000000  0  6                                             
E05  27626446.002 6 145069620.533 6      1074.251 6        36.601               
E09  30224601.102 6 158700678.193 6      2832.069 6        36.362               
E24  27871458.826 6 146466202.673 6      1936.932 6        41.077               
E26  28525596.600 6 149903717.485 6     -1216.283 6        37.865               
E31  26031704.552 6 136798209.683 6      -321.627 6        39.854               
E33  27282967.303 6 143373628.016 6      1534.507 6        41.091               
> 2025 01 03 15 38 58.0000000  0  6                                             
E05  27626650.102 6 145068542.952 6      1076.040 6        36.617               
E09  30225132.097 6 158697845.247 6      2832.500 6        36.468               
E24  27871091.707 6 146464266.177 6      1936.698 6        41.216               
E26  28525828.808 6 149904934.114 6     -1216.745 6        37.833               
E31  26031762.322 6 136798533.357 6      -324.743 6        40.184               
E33  27282670.928 6 143372094.676 6      1533.889 6        41.068               
> 2025 01 03 15 38 59.0000000  0  6                                             
E05  27626853.684 6 145067466.507 6      1075.488 6        36.727               
E09  30225672.850 6 158695013.778 6      2831.864 6        36.503               
E24  27870719.031 6 146462328.328 6      1937.323 6        40.767               
E26  28526058.533 6 149906149.635 6     -1217.645 6        37.906               
E31  26031821.165 6 136798855.716 6      -322.414 6        40.241               
E33  27282373.748 6 143370560.253 6      1535.800 6        41.090               
> 2025 01 03 15 39 00.0000000  0  6                                             
E05  27627057.748 6 145066388.344 6      1078.834 6        36.915               
E09  30226202.345 6 158692180.926 6      2832.350 6        36.183               
E24  27870347.694 6 146460391.906 6      1936.977 6        41.252               
E26  28526283.575 6 149907366.906 6     -1216.917 6        37.938               
E31  26031879.811 6 136799179.614 6      -324.643 6        40.097               
E33  27282079.159 6 143369027.583 6      1531.966 6        40.975               
> 2025 01 03 15 39 01.0000000  0  6                                             
E05  27627258.382 6 145065310.227 6      1079.878 6        36.707               
E09  30226747.010 6 158689348.460 6      2831.755 6        36.479               
E24  27869975.983 6 146458455.092 6      1935.505 6        41.107               
E26  28526516.998 6 149908584.108 6     -1218.712 6        37.790               
E31  26031939.530 6 136799503.243 6      -324.681 6        40.304               
E33  27281785.964 6 143367494.858 6      1531.322 6        41.307               
> 2025 01 03 15 39 02.0000000  0  6                                             
E05  27627464.715 6 145064230.940 6      1077.130 6        36.977               
E09  30227281.437 6 158686515.172 6      2832.875 6        36.607               
E24  27869604.075 6 146456519.155 6      1938.859 6        41.086               
E26  28526746.347 6 149909802.494 6     -1217.097 6        37.747               
E31  26031998.908 6 136799827.848 6      -324.008 6        40.092               
E33  27281492.376 6 143365963.316 6      1534.056 6        41.259               
> 2025 01 03 15 39 03.0000000  0  6                                             
E05  27627666.296 6 145063152.433 6      1081.900 6        36.483               
E09  30227819.598 6 158683682.999 6      2833.415 6        36.756               
E24  27869232.203 6 146454582.135 6      1934.542 6        41.225               
E26  28526977.787 6 149911020.134 6     -1221.546 6        37.641               
E31  26032058.662 6 136800151.479 6      -325.761 6        40.206               
E33  27281195.715 6 143364431.029 6      1529.904 6        41.083               
> 2025 01 03 15 39 04.0000000  0  6                                             
E05  27627863.998 6 145062071.421 6      1082.414 6        36.629               
E09  30228354.758 6 158680848.698 6      2835.325 6        36.509               
E24  27868865.941 6 146452647.299 6      1934.902 6        40.849               
E26  28527205.581 6 149912240.285 6     -1221.227 6        37.635               
E31  26032119.220 6 136800477.414 6      -325.062 6        40.233               
E33  27280900.751 6 143362901.247 6      1529.977 6        41.151               
> 2025 01 03 15 39 05.0000000  0  6                                             
E05  27628067.598 6 145060991.153 6      1082.234 6        36.451               
E09  30228892.526 6 158678015.451 6      2835.252 6        36.486               
E24  27868492.407 6 146450711.454 6      1936.058 6        40.812               
E26  28527435.716 6 149913459.732 6     -1219.714 6        37.714               
E31  26032180.386 6 136800802.412 6      -324.694 6        40.252               
E33  27280608.521 6 143361370.775 6      1530.529 6        40.850               
> 2025 01 03 15 39 06.0000000  0  6                                             
E05  27628269.590 6 145059909.058 6      1083.300 6        36.260               
E09  30229427.614 6 158675180.791 6      2835.186 6        36.528               
E24  27868118.963 6 146448777.093 6      1932.312 6        40.783               
E26  28527665.190 6 149914680.959 6     -1224.252 6        38.026               
E31  26032236.745 6 136801129.011 6      -328.502 6        40.426               
E33  27280318.667 6 143359842.103 6      1527.028 6        40.925               
> 2025 01 03 15 39 07.0000000  0  6                                             
E05  27628477.514 6 145058825.981 6      1083.376 6        36.516               
E09  30229966.812 6 158672345.405 6      2834.107 6        36.652               
E24  27867748.949 6 146446843.447 6      1934.656 6        40.620               
E26  28527895.289 6 149915903.247 6     -1219.818 6        37.528               
E31  26032297.553 6 136801456.434 6      -326.714 6        40.649               
E33  27280023.471 6 143358314.474 6      1529.156 6        40.866               
> 2025 01 03 15 39 08.0000000  0  6                                             
E05  27628678.165 6 145057743.622 6      1084.144 6        36.525               
E09  30230503.901 6 158669511.127 6      2835.215 6        36.596               
E24  27867375.468 6 146444908.760 6      1932.581 6        40.720               
E26  28528120.761 6 149917124.796 6     -1225.019 6        37.347               
E31  26032356.557 6 136801782.921 6      -326.584 6        40.643               
E33  27279727.489 6 143356786.101 6      1526.224 6        41.166               
> 2025 01 03 15 39 09.0000000  0  6                                             
E05  27628881.300 6 145056659.558 6      1083.944 6        36.420               
E09  30231045.154 6 158666675.478 6      2836.976 6        36.829               
E24  27867008.314 6 146442975.494 6      1932.551 6        40.701               
E26  28528356.953 6 149918348.065 6     -1223.975 6        37.322               
E31  26032417.937 6 136802110.930 6      -328.692 6        40.396               
E33  27279435.884 6 143355259.481 6      1526.742 6        40.848               
> 2025 01 03 15 39 10.0000000  0  6                                             
E05  27629087.633 6 145055573.539 6      1085.820 6        36.180               
E09  30231580.885 6 158663838.246 6      2835.062 6        36.609               
E24  27866637.835 6 146441043.856 6      1932.429 6        40.496               
E26  28528586.964 6 149919573.296 6     -1223.940 6        37.763               
E31  26032476.619 6 136802440.657 6      -327.905 6        40.470               
E33  27279143.940 6 143353734.818 6      1524.594 6        40.957               
> 2025 01 03 15 39 11.0000000  0  6                                             
E05  27629295.075 6 145054490.166 6      1084.933 6        36.574               
E09  30232114.901 6 158661003.998 6      2833.581 6        36.508               
E24  27866265.159 6 146439109.263 6      1934.557 6        40.445               
E26  28528812.203 6 149920795.898 6     -1223.055 6        37.875               
E31  26032535.265 6 136802767.551 6      -326.890 6        40.479               
E33  27278847.868 6 143352207.525 6      1527.691 6        40.605               
> 2025 01 03 15 39 12.0000000  0  6                                             
E05  27629494.922 6 145053405.062 6      1087.031 6        36.765               
E09  30232648.487 6 158658168.342 6      2836.711 6        36.574               
E24  27865893.823 6 146437176.125 6      1930.624 6        40.416               
E26  28529045.197 6 149922020.251 6     -1226.740 6        37.983               
E31  26032594.876 6 136803095.992 6      -331.156 6        40.108               
E33  27278557.336 6 143350682.022 6      1523.030 6        40.589               
> 2025 01 03 15 39 13.0000000  0  6                                             
E05  27629704.955 6 145052317.188 6      1091.647 6        36.704               
E09  30233189.311 6 158655330.276 6      2839.295 6        36.271               
E24  27865527.490 6 146435245.427 6      1929.621 6        40.572               
E26  28529277.244 6 149923247.404 6     -1231.173 6        37.943               
E31  26032655.934 6 136803427.002 6      -333.735 6        40.351               
E33  27278264.212 6 143349159.257 6      1521.526 6        40.417               
> 2025 01 03 15 39 14.0000000  0  6                                             
E05  27629909.787 6 145051229.632 6      1085.994 6        36.782               
E09  30233730.975 6 158652492.865 6      2835.781 6        36.473               
E24  27865156.600 6 146433314.140 6      1931.536 6        40.802               
E26  28529506.557 6 149924474.221 6     -1223.550 6        37.469               
E31  26032714.170 6 136803757.496 6      -327.577 6        40.446               
E33  27277970.660 6 143347636.228 6      1524.485 6        40.525               
> 2025 01 03 15 39 15.0000000  0  6                                             
E05  27630110.242 6 145050142.659 6      1085.969 6        36.643               
E09  30234265.027 6 158649656.397 6      2839.808 6        36.307               
E24  27864788.248 6 146431381.951 6      1932.947 6        40.894               
E26  28529739.498 6 149925700.511 6     -1227.594 6        37.769               
E31  26032773.298 6 136804087.188 6      -329.744 6        40.278               
E33  27277681.485 6 143346112.604 6      1522.586 6        40.497               
> 2025 01 03 15 39 16.0000000  0  6                                             
E05  27630313.824 6 145049057.470 6      1085.780 6        36.467               
E09  30234803.599 6 158646822.069 6      2835.003 6        36.467               
E24  27864417.001 6 146429447.687 6      1933.558 6        40.821               
E26  28529971.884 6 149926924.977 6     -1222.829 6        38.055               
E31  26032835.768 6 136804414.938 6      -328.814 6        40.370               
E33  27277386.754 6 143344587.244 6      1523.634 6        40.505               
> 2025 01 03 15 39 17.0000000  0  6                                             
E05  27630517.977 6 145047973.013 6      1085.514 6        36.756               
E09  30235338.026 6 158643988.806 6      2836.416 6        36.534               
E24  27864046.755 6 146427512.370 6      1933.157 6        40.467               
E26  28530201.894 6 149928148.759 6     -1223.301 6        38.329               
E31  26032893.271 6 136804741.724 6      -327.243 6        40.288               
E33  27277093.380 6 143343061.138 6      1526.147 6        40.593               
> 2025 01 03 15 39 18.0000000  0  6                                             
E05  27630726.527 6 145046888.086 6      1086.317 6        36.748               
E09  30235871.934 6 158641155.424 6      2831.940 6        36.196               
E24  27863674.847 6 146425577.229 6      1934.435 6        40.643               
E26  28530431.333 6 149929373.010 6     -1223.509 6        38.061               
E31  26032953.203 6 136805068.793 6      -327.353 6        39.951               
E33  27276800.149 6 143341535.545 6      1524.543 6        40.696               
> 2025 01 03 15 39 19.0000000  0  6                                             
E05  27630926.249 6 145045802.878 6      1086.558 6        36.923               
E09  30236413.651 6 158638322.073 6      2831.896 6        36.672               
E24  27863301.849 6 146423642.074 6      1934.774 6        40.862               
E26  28530662.397 6 149930597.577 6     -1227.045 6        38.192               
E31  26033012.171 6 136805395.950 6      -327.971 6        40.022               
E33  27276510.743 6 143340010.257 6      1524.012 6        40.851               
> 2025 01 03 15 39 20.0000000  0  6                                             
E05  27631130.420 6 145044716.941 6      1085.741 6        36.903               
E09  30236947.453 6 158635488.378 6      2834.388 6        36.482               
E24  27862932.514 6 146421707.323 6      1936.563 6        41.164               
E26  28530887.672 6 149931822.854 6     -1226.934 6        38.091               
E31  26033074.338 6 136805723.617 6      -327.300 6        39.931               
E33  27276216.208 6 143338485.686 6      1523.571 6        40.924               
> 2025 01 03 15 39 21.0000000  0  6                                             
E05  27631333.519 6 145043632.447 6      1085.335 6        37.137               
E09  30237481.969 6 158632656.454 6      2833.671 6        36.303               
E24  27862563.305 6 146419770.860 6      1936.946 6        40.940               
E26  28531124.222 6 149933046.743 6     -1224.375 6        37.689               
E31  26033132.430 6 136806049.659 6      -327.168 6        39.943               
E33  27275921.762 6 143336959.735 6      1523.921 6        40.932               
> 2025 01 03 15 39 22.0000000  0  6                                             
E05  27631535.314 6 145042549.714 6      1084.195 6        37.317               
E09  30238017.914 6 158629826.626 6      2833.048 6        36.231               
E24  27862194.863 6 146417832.327 6      1936.445 6        41.300               
E26  28531352.159 6 149934268.845 6     -1221.606 6        37.569               
E31  26033192.863 6 136806373.741 6      -327.106 6        40.087               
E33  27275632.337 6 143335432.004 6      1524.616 6        41.052               
> 2025 01 03 15 39 23.0000000  0  6                                             
E05  27631739.736 6 145041465.462 6      1086.922 6        37.184               
E09  30238557.148 6 158626995.692 6      2832.312 6        36.566               
E24  27861820.722 6 146415894.968 6      1937.001 6        41.162               
E26  28531581.043 6 149935492.496 6     -1225.332 6        37.947               
E31  26033253.653 6 136806699.119 6      -325.850 6        40.331               
E33  27275338.017 6 143333905.792 6      1525.989 6        40.877               
> 2025 01 03 15 39 24.0000000  0  6                                             
E05  27631948.035 6 145040378.712 6      1086.226 6        36.923               
E09  30239094.452 6 158624162.517 6      2833.873 6        36.544               
E24  27861448.099 6 146413959.871 6      1936.059 6        41.496               
E26  28531814.341 6 149936718.704 6     -1226.143 6        37.880               
E31  26033313.443 6 136807026.848 6      -327.932 6        40.186               
E33  27275045.000 6 143332382.169 6      1523.029 6        41.145               
> 2025 01 03 15 39 25.0000000  0  6                                             
E05  27632149.008 6 145039291.319 6      1086.036 6        37.249               
E09  30239628.807 6 158621329.095 6      2833.628 6        36.189               
E24  27861076.870 6 146412025.058 6      1936.289 6        41.379               
E26  28532048.443 6 149937945.468 6     -1224.782 6        37.440               
E31  26033372.500 6 136807354.966 6      -327.513 6        40.235               
E33  27274755.397 6 143330859.148 6      1524.328 6        41.112               
> 2025 01 03 15 39 26.0000000  0  6                                             
E05  27632353.180 6 145038205.065 6      1086.421 6        37.100               
E09  30240166.950 5 158618497.144 5      2832.721 5        35.977               
E24  27860707.428 6 146410088.833 6      1938.092 6        41.109               
E26  28532271.038 6 149939171.168 6     -1225.802 6        37.828               
E31  26033433.451 6 136807681.788 6      -326.961 6        40.475               
E33  27274458.485 6 143329335.034 6      1522.093 6        41.048               
> 2025 01 03 15 39 27.0000000  0  6                                             
E05  27632559.602 6 145037119.048 6      1088.981 6        37.361               
E09  30240699.072 6 158615665.780 6      2831.396 6        36.102               
E24  27860336.985 6 146408152.051 6      1935.013 6        40.975               
E26  28532502.102 6 149940396.614 6     -1226.745 6        37.842               
E31  26033491.526 6 136808008.151 6      -328.241 6        40.448               
E33  27274167.899 6 143327810.684 6      1524.345 6        41.291               
> 2025 01 03 15 39 28.0000000  0  6                                             
E05  27632761.308 6 145036031.830 6      1088.906 6        37.293               
E09  30241241.039 6 158612833.543 6      2834.687 6        36.083               
E24  27859962.915 6 146406216.202 6      1937.351 6        40.847               
E26  28532734.096 6 149941623.349 6     -1229.887 6        37.889               
E31  26033551.387 6 136808335.548 6      -326.628 6        40.306               
E33  27273876.116 6 143326287.604 6      1522.829 6        41.284               
> 2025 01 03 15 39 29.0000000  0  6                                             
E05  27632965.319 6 145034945.219 6      1087.400 6        37.040               
E09  30241780.255 6 158610002.306 6      2833.815 6        36.226               
E24  27859592.258 6 146404279.413 6      1937.001 6        40.752               
E26  28532964.427 6 149942849.427 6     -1226.767 6        38.120               
E31  26033611.337 6 136808662.099 6      -326.331 6        40.351               
E33  27273582.457 6 143324763.885 6      1522.290 6        41.181               
> 2025 01 03 15 39 30.0000000  0  6                                             
E05  27633166.077 6 145033856.641 6      1088.804 6        36.668               
E09  30242312.180 6 158607169.456 6      2831.565 6        36.518               
E24  27859221.762 6 146402344.292 6      1937.415 6        40.782               
E26  28533198.244 6 149944077.481 6     -1225.629 6        37.896               
E31  26033670.841 6 136808990.441 6      -327.827 6        40.353               
E33  27273293.711 6 143323242.145 6      1523.710 6        41.101               
> 2025 01 03 15 39 31.0000000  0  6                                             
E05  27633369.605 6 145032769.009 6      1083.341 6        36.811               
E09  30242845.910 6 158604337.828 6      2833.209 6        36.277               
E24  27858850.497 6 146400407.964 6      1935.459 6        40.736               
E26  28533428.718 6 149945304.637 6     -1231.619 6        37.560               
E31  26033730.863 6 136809317.657 6      -329.846 6        40.293               
E33  27273000.427 6 143321719.518 6      1520.568 6        41.054               
> 2025 01 03 15 39 32.0000000  0  6                                             
E05  27633580.960 6 145031679.650 6      1091.025 6        36.676               
E09  30243383.142 6 158601504.832 6      2834.427 6        36.293               
E24  27858479.536 6 146398473.030 6      1935.148 6        40.939               
E26  28533659.926 6 149946533.531 6     -1230.860 6        37.606               
E31  26033789.903 6 136809646.377 6      -330.271 6        40.235               
E33  27272704.498 6 143320198.634 6      1520.239 6        41.254               
> 2025 01 03 15 39 33.0000000  0  6                                             
E05  27633780.307 6 145030588.586 6      1091.518 6        36.840               
E09  30243921.125 6 158598670.526 6      2834.107 6        36.216               
E24  27858111.041 6 146396539.506 6      1933.110 6        41.014               
E26  28533889.507 6 149947764.115 6     -1229.184 6        37.355               
E31  26033850.943 6 136809976.617 6      -329.641 6        40.286               
E33  27272411.196 6 143318679.464 6      1518.298 6        41.209               
> 2025 01 03 15 39 34.0000000  0  6                                             
E05  27633991.965 6 145029497.116 6      1091.147 6        36.647               
E09  30244457.964 6 158595836.131 6      2833.473 6        36.051               
E24  27857739.455 6 146394606.083 6      1930.709 6        40.732               
E26  28534121.858 6 149948995.146 6     -1231.907 6        37.502               
E31  26033910.518 6 136810307.064 6      -331.997 6        40.601               
E33  27272123.701 6 143317160.722 6      1518.094 6        41.268               
> 2025 01 03 15 39 35.0000000  0  6                                             
E05  27634192.206 6 145028405.269 6      1094.038 6        36.897               
E09  30244991.033 5 158593001.703 5      2833.188 5        35.954               
E24  27857368.923 6 146392672.717 6      1933.719 6        40.971               
E26  28534352.797 6 149950226.527 6     -1232.464 6        37.657               
E31  26033969.540 6 136810637.668 6      -330.738 6        40.525               
E33  27271831.042 6 143315642.365 6      1517.938 6        40.995               
> 2025 01 03 15 39 36.0000000  0  6                                             
E05  27634400.684 6 145027312.593 6      1090.164 6        36.955               
E09  30245524.798 6 158590166.778 6      2835.608 6        36.177               
E24  27856996.264 6 146390739.939 6      1932.205 6        40.808               
E26  28534582.932 6 149951458.809 6     -1232.202 6        37.579               
E31  26034030.723 6 136810968.957 6      -330.399 6        40.438               
E33  27271540.367 6 143314124.896 6      1517.367 6        41.034               
> 2025 01 03 15 39 37.0000000  0  6                                             
E05  27634604.998 6 145026219.301 6      1092.928 6        36.945               
E09  30246061.423 6 158587331.640 6      2835.485 6        36.182               
E24  27856632.433 6 146388807.399 6      1930.205 6        41.253               
E26  28534814.961 6 149952691.660 6     -1233.252 6        37.272               
E31  26034092.461 6 136811300.608 6      -331.810 6        40.689               
E33  27271251.496 6 143312607.996 6      1516.419 6        40.935               
> 2025 01 03 15 39 38.0000000  0  6                                             
E05  27634810.117 6 145025125.239 6      1091.754 6        36.832               
E09  30246602.068 5 158584496.002 5      2836.344 5        35.864               
E24  27856260.043 6 146386875.375 6      1930.122 6        41.216               
E26  28535042.059 6 149953925.330 6     -1232.581 6        37.433               
E31  26034152.483 6 136811632.864 6      -331.964 6        40.602               
E33  27270955.710 6 143311091.943 6      1515.509 6        40.899               
> 2025 01 03 15 39 39.0000000  0  6                                             
E05  27635016.361 6 145024030.660 6      1095.264 6        36.859               
E09  30247139.979 6 158581660.281 6      2835.359 6        36.189               
E24  27855886.777 6 146384943.532 6      1932.293 6        41.125               
E26  28535276.643 6 149955159.511 6     -1233.203 6        37.475               
E31  26034212.344 6 136811965.387 6      -330.701 6        40.639               
E33  27270665.625 6 143309576.384 6      1516.068 6        40.897               
> 2025 01 03 15 39 40.0000000  0  6                                             
E05  27635217.888 6 145022936.723 6      1090.421 6        36.814               
E09  30247672.548 6 158578825.473 6      2834.196 6        36.304               
E24  27855518.085 6 146383010.807 6      1931.482 6        41.310               
E26  28535515.659 6 149956393.125 6     -1231.891 6        37.494               
E31  26034273.331 6 136812297.172 6      -332.824 6        40.615               
E33  27270374.753 6 143308060.264 6      1517.128 6        40.655               
> 2025 01 03 15 39 41.0000000  0  6                                             
E05  27635426.902 6 145021841.549 6      1091.669 6        36.827               
E09  30248216.892 6 158575989.842 6      2835.994 6        36.245               
E24  27855147.446 6 146381078.916 6      1932.182 6        41.547               
E26  28535743.650 6 149957627.883 6     -1233.831 6        37.346               
E31  26034330.226 6 136812629.889 6      -331.923 6        40.646               
E33  27270081.361 6 143306545.317 6      1515.745 6        40.804               
> 2025 01 03 15 39 42.0000000  0  6                                             
E05  27635630.072 6 145020745.849 6      1095.261 6        36.857               
E09  30248753.087 6 158573153.991 6      2835.145 6        36.310               
E24  27854779.594 6 146379147.331 6      1931.124 6        41.471               
E26  28535977.055 6 149958863.261 6     -1236.201 6        37.227               
E31  26034394.537 6 136812962.987 6      -333.524 6        40.635               
E33  27269790.900 6 143305030.966 6      1512.132 6        40.716               
> 2025 01 03 15 39 43.0000000  0  6                                             
E05  27635841.910 6 145019648.670 6      1097.279 6        36.462               
E09  30249284.852 6 158570317.015 6      2836.956 6        36.648               
E24  27854409.598 6 146377216.909 6      1931.062 6        41.258               
E26  28536212.247 6 149960100.092 6     -1237.839 6        37.214               
E31  26034455.131 6 136813297.357 6      -334.536 6        40.600               
E33  27269501.547 6 143303518.102 6      1512.843 6        40.646               
> 2025 01 03 15 39 44.0000000  0  6                                             
E05  27636041.221 6 145018552.669 6      1097.546 6        36.357               
E09  30249827.909 6 158567481.569 6      2834.152 6        36.671               
E24  27854037.922 6 146375285.005 6      1931.670 6        41.181               
E26  28536444.044 6 149961335.775 6     -1236.654 6        36.769               
E31  26034517.333 6 136813630.364 6      -333.220 6        40.727               
E33  27269207.208 6 143302004.091 6      1511.694 6        40.848               
> 2025 01 03 15 39 45.0000000  0  6                                             
E05  27636250.539 6 145017454.589 6      1093.906 6        36.226               
E09  30250361.764 6 158564644.367 6      2831.707 6        36.636               
E24  27853668.123 6 146373354.885 6      1933.226 6        40.827               
E26  28536677.217 6 149962573.557 6     -1233.077 6        37.161               
E31  26034579.320 6 136813965.243 6      -332.241 6        40.728               
E33  27268919.714 6 143300492.194 6      1515.147 6        41.083               
> 2025 01 03 15 39 46.0000000  0  6                                             
E05  27636455.925 6 145016358.557 6      1094.957 6        36.490               
E09  30250903.517 6 158561809.582 6      2835.842 6        36.150               
E24  27853295.858 6 146371422.397 6      1932.196 6        40.576               
E26  28536907.853 6 149963809.290 6     -1238.109 6        37.149               
E31  26034639.378 6 136814297.870 6      -334.891 6        40.379               
E33  27268631.862 6 143298978.257 6      1511.674 6        40.701               
> 2025 01 03 15 39 47.0000000  0  6                                             
E05  27636667.316 6 145015262.229 6      1098.644 6        36.465               
E09  30251436.496 6 158558974.852 6      2830.641 6        36.321               
E24  27852925.808 6 146369489.923 6      1931.407 6        40.289               
E26  28537139.507 6 149965045.337 6     -1236.792 6        36.879               
E31  26034698.346 6 136814630.602 6      -333.396 6        40.980               
E33  27268338.095 6 143297464.627 6      1512.824 6        40.936               
> 2025 01 03 15 39 48.0000000  0  6                                             
E05  27636870.486 6 145014164.401 6      1098.200 6        36.690               
E09  30251973.675 6 158556138.970 6      2832.453 6        36.325               
E24  27852557.206 6 146367558.634 6      1933.010 6        40.337               
E26  28537375.789 6 149966282.895 6     -1237.347 6        37.416               
E31  26034761.013 6 136814964.648 6      -332.923 6        41.097               
E33  27268048.456 6 143295952.522 6      1513.418 6        40.700               
> 2025 01 03 15 39 49.0000000  0  6                                             
E05  27637078.142 6 145013067.001 6      1096.549 6        37.021               
E09  30252508.977 6 158553303.848 6      2834.103 6        36.466               
E24  27852186.209 6 146365626.644 6      1932.003 6        40.595               
E26  28537611.517 6 149967520.077 6     -1236.679 6        37.343               
E31  26034822.661 6 136815298.071 6      -333.841 6        41.016               
E33  27267761.122 6 143294440.030 6      1512.862 6        40.575               
> 2025 01 03 15 39 50.0000000  0  6                                             
E05  27637286.084 6 145011970.029 6      1096.372 6        36.921               
E09  30253050.069 6 158550469.496 6      2831.089 6        36.323               
E24  27851814.569 6 146363693.909 6      1934.110 6        40.710               
E26  28537840.241 6 149968756.779 6     -1235.850 6        37.388               
E31  26034884.559 6 136815630.853 6      -333.470 6        40.592               
E33  27267470.339 6 143292927.120 6      1514.203 6        40.445               
> 2025 01 03 15 39 51.0000000  0  6                                             
E05  27637490.256 6 145010872.777 6      1101.348 6        36.527               
E09  30253581.244 6 158547635.225 6      2833.670 6        36.418               
E24  27851446.521 6 146361761.136 6      1931.724 6        40.869               
E26  28538077.059 6 149969993.804 6     -1239.420 6        37.438               
E31  26034942.937 6 136815963.706 6      -332.971 6        40.796               
E33  27267180.772 6 143291414.494 6      1513.079 6        40.550               
> 2025 01 03 15 39 52.0000000  0  6                                             
E05  27637694.034 6 145009774.543 6      1099.655 6        37.063               
E09  30254122.890 6 158544800.317 6      2832.648 6        36.421               
E24  27851076.328 6 146359829.039 6      1933.666 6        40.776               
E26  28538310.839 6 149971231.835 6     -1237.101 6        37.316               
E31  26035004.871 6 136816297.368 6      -331.557 6        40.545               
E33  27266891.901 6 143289902.888 6      1511.889 6        40.894               
> 2025 01 03 15 39 53.0000000  0  6                                             
E05  27637900.904 6 145008677.315 6      1092.811 6        36.946               
E09  30254656.798 6 158541966.736 6      2832.660 6        36.038               
E24  27850704.081 6 146357895.709 6      1934.912 6        40.877               
E26  28538541.099 6 149972468.867 6     -1236.728 6        37.387               
E31  26035065.000 6 136816629.829 6      -331.138 6        40.730               
