     3.02           OBSERVATION DATA    G                   RINEX VERSION / TYPE
G = GPS  R = GLONASS  E = GALILEO  S = GEO  M = MIXED       COMMENT             
GNSS-SDR            jmfriedt            20250104 071513 UTC PGM / RUN BY / DATE 
GPS OBSERVATION DATA FILE GENERATED BY GNSS-SDR             COMMENT             
GNSS-SDR VERSION 0.0.19                                     COMMENT             
See https://gnss-sdr.org                                    COMMENT             
DEFAULT MARKER NAME                                         MARKER NAME         
jmfriedt            CTTC                                    OBSERVER / AGENCY   
GNSS-SDR            Software Receiver   0.0.19              REC # / TYPE / VERS 
Antenna number      Antenna type                            ANT # / TYPE        
        0.0000        0.0000        0.0000                  APPROX POSITION XYZ 
        0.0000        0.0000        0.0000                  ANTENNA: DELTA H/E/N
G    4 C1C L1C D1C S1C                                      SYS / # / OBS TYPES 
DBHZ                                                        SIGNAL STRENGTH UNIT
  2025    01    03    15    38   36.4000000     GPS         TIME OF FIRST OBS   
                                                            END OF HEADER       
> 2025 01 03 15 38 37.0000000  0  4                                             
G18  26229703.583 6 137842379.655 6     -3585.981 6        39.380               
G25  23841602.548 7 125285668.001 7      2335.424 7        43.290               
G26  25016325.966 6 131461693.940 6      2886.775 6        40.149               
G28  23530982.462 7 123656141.653 7      -510.759 7        43.888               
> 2025 01 03 15 38 38.0000000  0  4                                             
G18  26229020.093 6 137845964.915 6     -3579.981 6        39.266               
G25  23842042.715 7 125283333.253 7      2333.241 7        43.132               
G26  25015777.548 6 131458807.223 6      2891.524 6        40.095               
G28  23531076.239 7 123656651.522 7      -512.370 7        43.841               
> 2025 01 03 15 38 39.0000000  0  4                                             
G18  26228333.619 6 137849549.526 6     -3583.055 6        39.499               
G25  23842485.671 7 125280997.718 7      2335.390 7        42.929               
G26  25015226.860 6 131455921.230 6      2884.281 6        40.283               
G28  23531173.375 7 123657162.521 7      -514.616 7        44.020               
> 2025 01 03 15 38 40.0000000  0  4                                             
G18  26227644.839 6 137853136.163 6     -3589.514 6        39.314               
G25  23842929.555 7 125278664.101 7      2331.256 7        43.030               
G26  25014683.267 6 131453033.182 6      2883.438 6        40.251               
G28  23531263.506 7 123657671.914 7      -510.318 7        43.841               
> 2025 01 03 15 38 41.0000000  0  4                                             
G18  26226962.136 6 137856721.922 6     -3586.086 6        39.959               
G25  23843371.331 7 125276329.454 7      2335.186 7        42.618               
G26  25014126.557 6 131450146.074 6      2888.931 6        40.208               
G28  23531358.570 7 123658182.670 7      -512.502 7        44.496               
> 2025 01 03 15 38 42.0000000  0  4                                             
G18  26226281.719 6 137860307.646 6     -3587.045 6        39.115               
G25  23843818.539 7 125273994.645 7      2334.712 7        43.436               
G26  25013574.083 6 131447259.001 6      2888.155 6        40.708               
G28  23531458.779 7 123658693.909 7      -511.331 7        44.319               
> 2025 01 03 15 38 43.0000000  0  4                                             
G18  26225601.374 6 137863893.210 6     -3586.931 6        39.992               
G25  23844252.685 7 125271659.553 7      2335.771 7        43.091               
G26  25013016.373 6 131444372.107 6      2881.556 6        40.255               
G28  23531544.318 7 123659205.762 7      -509.164 7        44.040               
> 2025 01 03 15 38 44.0000000  0  4                                             
G18  26224910.164 6 137867479.044 6     -3588.346 6        40.248               
G25  23844699.035 7 125269324.587 7      2331.621 7        43.471               
G26  25012464.166 6 131441485.001 6      2888.819 6        40.812               
G28  23531645.117 7 123659717.815 7      -509.926 7        44.239               
> 2025 01 03 15 38 45.0000000  0  4                                             
G18  26224227.639 6 137871066.287 6     -3592.636 6        39.943               
G25  23845137.183 7 125266990.909 7      2331.321 7        42.905               
G26  25011916.767 6 131438596.465 6      2888.957 6        41.085               
G28  23531737.357 7 123660228.922 7      -507.584 7        43.094               
> 2025 01 03 15 38 46.0000000  0  4                                             
G18  26223544.274 6 137874652.882 6     -3582.879 6        39.930               
G25  23845578.441 7 125264656.457 7      2334.625 7        43.277               
G26  25011363.363 6 131435708.615 6      2888.779 6        40.457               
G28  23531834.046 7 123660741.116 7      -517.300 7        43.070               
> 2025 01 03 15 38 47.0000000  0  4                                             
G18  26222859.712 6 137878238.429 6     -3589.958 6        39.744               
G25  23846024.094 7 125262320.816 7      2336.400 7        42.855               
G26  25010816.374 6 131432821.846 6      2892.053 6        40.977               
G28  23531929.431 7 123661254.838 7      -511.732 7        43.697               
> 2025 01 03 15 38 48.0000000  0  4                                             
G18  26222174.202 6 137881826.156 6     -3587.009 6        39.852               
G25  23846465.048 7 125259987.223 7      2334.396 7        43.153               
G26  25010261.041 6 131429932.918 6      2882.989 6        40.115               
G28  23532021.743 7 123661766.822 7      -513.725 7        44.097               
> 2025 01 03 15 38 49.0000000  0  4                                             
G18  26221486.406 6 137885411.784 6     -3584.741 6        39.940               
G25  23846906.824 7 125257651.377 7      2336.936 7        43.356               
G26  25009708.423 6 131427046.142 6      2886.386 6        40.378               
G28  23532121.809 7 123662281.402 7      -517.145 7        44.462               
> 2025 01 03 15 38 50.0000000  0  4                                             
G18  26220800.557 6 137888995.484 6     -3589.152 6        40.003               
G25  23847342.685 7 125255313.502 7      2334.338 7        42.614               
G26  25009153.465 6 131424161.287 6      2887.941 6        40.486               
G28  23532216.712 7 123662798.334 7      -514.135 7        44.655               
> 2025 01 03 15 38 51.0000000  0  4                                             
G18  26220119.265 6 137892581.020 6     -3583.467 6        40.373               
G25  23847790.376 7 125252977.328 7      2335.364 7        42.597               
G26  25008609.907 6 131421274.614 6      2884.999 6        40.243               
G28  23532310.792 7 123663313.889 7      -517.734 7        44.304               
> 2025 01 03 15 38 52.0000000  0  4                                             
G18  26219437.794 6 137896164.825 6     -3580.994 6        40.443               
G25  23848229.489 7 125250639.274 7      2335.884 7        43.034               
G26  25008049.052 6 131418389.688 6      2885.949 6        39.986               
G28  23532407.749 7 123663831.635 7      -516.865 7        43.890               
> 2025 01 03 15 38 53.0000000  0  4                                             
G18  26218749.783 6 137899749.464 6     -3581.519 6        40.468               
G25  23848679.985 7 125248301.933 7      2340.554 7        42.656               
G26  25007501.528 6 131415503.978 6      2886.139 6        40.302               
G28  23532504.188 7 123664349.008 7      -519.688 7        44.366               
> 2025 01 03 15 38 54.0000000  0  4                                             
G18  26218065.721 6 137903334.255 6     -3589.464 6        40.523               
G25  23849118.241 7 125245964.598 7      2337.295 7        42.463               
G26  25006950.215 6 131412618.135 6      2884.748 6        39.982               
G28  23532597.357 7 123664866.694 7      -511.759 7        44.317               
> 2025 01 03 15 38 55.0000000  0  4                                             
G18  26217374.458 6 137906919.820 6     -3585.038 6        40.728               
G25  23849554.656 7 125243627.931 7      2337.803 7        42.892               
G26  25006398.366 6 131409731.512 6      2888.729 6        40.189               
G28  23532695.584 7 123665384.053 7      -522.867 7        44.781               
> 2025 01 03 15 38 56.0000000  0  4                                             
G18  26216698.044 6 137910505.485 6     -3587.467 6        40.185               
G25  23849999.452 7 125241291.219 7      2336.894 7        42.862               
G26  25005845.212 6 131406844.830 6      2886.102 6        40.167               
G28  23532792.183 7 123665901.783 7      -517.520 7        44.331               
> 2025 01 03 15 38 57.0000000  0  4                                             
G18  26216005.923 6 137914090.726 6     -3585.471 6        39.474               
G25  23850444.480 7 125238953.950 7      2339.296 7        43.211               
G26  25005291.737 6 131403958.621 6      2883.954 6        39.982               
G28  23532884.102 7 123666420.410 7      -517.487 7        44.320               
> 2025 01 03 15 38 58.0000000  0  4                                             
G18  26215319.842 6 137917674.607 6     -3585.529 6        39.759               
G25  23850884.040 7 125236615.220 7      2339.964 7        43.079               
G26  25004745.106 6 131401073.748 6      2886.368 6        40.356               
G28  23532981.792 7 123666940.809 7      -517.551 7        44.371               
> 2025 01 03 15 38 59.0000000  0  4                                             
G18  26214640.461 6 137921259.841 6     -3587.755 6        40.333               
G25  23851333.714 7 125234277.695 7      2336.954 7        42.788               
G26  25004188.003 6 131398187.578 6      2879.103 6        39.883               
G28  23533079.857 7 123667460.345 7      -522.319 7        44.074               
> 2025 01 03 15 39 00.0000000  0  4                                             
G18  26213951.879 6 137924843.591 6     -3582.927 6        39.677               
G25  23851773.774 7 125231938.565 7      2338.573 7        42.734               
G26  25003637.387 6 131395302.914 6      2882.170 6        40.491               
G28  23533176.207 7 123667981.805 7      -521.674 7        43.556               
> 2025 01 03 15 39 01.0000000  0  4                                             
G18  26213269.175 6 137928427.626 6     -3585.276 6        40.489               
G25  23852213.888 7 125229599.582 7      2337.699 7        43.672               
G26  25003087.843 6 131392417.960 6      2884.321 6        40.043               
G28  23533270.698 7 123668503.442 7      -523.663 7        44.183               
> 2025 01 03 15 39 02.0000000  0  4                                             
G18  26212580.092 6 137932010.722 6     -3585.464 6        40.260               
G25  23852646.926 7 125227259.541 7      2335.608 7        43.237               
G26  25002533.296 6 131389533.991 6      2889.590 6        40.346               
G28  23533366.869 7 123669026.477 7      -525.255 7        44.240               
> 2025 01 03 15 39 03.0000000  0  4                                             
G18  26211895.565 6 137935594.841 6     -3580.593 6        40.414               
G25  23853089.113 7 125224920.372 7      2339.618 7        43.414               
G26  25001973.227 6 131386649.022 6      2881.560 6        40.094               
G28  23533460.878 7 123669548.951 7      -524.087 7        43.996               
> 2025 01 03 15 39 04.0000000  0  4                                             
G18  26211213.219 6 137939176.686 6     -3581.623 6        39.665               
G25  23853532.318 7 125222578.822 7      2339.770 7        42.917               
G26  25001426.560 6 131383766.335 6      2884.113 6        40.229               
G28  23533565.787 7 123670074.154 7      -523.844 7        43.873               
> 2025 01 03 15 39 05.0000000  0  4                                             
G18  26210525.708 6 137942759.484 6     -3580.941 6        39.815               
G25  23853989.140 7 125220238.083 7      2340.938 7        42.191               
G26  25000873.478 6 131380882.732 6      2884.775 6        40.064               
G28  23533664.460 7 123670598.852 7      -529.413 7        43.882               
> 2025 01 03 15 39 06.0000000  0  4                                             
G18  26209841.342 6 137946340.743 6     -3581.465 6        40.044               
G25  23854427.002 7 125217895.682 7      2344.064 7        42.993               
G26  25000325.542 6 131378000.691 6      2880.036 6        40.152               
G28  23533763.007 7 123671125.564 7      -532.478 7        43.795               
> 2025 01 03 15 39 07.0000000  0  4                                             
G18  26209160.604 6 137949921.191 6     -3578.516 6        39.743               
G25  23854871.155 7 125215552.336 7      2342.106 7        42.838               
G26  24999776.338 6 131375119.465 6      2884.618 6        40.505               
G28  23533855.069 7 123671653.535 7      -527.870 7        43.887               
> 2025 01 03 15 39 08.0000000  0  4                                             
G18  26208476.631 6 137953502.613 6     -3578.111 6        40.158               
G25  23855313.056 7 125213209.828 7      2343.033 7        43.172               
G26  24999227.169 6 131372237.312 6      2882.391 6        40.026               
G28  23533955.117 7 123672180.993 7      -528.521 7        44.360               
> 2025 01 03 15 39 09.0000000  0  4                                             
G18  26207791.801 6 137957082.560 6     -3582.683 6        39.691               
G25  23855756.744 7 125210865.735 7      2344.735 7        43.088               
G26  24998678.161 6 131369356.652 6      2878.303 6        40.463               
G28  23534054.273 7 123672710.370 7      -531.312 7        44.578               
> 2025 01 03 15 39 10.0000000  0  4                                             
G18  26207112.992 6 137960660.811 6     -3578.681 6        39.507               
G25  23856201.897 7 125208519.811 7      2343.612 7        43.207               
G26  24998121.273 6 131366477.723 6      2875.802 6        40.906               
G28  23534149.657 7 123673241.902 7      -531.537 7        44.331               
> 2025 01 03 15 39 11.0000000  0  4                                             
G18  26206427.036 6 137964241.937 6     -3582.554 6        38.580               
G25  23856643.994 7 125206176.633 7      2341.029 7        43.000               
G26  24997582.755 6 131363595.921 6      2881.379 6        40.356               
G28  23534251.010 7 123673771.017 7      -529.970 7        44.465               
> 2025 01 03 15 39 12.0000000  0  4                                             
G18  26205735.666 6 137967821.516 6     -3576.734 6        39.045               
G25  23857092.471 7 125203831.770 7      2346.730 7        43.121               
G26  24997018.361 6 131360715.683 6      2879.376 6        40.669               
G28  23534349.719 7 123674302.144 7      -531.363 7        44.795               
> 2025 01 03 15 39 13.0000000  0  4                                             
G18  26205054.052 6 137971398.594 6     -3574.266 6        39.572               
G25  23857532.782 7 125201484.304 7      2346.600 7        43.014               
G26  24996471.945 6 131357837.964 6      2873.363 6        40.527               
G28  23534450.697 7 123674836.218 7      -535.262 7        44.746               
> 2025 01 03 15 39 14.0000000  0  4                                             
G18  26204369.865 6 137974976.222 6     -3580.245 6        39.611               
G25  23857978.721 7 125199137.217 7      2343.744 7        43.177               
G26  24995921.704 6 131354959.755 6      2876.472 6        40.603               
G28  23534542.847 7 123675370.218 7      -532.358 7        44.920               
> 2025 01 03 15 39 15.0000000  0  4                                             
G18  26203689.806 6 137978554.628 6     -3577.939 6        39.837               
G25  23858421.515 7 125196790.830 7      2344.780 7        43.076               
G26  24995375.823 6 131352080.723 6      2878.812 6        40.284               
G28  23534649.865 7 123675903.856 7      -533.217 7        44.461               
> 2025 01 03 15 39 16.0000000  0  4                                             
G18  26203011.319 6 137982135.099 6     -3575.872 6        40.164               
G25  23858860.897 7 125194446.342 7      2346.448 7        43.326               
G26  24994830.085 6 131349199.713 6      2880.674 6        40.820               
G28  23534745.661 7 123676435.918 7      -532.088 7        44.611               
> 2025 01 03 15 39 17.0000000  0  4                                             
G18  26202322.325 6 137985716.514 6     -3579.851 6        39.714               
G25  23859305.818 7 125192102.683 7      2344.888 7        42.766               
G26  24994276.360 6 131346317.751 6      2882.732 6        40.231               
G28  23534844.173 7 123676967.493 7      -533.384 7        44.658               
> 2025 01 03 15 39 18.0000000  0  4                                             
G18  26201638.424 6 137989297.683 6     -3582.442 6        39.946               
G25  23859749.291 7 125189758.652 7      2344.205 7        42.382               
G26  24993733.267 6 131343436.062 6      2879.845 6        41.017               
G28  23534942.095 7 123677499.740 7      -532.752 7        44.335               
> 2025 01 03 15 39 19.0000000  0  4                                             
G18  26200960.259 6 137992878.778 6     -3578.961 6        39.584               
G25  23860184.705 7 125187414.427 7      2345.190 7        42.563               
G26  24993174.592 6 131340554.463 6      2881.154 6        40.920               
G28  23535042.465 7 123678032.542 7      -533.614 7        44.038               
> 2025 01 03 15 39 20.0000000  0  4                                             
G18  26200265.118 6 137996459.424 6     -3583.293 6        39.897               
G25  23860635.791 7 125185069.598 7      2346.499 7        42.802               
G26  24992625.494 6 131337673.334 6      2881.450 6        40.174               
G28  23535139.083 7 123678566.239 7      -532.613 7        44.099               
> 2025 01 03 15 39 21.0000000  0  4                                             
G18  26199586.060 6 138000041.734 6     -3583.353 6        40.723               
G25  23861084.161 7 125182726.301 7      2346.098 7        42.845               
G26  24992072.019 6 131334790.590 6      2881.092 6        40.758               
G28  23535238.506 7 123679098.739 7      -533.100 7        43.989               
> 2025 01 03 15 39 22.0000000  0  4                                             
G18  26198904.446 6 138003626.006 6     -3579.462 6        40.394               
G25  23861521.559 7 125180384.913 7      2343.402 7        42.753               
G26  24991528.855 6 131331905.862 6      2881.251 6        40.494               
G28  23535334.624 7 123679629.702 7      -532.002 7        43.981               
> 2025 01 03 15 39 23.0000000  0  4                                             
G18  26198210.967 6 138007209.036 6     -3581.346 6        40.194               
G25  23861962.995 7 125178042.095 7      2342.116 7        42.813               
G26  24990964.569 6 131329022.418 6      2883.200 6        40.158               
G28  23535430.866 7 123680162.391 7      -536.417 7        43.916               
> 2025 01 03 15 39 24.0000000  0  4                                             
G18  26197540.182 6 138010789.754 6     -3580.793 6        40.613               
G25  23862409.381 7 125175696.843 7      2347.371 7        43.088               
G26  24990418.563 6 131326141.327 6      2883.197 6        40.169               
G28  23535532.523 7 123680697.843 7      -535.811 7        43.804               
> 2025 01 03 15 39 25.0000000  0  4                                             
G18  26196851.617 6 138014370.083 6     -3580.643 6        39.964               
G25  23862857.107 7 125173351.075 7      2349.607 7        42.364               
G26  24989862.676 6 131323260.619 6      2881.600 6        40.537               
G28  23535630.517 7 123681234.122 7      -534.896 7        43.695               
> 2025 01 03 15 39 26.0000000  0  4                                             
G18  26196167.162 6 138017951.764 6     -3580.413 6        40.755               
G25  23863299.455 7 125171006.560 7      2346.594 7        42.587               
G26  24989307.628 6 131320378.593 6      2884.072 6        39.891               
G28  23535730.476 7 123681769.516 7      -535.976 7        44.087               
> 2025 01 03 15 39 27.0000000  0  4                                             
G18  26195479.276 6 138021533.925 6     -3578.462 6        40.286               
G25  23863739.783 7 125168662.373 7      2348.742 7        42.948               
G26  24988762.337 6 131317496.102 6      2883.431 6        39.742               
G28  23535831.329 7 123682304.887 7      -539.506 7        44.091               
> 2025 01 03 15 39 28.0000000  0  4                                             
G18  26194802.719 6 138025115.084 6     -3580.749 6        40.135               
G25  23864184.919 7 125166317.067 7      2349.915 7        42.794               
G26  24988209.505 6 131314614.661 6      2882.384 6        40.208               
G28  23535933.415 7 123682841.707 7      -536.007 7        43.607               
> 2025 01 03 15 39 29.0000000  0  4                                             
G18  26194113.939 6 138028697.134 6     -3583.229 6        40.771               
G25  23864630.518 7 125163972.532 7      2345.513 7        42.496               
G26  24987655.279 6 131311732.323 6      2888.083 6        40.251               
G28  23536035.447 7 123683378.097 7      -540.533 7        43.904               
> 2025 01 03 15 39 30.0000000  0  4                                             
G18  26193433.469 6 138032277.423 6     -3577.382 6        40.609               
G25  23865071.776 7 125161626.106 7      2344.648 7        43.070               
G26  24987101.161 6 131308851.774 6      2881.254 6        39.996               
G28  23536140.052 7 123683916.683 7      -538.764 7        43.920               
> 2025 01 03 15 39 31.0000000  0  4                                             
G18  26192750.890 6 138035858.857 6     -3582.806 6        40.158               
G25  23865515.285 7 125159280.703 7      2347.722 7        43.006               
G26  24986551.170 6 131305970.100 6      2877.816 6        40.162               
G28  23536230.702 7 123684454.588 7      -535.515 7        44.103               
> 2025 01 03 15 39 32.0000000  0  4                                             
G18  26192068.580 6 138039438.841 6     -3579.759 6        40.103               
G25  23865956.400 7 125156933.697 7      2347.484 7        42.845               
G26  24985995.551 6 131303089.908 6      2882.943 6        39.494               
G28  23536334.199 7 123684994.429 7      -544.818 7        43.538               
> 2025 01 03 15 39 33.0000000  0  4                                             
G18  26191379.336 6 138043017.310 6     -3579.991 6        40.345               
G25  23866402.822 7 125154585.087 7      2349.389 7        42.486               
G26  24985447.365 6 131300211.243 6      2876.045 6        39.892               
G28  23536434.551 7 123685536.204 7      -543.616 7        43.925               
> 2025 01 03 15 39 34.0000000  0  4                                             
G18  26190693.737 6 138046595.619 6     -3580.407 6        40.010               
G25  23866848.654 7 125152236.177 7      2349.379 7        42.685               
G26  24984895.445 6 131297332.774 6      2872.306 6        39.861               
G28  23536535.333 7 123686078.602 7      -544.788 7        44.340               
> 2025 01 03 15 39 35.0000000  0  4                                             
G18  26190021.629 6 138050173.797 6     -3579.262 6        39.764               
G25  23867289.751 7 125149887.023 7      2346.380 7        42.845               
G26  24984347.991 6 131294454.428 6      2878.353 6        39.796               
G28  23536634.524 7 123686621.597 7      -544.963 7        43.971               
> 2025 01 03 15 39 36.0000000  0  4                                             
G18  26189333.493 6 138053751.318 6     -3577.993 6        39.990               
G25  23867740.229 7 125147537.070 7      2352.277 7        43.459               
G26  24983801.521 6 131291576.778 6      2877.769 6        39.851               
G28  23536733.607 7 123687165.682 7      -542.325 7        43.954               
> 2025 01 03 15 39 37.0000000  0  4                                             
G18  26188648.324 6 138057328.527 6     -3578.201 6        39.985               
G25  23868185.382 7 125145186.682 7      2348.580 7        43.408               
G26  24983247.420 6 131288699.479 6      2878.382 6        39.710               
G28  23536836.801 7 123687710.552 7      -549.967 7        43.986               
> 2025 01 03 15 39 38.0000000  0  4                                             
G18  26187966.227 6 138060905.134 6     -3574.276 6        39.651               
G25  23868630.463 7 125142835.571 7      2348.511 7        43.412               
G26  24982707.097 6 131285822.788 6      2879.581 6        39.384               
G28  23536938.226 7 123688256.472 7      -544.402 7        44.125               
> 2025 01 03 15 39 39.0000000  0  4                                             
G18  26187279.181 6 138064481.507 6     -3578.256 6        39.702               
G25  23869076.349 7 125140484.104 7      2353.183 7        43.623               
G26  24982147.957 6 131282946.344 6      2877.295 6        39.431               
G28  23537040.669 7 123688803.068 7      -547.071 7        44.132               
> 2025 01 03 15 39 40.0000000  0  4                                             
G18  26186589.365 6 138068058.682 6     -3574.768 6        40.028               
G25  23869521.127 7 125138133.314 7      2349.188 7        42.726               
G26  24981596.430 6 131280069.127 6      2880.302 6        40.145               
G28  23537138.484 7 123689349.321 7      -547.264 7        44.018               
> 2025 01 03 15 39 41.0000000  0  4                                             
G18  26185916.650 6 138071634.924 6     -3576.489 6        39.837               
G25  23869968.692 7 125135781.460 7      2350.957 7        42.458               
G26  24981053.998 6 131277192.859 6      2877.492 6        39.907               
G28  23537243.679 7 123689896.959 7      -547.585 7        43.853               
> 2025 01 03 15 39 42.0000000  0  4                                             
G18  26185228.067 6 138075210.828 6     -3571.574 6        39.298               
G25  23870410.182 7 125133429.164 7      2349.786 7        42.707               
G26  24980508.313 6 131274316.946 6      2874.678 6        40.156               
G28  23537344.103 7 123690445.381 7      -549.843 7        43.814               
> 2025 01 03 15 39 43.0000000  0  4                                             
G18  26184544.542 6 138078785.458 6     -3574.530 6        40.199               
G25  23870855.604 7 125131075.442 7      2352.044 7        42.741               
G26  24979955.339 6 131271442.333 6      2872.101 6        40.116               
G28  23537442.865 7 123690995.533 7      -548.362 7        44.038               
> 2025 01 03 15 39 44.0000000  0  4                                             
G18  26183866.591 6 138082361.528 6     -3575.898 6        40.389               
G25  23871300.078 7 125128723.060 7      2353.372 7        42.110               
G26  24979400.380 6 131268566.299 6      2869.987 6        39.926               
G28  23537553.653 7 123691544.684 7      -547.597 7        43.663               
> 2025 01 03 15 39 45.0000000  0  4                                             
G18  26183183.333 6 138085935.723 6     -3577.757 6        40.573               
G25  23871744.051 7 125126368.670 7      2351.077 7        42.613               
G26  24978860.450 6 131265692.143 6      2878.022 6        40.212               
G28  23537650.002 7 123692096.189 7      -549.203 7        43.488               
> 2025 01 03 15 39 46.0000000  0  4                                             
G18  26182497.967 6 138089512.233 6     -3578.136 6        40.221               
G25  23872188.472 7 125124016.468 7      2354.162 7        42.296               
G26  24978311.639 6 131262815.717 6      2873.543 6        40.745               
G28  23537753.357 7 123692645.831 7      -547.827 7        43.355               
> 2025 01 03 15 39 47.0000000  0  4                                             
G18  26181815.263 6 138093088.622 6     -3575.775 6        39.919               
G25  23872637.252 7 125121664.021 7      2354.533 7        42.709               
G26  24977757.860 6 131259939.411 6      2876.218 6        40.432               
G28  23537856.175 7 123693196.021 7      -547.854 7        43.510               
> 2025 01 03 15 39 48.0000000  0  4                                             
G18  26181126.072 6 138096663.797 6     -3577.589 6        39.752               
G25  23873081.119 7 125119310.246 7      2355.927 7        42.600               
G26  24977214.534 6 131257064.363 6      2881.359 6        41.003               
G28  23537960.101 7 123693747.911 7      -551.806 7        43.487               
> 2025 01 03 15 39 49.0000000  0  4                                             
G18  26180448.050 6 138100239.557 6     -3578.065 6        39.536               
G25  23873525.432 7 125116956.921 7      2352.951 7        43.328               
G26  24976660.416 6 131254188.746 6      2873.681 6        40.448               
G28  23538059.686 7 123694299.641 7      -549.629 7        43.582               
> 2025 01 03 15 39 50.0000000  0  4                                             
G18  26179768.849 6 138103816.014 6     -3577.589 6        40.204               
G25  23873972.176 7 125114604.188 7      2351.162 7        42.727               
G26  24976112.230 6 131251312.439 6      2878.650 6        39.860               
G28  23538163.844 7 123694851.134 7      -551.878 7        43.182               
> 2025 01 03 15 39 51.0000000  0  4                                             
G18  26179079.051 6 138107392.400 6     -3574.116 6        40.318               
G25  23874422.743 7 125112251.240 7      2351.115 7        42.678               
G26  24975562.436 6 131248436.238 6      2876.714 6        40.006               
G28  23538260.748 7 123695403.144 7      -559.136 7        42.814               
> 2025 01 03 15 39 52.0000000  0  4                                             
G18  26178397.312 6 138110968.039 6     -3577.964 6        40.061               
G25  23874864.322 7 125109897.444 7      2350.928 7        43.039               
G26  24975011.105 6 131245560.790 6      2875.579 6        40.480               
G28  23538365.782 7 123695956.364 7      -552.935 7        42.275               
> 2025 01 03 15 39 53.0000000  0  4                                             
G18  26177713.339 6 138114544.935 6     -3574.045 6        39.736               
G25  23875304.740 7 125107544.760 7      2352.504 7        43.301               
G26  24974463.312 6 131242684.127 6      2878.780 6        40.364               
G28  23538466.152 7 123696508.776 7      -549.531 7        42.946               
> 2025 01 03 15 39 54.0000000  0  4                                             
G18  26177030.260 6 138118122.161 6     -3572.363 6        40.348               
G25  23875748.267 7 125105192.293 7      2353.416 7        43.295               
G26  24973908.318 6 131239807.139 6      2877.627 6        40.491               
G28  23538569.078 7 123697061.322 7      -556.916 7        42.554               
> 2025 01 03 15 39 55.0000000  0  4                                             
G18  26176343.947 6 138121698.587 6     -3571.055 6        40.449               
G25  23876198.102 7 125102838.892 7      2354.881 7        42.412               
G26  24973362.205 6 131236930.976 6      2876.914 6        40.595               
G28  23538673.862 7 123697615.093 7      -555.819 7        43.118               
> 2025 01 03 15 39 56.0000000  0  4                                             
G18  26175670.678 6 138125275.375 6     -3579.459 6        40.303               
G25  23876640.789 7 125100485.764 7      2350.697 7        42.980               
G26  24972814.734 6 131234054.448 6      2884.027 6        40.616               
G28  23538776.108 7 123698168.951 7      -550.830 7        43.013               
> 2025 01 03 15 39 57.0000000  0  4                                             
G18  26174980.522 6 138128851.997 6     -3576.607 6        40.651               
G25  23877086.049 7 125098132.332 7      2351.130 7        43.378               
G26  24972257.346 6 131231178.136 6      2873.287 6        40.116               
G28  23538878.087 7 123698723.450 7      -553.910 7        43.254               
> 2025 01 03 15 39 58.0000000  0  4                                             
G18  26174298.998 6 138132429.373 6     -3577.376 6        40.534               
G25  23877534.455 7 125095779.536 7      2350.455 7        43.312               
G26  24971710.375 6 131228301.072 6      2877.496 6        40.236               
G28  23538983.621 7 123699277.618 7      -551.259 7        42.889               
> 2025 01 03 15 39 59.0000000  0  4                                             
G18  26173616.794 6 138136007.920 6     -3580.429 6        40.041               
G25  23877978.142 7 125093427.781 7      2351.064 7        43.474               
G26  24971151.682 6 131225422.853 6      2882.811 6        40.080               
G28  23539086.404 7 123699831.073 7      -553.772 7        42.888               
> 2025 01 03 15 40 00.0000000  0  4                                             
G18  26172938.611 6 138139586.568 6     -3581.521 6        39.970               
G25  23878425.065 7 125091076.021 7      2351.064 7        43.465               
G26  24970600.530 6 131222544.569 6      2878.627 6        39.744               
G28  23539192.188 7 123700384.905 7      -555.537 7        42.657               
> 2025 01 03 15 40 01.0000000  0  4                                             
G18  26172260.964 6 138143164.938 6     -3575.831 6        40.331               
G25  23878866.769 7 125088723.841 7      2351.000 7        43.234               
G26  24970056.347 6 131219666.584 6      2880.746 6        40.143               
G28  23539293.166 7 123700939.436 7      -555.265 7        42.814               
> 2025 01 03 15 40 02.0000000  0  4                                             
G18  26171575.419 6 138146743.090 6     -3575.594 6        40.214               
G25  23879316.657 7 125086371.337 7      2351.346 7        42.725               
G26  24969504.444 6 131216788.814 6      2877.379 6        40.293               
G28  23539396.842 7 123701494.638 7      -553.362 7        42.942               
> 2025 01 03 15 40 03.0000000  0  4                                             
G18  26170882.030 6 138150322.106 6     -3574.298 6        40.463               
G25  23879754.323 7 125084019.577 7      2355.115 7        42.594               
G26  24968950.165 6 131213910.237 6      2878.323 6        40.239               
G28  23539497.927 7 123702049.441 7      -560.421 7        42.776               
> 2025 01 03 15 40 04.0000000  0  4                                             
G18  26170211.352 6 138153900.952 6     -3578.419 6        40.849               
G25  23880204.033 7 125081667.520 7      2353.543 7        42.431               
G26  24968410.127 6 131211031.835 6      2881.119 6        40.096               
G28  23539604.337 7 123702604.859 7      -553.174 7        43.467               
> 2025 01 03 15 40 05.0000000  0  4                                             
G18  26169524.091 6 138157479.848 6     -3579.777 6        40.031               
G25  23880646.845 7 125079315.379 7      2348.363 7        42.714               
G26  24967855.097 6 131208153.395 6      2879.216 6        40.706               
G28  23539704.672 7 123703160.685 7      -555.285 7        43.951               
> 2025 01 03 15 40 06.0000000  0  4                                             
G18  26168842.906 6 138161058.896 6     -3582.231 6        40.580               
G25  23881093.428 7 125076963.289 7      2351.030 7        42.698               
G26  24967309.056 6 131205274.825 6      2888.335 6        40.571               
G28  23539806.418 7 123703716.799 7      -554.820 7        43.497               
> 2025 01 03 15 40 07.0000000  0  4                                             
G18  26168161.203 6 138164638.286 6     -3579.237 6        40.066               
G25  23881538.170 7 125074611.404 7      2352.273 7        43.040               
G26  24966759.083 6 131202395.920 6      2882.534 6        39.776               
G28  23539907.307 7 123704273.011 7      -559.336 7        43.722               
> 2025 01 03 15 40 08.0000000  0  4                                             
G18  26167475.997 6 138168218.423 6     -3576.957 6        40.148               
G25  23881979.052 7 125072260.153 7      2352.950 7        42.563               
G26  24966209.146 6 131199516.317 6      2880.618 6        40.110               
G28  23540014.128 7 123704828.943 7      -557.601 7        43.617               
> 2025 01 03 15 40 09.0000000  0  4                                             
G18  26166783.376 6 138171796.805 6     -3576.440 6        40.399               
G25  23882428.691 7 125069907.036 7      2351.270 7        42.429               
G26  24965658.476 6 131196638.472 6      2873.716 6        39.969               
G28  23540116.088 7 123705387.087 7      -559.912 7        43.231               
> 2025 01 03 15 40 10.0000000  0  4                                             
G18  26166109.428 6 138175377.302 6     -3578.465 6        40.214               
G25  23882867.786 7 125067555.890 7      2354.950 7        42.948               
G26  24965102.750 6 131193758.525 6      2881.879 6        40.315               
G28  23540219.657 7 123705943.528 7      -552.581 7        43.138               
> 2025 01 03 15 40 11.0000000  0  4                                             
G18  26165415.931 6 138178957.103 6     -3581.373 6        40.488               
G25  23883318.175 7 125065203.947 7      2354.274 7        42.738               
G26  24964550.025 6 131190879.316 6      2878.959 6        39.759               
G28  23540320.028 7 123706501.159 7      -557.496 7        43.357               
> 2025 01 03 15 40 12.0000000  0  4                                             
G18  26164733.477 6 138182535.751 6     -3578.547 6        40.342               
G25  23883760.612 7 125062850.718 7      2353.233 7        42.476               
G26  24964005.556 6 131188001.257 6      2875.893 6        40.484               
G28  23540424.275 7 123707060.372 7      -561.850 7        43.495               
> 2025 01 03 15 40 13.0000000  0  4                                             
G18  26164050.345 6 138186114.549 6     -3582.049 6        39.616               
G25  23884207.981 7 125060497.550 7      2358.903 7        42.738               
G26  24963454.583 6 131185123.065 6      2873.293 6        39.872               
G28  23540526.969 7 123707619.867 7      -557.841 7        43.140               
> 2025 01 03 15 40 14.0000000  0  4                                             
G18  26163375.896 6 138189693.166 6     -3577.106 6        40.291               
G25  23884656.654 7 125058144.045 7      2356.995 7        42.967               
G26  24962902.430 6 131182245.088 6      2875.042 6        40.202               
G28  23540628.054 7 123708180.028 7      -559.435 7        43.258               
> 2025 01 03 15 40 15.0000000  0  4                                             
G18  26162679.112 6 138193271.901 6     -3580.744 6        39.926               
G25  23885099.395 7 125055790.567 7      2350.338 7        42.965               
G26  24962357.085 6 131179367.004 6      2871.174 6        40.521               
G28  23540740.682 7 123708740.485 7      -557.802 7        42.985               
> 2025 01 03 15 40 16.0000000  0  4                                             
G18  26162003.663 6 138196850.742 6     -3578.687 6        40.077               
G25  23885547.693 7 125053437.060 7      2354.031 7        42.481               
G26  24961804.557 6 131176488.844 6      2875.765 6        40.511               
G28  23540843.929 7 123709301.312 7      -560.735 7        42.935               
> 2025 01 03 15 40 17.0000000  0  4                                             
G18  26161319.618 6 138200428.282 6     -3581.390 6        39.592               
G25  23885987.771 7 125051082.157 7      2350.721 7        42.792               
G26  24961249.777 6 131173611.970 6      2875.704 6        39.870               
G28  23540945.908 7 123709863.859 7      -563.412 7        43.417               
> 2025 01 03 15 40 18.0000000  0  4                                             
G18  26160631.286 6 138204005.837 6     -3580.290 6        39.784               
G25  23886436.838 7 125048727.105 7      2355.293 7        43.188               
G26  24960701.466 6 131170735.144 6      2876.368 6        40.591               
G28  23541054.873 7 123710426.878 7      -562.044 7        43.248               
> 2025 01 03 15 40 19.0000000  0  4                                             
G18  26159950.530 6 138207583.714 6     -3579.260 6        39.502               
G25  23886884.224 7 125046372.283 7      2352.828 7        42.437               
G26  24960153.799 6 131167858.003 6      2878.096 6        40.911               
G28  23541157.316 7 123710990.016 7      -563.193 7        43.171               
> 2025 01 03 15 40 20.0000000  0  4                                             
G18  26159262.876 6 138211161.520 6     -3579.311 6        39.642               
G25  23887329.538 7 125044017.267 7      2359.705 7        43.109               
G26  24959603.201 6 131164980.950 6      2876.160 6        40.733               
G28  23541260.975 7 123711553.649 7      -559.456 7        43.030               
> 2025 01 03 15 40 21.0000000  0  4                                             
G18  26158580.923 6 138214739.496 6     -3577.208 6        39.902               
G25  23887776.764 7 125041662.305 7      2355.965 7        42.481               
G26  24959054.836 6 131162103.744 6      2874.007 6        41.101               
G28  23541367.956 7 123712117.589 7      -563.232 7        42.654               
> 2025 01 03 15 40 22.0000000  0  4                                             
G18  26157905.420 6 138218317.543 6     -3574.393 6        39.352               
G25  23888223.204 7 125039307.303 7      2354.439 7        42.268               
G26  24958501.414 6 131159226.476 6      2880.841 6        40.224               
G28  23541465.950 7 123712681.888 7      -563.714 7        43.091               
> 2025 01 03 15 40 23.0000000  0  4                                             
G18  26157215.086 6 138221894.906 6     -3574.825 6        39.653               
G25  23888664.890 7 125036951.472 7      2354.496 7        42.494               
G26  24957944.794 6 131156349.919 6      2878.700 6        40.150               
G28  23541575.380 7 123713247.313 7      -570.467 7        42.478               
> 2025 01 03 15 40 24.0000000  0  4                                             
G18  26156533.401 6 138225471.030 6     -3573.389 6        39.985               
G25  23889108.828 7 125034594.309 7      2358.515 7        42.748               
G26  24957400.701 6 131153474.619 6      2875.096 6        40.933               
G28  23541677.752 7 123713814.424 7      -567.179 7        42.719               
> 2025 01 03 15 40 25.0000000  0  4                                             
G18  26155843.942 6 138229046.455 6     -3571.276 6        40.058               
G25  23889551.498 7 125032236.322 7      2356.758 7        42.217               
G26  24956852.658 6 131150600.051 6      2870.569 6        40.938               
G28  23541782.017 7 123714382.708 7      -567.591 7        42.783               
> 2025 01 03 15 40 26.0000000  0  4                                             
G18  26155166.420 6 138232622.158 6     -3572.107 6        39.765               
G25  23890002.976 7 125029878.519 7      2357.531 7        42.562               
G26  24956300.058 6 131147725.188 6      2871.218 6        40.379               
G28  23541888.606 7 123714951.120 7      -568.648 7        42.762               
> 2025 01 03 15 40 27.0000000  0  4                                             
G18  26154493.509 6 138236197.484 6     -3574.157 6        39.424               
G25  23890446.378 7 125027520.174 7      2358.638 7        42.810               
G26  24955742.830 6 131144850.762 6      2872.192 6        40.464               
G28  23541998.840 7 123715520.393 7      -564.614 7        42.566               
> 2025 01 03 15 40 28.0000000  0  4                                             
G18  26153798.100 6 138239772.738 6     -3574.609 6        39.846               
G25  23890893.962 7 125025161.668 7      2358.483 7        42.837               
G26  24955196.878 6 131141976.391 6      2876.843 6        40.887               
G28  23542102.320 7 123716090.181 7      -574.453 7        42.632               
> 2025 01 03 15 40 29.0000000  0  4                                             
G18  26153116.843 6 138243347.299 6     -3572.034 6        39.705               
G25  23891342.599 7 125022802.361 7      2361.604 7        43.108               
G26  24954648.585 6 131139102.749 6      2868.829 6        40.386               
G28  23542211.571 7 123716661.080 7      -569.932 7        42.466               
> 2025 01 03 15 40 30.0000000  0  4                                             
G18  26152432.067 6 138246921.592 6     -3572.230 6        39.796               
G25  23891786.430 7 125020442.652 7      2362.694 7        42.715               
G26  24954102.383 6 131136229.394 6      2869.563 6        39.887               
G28  23542314.711 7 123717232.724 7      -571.067 7        42.716               
> 2025 01 03 15 40 31.0000000  0  4                                             
G18  26151737.337 6 138250495.152 6     -3570.987 6        40.151               
G25  23892229.903 7 125018082.098 7      2359.773 7        43.061               
G26  24953550.909 6 131133356.786 6      2874.412 6        40.570               
G28  23542423.962 7 123717805.537 7      -574.304 7        42.454               
> 2025 01 03 15 40 32.0000000  0  4                                             
G18  26151063.335 6 138254068.263 6     -3573.469 6        40.356               
G25  23892680.703 7 125015720.980 7      2363.595 7        43.105               
G26  24953002.115 6 131130484.639 6      2871.994 6        40.400               
G28  23542527.996 7 123718379.246 7      -574.075 7        42.067               
> 2025 01 03 15 40 33.0000000  0  4                                             
G18  26150386.171 6 138257640.853 6     -3571.878 6        39.920               
G25  23893127.840 7 125013359.222 7      2359.652 7        42.581               
G26  24952450.624 6 131127613.042 6      2868.033 6        40.063               
G28  23542639.891 7 123718953.936 7      -577.270 7        42.398               
> 2025 01 03 15 40 34.0000000  0  4                                             
G18  26149701.019 6 138261212.998 6     -3568.065 6        39.616               
G25  23893575.602 7 125010996.899 7      2361.206 7        42.949               
G26  24951907.495 6 131124741.895 6      2871.340 6        39.915               
G28  23542748.017 7 123719529.492 7      -580.977 7        42.911               
> 2025 01 03 15 40 35.0000000  0  4                                             
G18  26149020.781 6 138264784.184 6     -3569.950 6        40.134               
G25  23894021.041 7 125008633.486 7      2365.398 7        42.560               
G26  24951356.897 6 131121871.755 6      2867.697 6        40.601               
G28  23542854.212 7 123720106.489 7      -577.904 7        42.982               
> 2025 01 03 15 40 36.0000000  0  4                                             
G18  26148336.129 6 138268354.264 6     -3572.335 6        40.066               
G25  23894466.819 7 125006268.870 7      2370.502 7        42.116               
G26  24950810.855 6 131119002.711 6      2872.236 6        40.192               
G28  23542961.677 7 123720685.008 7      -576.491 7        43.002               
> 2025 01 03 15 40 37.0000000  0  4                                             
G18  26147660.698 6 138271923.911 6     -3571.490 6        40.141               
G25  23894914.992 7 125003903.711 7      2368.163 7        42.534               
G26  24950260.650 6 131116134.128 6      2874.445 6        40.044               
G28  23543067.390 7 123721264.414 7      -579.190 7        42.649               
> 2025 01 03 15 40 38.0000000  0  4                                             
G18  26146969.578 6 138275493.707 6     -3569.768 6        40.511               
G25  23895366.989 7 125001538.558 7      2366.109 7        42.914               
G26  24949710.784 6 131113265.416 6      2865.548 6        40.333               
G28  23543177.731 7 123721844.125 7      -578.411 7        42.572               
> 2025 01 03 15 40 39.0000000  0  4                                             
G18  26146298.060 6 138279063.536 6     -3572.608 6        39.880               
G25  23895812.678 7 124999173.369 7      2362.070 7        42.158               
G26  24949162.849 6 131110396.671 6      2871.265 6        40.712               
G28  23543283.444 7 123722424.232 7      -577.155 7        42.646               
> 2025 01 03 15 40 40.0000000  0  4                                             
G18  26145609.942 6 138282633.685 6     -3570.290 6        39.610               
G25  23896262.978 7 124996808.332 7      2367.163 7        42.311               
G26  24948616.879 6 131107527.654 6      2866.921 6        40.598               
G28  23543389.729 7 123723004.488 7      -579.513 7        42.438               
> 2025 01 03 15 40 41.0000000  0  4                                             
G18  26144929.436 6 138286205.807 6     -3571.020 6        39.989               
G25  23896709.382 7 124994445.192 7      2362.828 7        42.810               
G26  24948069.264 6 131104656.660 6      2874.158 6        40.585               
G28  23543498.962 7 123723583.197 7      -577.459 7        42.866               
> 2025 01 03 15 40 42.0000000  0  4                                             
G18  26144253.147 6 138289776.589 6     -3571.421 6        39.777               
G25  23897154.785 7 124992080.579 7      2363.189 7        42.632               
G26  24947520.185 6 131101787.038 6      2871.491 6        40.839               
G28  23543601.066 7 123724163.702 7      -577.977 7        42.763               
> 2025 01 03 15 40 43.0000000  0  4                                             
G18  26143568.942 6 138293347.997 6     -3574.059 6        40.064               
G25  23897603.333 7 124989716.467 7      2363.641 7        42.471               
G26  24946968.961 6 131098916.807 6      2872.275 6        40.628               
G28  23543711.318 7 123724744.035 7      -580.066 7        42.886               
> 2025 01 03 15 40 44.0000000  0  4                                             
G18  26142885.738 6 138296921.587 6     -3571.818 6        39.934               
G25  23898047.753 7 124987354.424 7      2362.417 7        42.335               
G26  24946420.508 6 131096044.397 6      2873.833 6        40.657               
G28  23543816.209 7 123725322.620 7      -579.445 7        42.800               
> 2025 01 03 15 40 45.0000000  0  4                                             
G18  26142202.730 6 138300494.767 6     -3573.252 6        40.148               
G25  23898490.262 7 124984991.892 7      2363.920 7        42.652               
G26  24945874.377 6 131093172.409 6      2870.775 6        40.703               
G28  23543921.136 7 123725902.041 7      -576.074 7        42.909               
> 2025 01 03 15 40 46.0000000  0  4                                             
G18  26141521.206 6 138304068.332 6     -3576.542 6        40.121               
G25  23898944.385 7 124982629.607 7      2358.345 7        42.606               
G26  24945319.490 6 131090300.079 6      2870.195 6        40.540               
G28  23544029.244 7 123726481.547 7      -575.706 7        42.661               
> 2025 01 03 15 40 47.0000000  0  4                                             
G18  26140841.682 6 138307641.495 6     -3572.143 6        40.019               
G25  23899384.964 7 124980266.784 7      2359.755 7        42.094               
G26  24944777.898 6 131087428.163 6      2871.001 6        41.136               
G28  23544143.409 7 123727061.905 7      -578.903 7        42.518               
> 2025 01 03 15 40 48.0000000  0  4                                             
G18  26140153.546 6 138311216.273 6     -3569.029 6        39.349               
G25  23899830.546 7 124977905.493 7      2361.307 7        42.688               
G26  24944225.763 6 131084554.637 6      2872.519 6        41.036               
G28  23544252.839 7 123727641.070 7      -582.087 7        42.844               
> 2025 01 03 15 40 49.0000000  0  4                                             
G18  26139474.702 6 138314788.637 6     -3575.295 6        39.642               
G25  23900279.005 7 124975541.625 7      2358.921 7        42.141               
G26  24943676.076 6 131081683.570 6      2877.166 6        40.631               
G28  23544356.461 7 123728223.144 7      -582.761 7        42.244               
> 2025 01 03 15 40 50.0000000  0  4                                             
G18  26138783.618 6 138318361.849 6     -3573.147 6        39.626               
G25  23900732.181 7 124973178.520 7      2362.214 7        42.701               
G26  24943126.925 6 131078811.656 6      2876.543 6        40.145               
G28  23544467.517 7 123728804.780 7      -582.129 7        42.225               
> 2025 01 03 15 40 51.0000000  0  4                                             
G18  26138105.113 6 138321934.532 6     -3575.138 6        38.999               
G25  23901177.852 7 124970814.774 7      2364.806 7        42.579               
G26  24942576.791 6 131075940.270 6      2871.524 6        40.394               
G28  23544580.396 7 123729387.383 7      -583.944 7        42.434               
> 2025 01 03 15 40 52.0000000  0  4                                             
G18  26137428.020 6 138325507.488 6     -3572.960 6        39.324               
G25  23901620.879 7 124968451.183 7      2363.640 7        42.416               
G26  24942026.175 6 131073068.647 6      2870.796 6        40.471               
G28  23544686.198 7 123729970.170 7      -582.321 7        42.566               
> 2025 01 03 15 40 53.0000000  0  4                                             
G18  26136740.384 6 138329080.484 6     -3574.135 6        39.633               
G25  23902069.606 7 124966087.543 7      2364.008 7        42.790               
G26  24941476.703 6 131070196.994 6      2870.382 6        40.142               
G28  23544797.361 7 123730553.342 7      -582.083 7        43.085               
> 2025 01 03 15 40 54.0000000  0  4                                             
G18  26136059.628 6 138332652.057 6     -3574.310 6        39.073               
G25  23902516.510 7 124963722.342 7      2364.971 7        42.564               
G26  24940928.785 6 131067326.781 6      2867.569 6        39.995               
G28  23544904.200 7 123731138.413 7      -585.323 7        42.503               
> 2025 01 03 15 40 55.0000000  0  4                                             
G18  26135371.510 6 138336223.685 6     -3576.187 6        39.317               
G25  23902963.182 7 124961357.057 7      2364.328 7        43.123               
G26  24940388.622 6 131064456.540 6      2872.872 6        40.702               
G28  23545007.662 7 123731723.862 7      -587.405 7        42.418               
> 2025 01 03 15 40 56.0000000  0  4                                             
G18  26134691.058 6 138339794.254 6     -3568.227 6        38.985               
G25  23903414.071 7 124958990.647 7      2368.559 7        42.992               
G26  24939829.947 6 131061587.366 6      2865.707 6        39.548               
G28  23545122.345 7 123732310.791 7      -587.787 7        42.170               
> 2025 01 03 15 40 57.0000000  0  4                                             
G18  26134011.195 6 138343363.531 6     -3569.151 6        39.832               
G25  23903864.907 7 124956622.830 7      2368.345 7        42.604               
G26  24939286.693 6 131058719.501 6      2866.791 6        39.674               
G28  23545229.756 7 123732899.475 7      -590.371 7        42.078               
> 2025 01 03 15 40 58.0000000  0  4                                             
G18  26133330.671 6 138346932.257 6     -3567.781 6        39.705               
G25  23904313.348 7 124954254.340 7      2366.727 7        43.068               
G26  24938735.130 6 131055852.219 6      2860.918 6        40.108               
G28  23545337.399 7 123733489.145 7      -592.860 7        42.512               
> 2025 01 03 15 40 59.0000000  0  4                                             
G18  26132644.500 6 138350499.938 6     -3563.832 6        39.666               
G25  23904764.362 7 124951884.670 7      2366.810 7        43.947               
G26  24938192.859 6 131052985.991 6      2870.202 6        40.220               
G28  23545444.988 7 123734080.323 7      -591.501 7        42.507               
> 2025 01 03 15 41 00.0000000  0  4                                             
G18  26131963.994 6 138354065.892 6     -3567.318 6        39.387               
G25  23905212.338 7 124949513.141 7      2370.678 7        43.469               
G26  24937645.352 6 131050121.528 6      2867.946 6        40.753               
G28  23545556.741 7 123734673.665 7      -590.431 7        42.536               
> 2025 01 03 15 41 01.0000000  0  4                                             
G18  26131294.156 6 138357631.231 6     -3564.651 6        38.900               
G25  23905661.315 7 124947140.954 7      2372.770 7        42.926               
G26  24937099.596 6 131047257.626 6      2870.375 6        40.145               
