     3.02           OBSERVATION DATA    G                   RINEX VERSION / TYPE
G = GPS  R = GLONASS  E = GALILEO  S = GEO  M = MIXED       COMMENT             
GNSS-SDR            jmfriedt            20250107 165353 UTC PGM / RUN BY / DATE 
GPS OBSERVATION DATA FILE GENERATED BY GNSS-SDR             COMMENT             
GNSS-SDR VERSION 0.0.19.git-main-87fcfd237                  COMMENT             
See https://gnss-sdr.org                                    COMMENT             
DEFAULT MARKER NAME                                         MARKER NAME         
jmfriedt            CTTC                                    OBSERVER / AGENCY   
GNSS-SDR            Software Receiver   0.0.19.gi           REC # / TYPE / VERS 
Antenna number      Antenna type                            ANT # / TYPE        
        0.0000        0.0000        0.0000                  APPROX POSITION XYZ 
        0.0000        0.0000        0.0000                  ANTENNA: DELTA H/E/N
G    4 C1C L1C D1C S1C                                      SYS / # / OBS TYPES 
DBHZ                                                        SIGNAL STRENGTH UNIT
  2025    01    07    14    18    6.1000000     GPS         TIME OF FIRST OBS   
                                                            END OF HEADER       
> 2025 01 07 14 18 07.0000000  0  4                                             
G25  20016456.647 7 105185565.563 7       897.854 7        44.534               
G28  21670847.683 7 113884147.133 7     -1720.345 7        42.535               
G31  23296458.317 6 122423745.073 6      2914.821 6        40.733               
G32  23391136.933 6 122921258.757 6     -2622.587 6        41.840               
> 2025 01 07 14 18 08.0000000  0  4                                             
G25  20016628.109 7 105184665.917 7       897.579 7        44.546               
G28  21670523.298 7 113885865.570 7     -1716.374 7        42.404               
G31  23295893.924 6 122420836.849 6      2908.263 6        39.884               
G32  23391637.498 6 122923885.975 6     -2627.415 6        41.496               
> 2025 01 07 14 18 09.0000000  0  4                                             
G25  20016804.396 7 105183765.963 7       898.683 7        44.208               
G28  21670194.302 7 113887583.653 7     -1716.675 7        42.024               
G31  23295355.879 6 122417928.790 6      2907.989 6        40.123               
G32  23392142.513 6 122926513.432 6     -2627.329 6        41.368               
> 2025 01 07 14 18 10.0000000  0  4                                             
G25  20016978.565 7 105182865.520 7       900.814 7        44.088               
G28  21669865.780 7 113889301.174 7     -1715.469 7        42.649               
G31  23294802.082 6 122415021.077 6      2907.899 6        40.551               
G32  23392643.873 6 122929141.370 6     -2628.936 6        41.029               
> 2025 01 07 14 18 11.0000000  0  4                                             
G25  20017148.115 7 105181964.477 7       902.630 7        44.536               
G28  21669548.069 7 113891018.043 7     -1717.254 7        42.625               
G31  23294263.188 6 122412113.828 6      2906.512 6        40.834               
G32  23393138.246 6 122931769.870 6     -2632.812 6        40.915               
> 2025 01 07 14 18 12.0000000  0  4                                             
G25  20017325.322 7 105181062.953 7       901.125 7        44.342               
G28  21669219.610 7 113892734.362 7     -1715.841 7        42.565               
G31  23293708.141 6 122409206.914 6      2904.036 6        40.752               
G32  23393653.642 6 122934398.809 6     -2630.716 6        40.958               
> 2025 01 07 14 18 13.0000000  0  4                                             
G25  20017495.936 7 105180160.970 7       901.020 7        44.260               
G28  21668898.664 7 113894450.151 7     -1714.255 7        42.344               
G31  23293155.237 6 122406300.317 6      2910.590 6        41.146               
G32  23394151.089 6 122937028.205 6     -2623.146 6        40.747               
> 2025 01 07 14 18 14.0000000  0  4                                             
G25  20017671.919 7 105179258.268 7       903.571 7        44.333               
G28  21668570.160 7 113896165.158 7     -1714.441 7        42.242               
G31  23292602.236 6 122403394.284 6      2906.276 6        41.139               
G32  23394645.972 6 122939658.269 6     -2628.991 6        41.104               
> 2025 01 07 14 18 15.0000000  0  4                                             
G25  20017843.997 7 105178354.955 7       903.518 7        44.302               
G28  21668242.451 7 113897879.493 7     -1717.046 7        42.330               
G31  23292052.915 6 122400488.736 6      2905.218 6        40.665               
G32  23395153.506 6 122942288.926 6     -2627.947 6        40.798               
> 2025 01 07 14 18 16.0000000  0  4                                             
G25  20018016.880 7 105177451.340 7       904.048 7        44.374               
G28  21667923.980 7 113899593.464 7     -1717.454 7        42.521               
G31  23291492.078 6 122397583.318 6      2902.624 6        40.606               
G32  23395652.409 6 122944919.814 6     -2629.015 6        41.190               
> 2025 01 07 14 18 17.0000000  0  4                                             
G25  20018190.960 7 105176547.200 7       904.958 7        44.090               
G28  21667600.399 7 113901306.848 7     -1715.074 7        42.140               
G31  23290948.529 6 122394678.329 6      2904.771 6        40.807               
G32  23396156.315 6 122947551.214 6     -2629.003 6        41.406               
> 2025 01 07 14 18 18.0000000  0  6                                             
G12  22321430.380 7 117298761.613 7      2915.983 7        42.973               
G25  20018366.273 7 105175642.718 7       905.065 7        43.882               
G28  21667268.446 6 113903019.819 6     -1712.104 6        41.760               
G29  20979791.837 7 110249567.120 7      1451.925 7        44.405               
G31  23290400.906 6 122391773.501 6      2906.270 6        41.443               
G32  23396656.746 6 122950182.944 6     -2630.513 6        41.210               
> 2025 01 07 14 18 19.0000000  0  6                                             
G12  22321992.655 7 117295844.558 7      2917.490 7        42.947               
G25  20018541.416 7 105174737.724 7       903.737 7        44.294               
G28  21666945.285 6 113904732.222 6     -1711.703 6        41.617               
G29  20979516.413 7 110248117.271 7      1447.832 7        44.558               
G31  23289845.671 6 122388869.024 6      2905.743 6        41.062               
G32  23397164.611 6 122952815.116 6     -2629.653 6        41.417               
> 2025 01 07 14 18 20.0000000  0  6                                             
G12  22322547.667 7 117292927.346 7      2919.643 7        43.091               
G25  20018710.189 7 105173832.377 7       907.803 7        44.323               
G28  21666624.473 6 113906444.219 6     -1713.588 6        41.837               
G29  20979244.116 7 110246667.854 7      1448.533 7        44.315               
G31  23289292.982 6 122385964.772 6      2905.308 6        40.495               
G32  23397665.747 6 122955447.626 6     -2630.146 6        41.429               
> 2025 01 07 14 18 21.0000000  0  6                                             
G12  22323108.343 7 117290009.987 7      2915.138 7        43.223               
G25  20018888.665 7 105172926.687 7       907.811 7        44.568               
G28  21666295.603 6 113908155.796 6     -1711.788 6        41.739               
G29  20978969.951 7 110245218.879 7      1449.214 7        44.713               
G31  23288741.919 6 122383060.733 6      2905.719 6        40.235               
G32  23398168.010 6 122958080.418 6     -2633.818 6        41.070               
> 2025 01 07 14 18 22.0000000  0  6                                             
G12  22323662.810 7 117287092.258 7      2919.803 7        42.909               
G25  20019059.171 7 105172020.425 7       906.482 7        44.384               
G28  21665977.981 7 113909866.737 7     -1711.454 7        42.118               
G29  20978689.953 7 110243770.555 7      1444.744 7        44.177               
G31  23288198.862 6 122380157.116 6      2901.796 6        40.794               
G32  23398675.177 6 122960713.777 6     -2631.764 6        41.588               
> 2025 01 07 14 18 23.0000000  0  6                                             
G12  22324221.262 7 117284174.127 7      2920.135 7        43.262               
G25  20019237.013 7 105171113.555 7       908.664 7        44.345               
G28  21665656.071 7 113911577.016 7     -1712.062 7        42.344               
G29  20978419.460 7 110242322.922 7      1446.190 7        44.799               
G31  23287637.167 6 122377253.949 6      2900.556 6        40.795               
G32  23399173.571 6 122963347.705 6     -2635.622 6        41.472               
> 2025 01 07 14 18 24.0000000  0  6                                             
G12  22324788.586 7 117281255.584 7      2917.625 7        43.587               
G25  20019412.433 7 105170206.061 7       907.925 7        44.365               
G28  21665332.525 6 113913286.602 6     -1710.977 6        41.754               
G29  20978146.207 7 110240875.999 7      1445.015 7        43.948               
G31  23287083.209 6 122374351.261 6      2905.248 6        40.038               
G32  23399672.233 6 122965982.216 6     -2634.905 6        41.014               
> 2025 01 07 14 18 25.0000000  0  6                                             
G12  22325339.014 7 117278337.030 7      2919.562 7        43.511               
G25  20019586.415 7 105169298.353 7       905.599 7        44.236               
G28  21665007.059 7 113914995.905 7     -1708.087 7        42.057               
G29  20977877.475 7 110239429.362 7      1447.225 7        44.825               
G31  23286533.558 6 122371448.641 6      2904.084 6        39.557               
G32  23400183.341 6 122968616.897 6     -2638.520 6        41.530               
> 2025 01 07 14 18 26.0000000  0  6                                             
G12  22325899.958 7 117275418.150 7      2920.756 7        43.392               
G25  20019762.014 7 105168390.112 7       910.833 7        44.560               
G28  21664684.094 7 113916704.611 7     -1709.707 7        42.584               
G29  20977601.774 7 110237983.372 7      1445.368 7        44.453               
G31  23285985.068 6 122368546.426 6      2900.203 6        40.417               
G32  23400686.372 6 122971252.093 6     -2635.658 6        41.371               
> 2025 01 07 14 18 27.0000000  0  6                                             
G12  22326451.441 7 117272498.851 7      2918.009 7        43.062               
G25  20019935.960 7 105167481.262 7       908.969 7        44.518               
G28  21664361.165 7 113918412.650 7     -1706.750 7        42.466               
G29  20977331.925 7 110236538.054 7      1446.773 7        44.264               
G31  23285443.047 6 122365644.697 6      2900.580 6        40.330               
G32  23401183.774 6 122973887.861 6     -2637.521 6        40.656               
> 2025 01 07 14 18 28.0000000  0  6                                             
G12  22327012.350 7 117269579.541 7      2919.579 7        43.526               
G25  20020113.605 7 105166572.193 7       909.696 7        44.457               
G28  21664033.983 7 113920120.397 7     -1711.220 7        42.303               
G29  20977055.053 7 110235093.051 7      1444.311 7        44.913               
G31  23284892.083 6 122362743.018 6      2904.601 6        40.757               
G32  23401693.175 6 122976523.830 6     -2637.479 6        41.213               
> 2025 01 07 14 18 29.0000000  0  6                                             
G12  22327565.753 7 117266660.036 7      2919.816 7        43.853               
G25  20020285.773 7 105165662.715 7       910.874 7        44.611               
G28  21663709.804 6 113921827.687 6     -1706.221 6        41.509               
G29  20976783.265 7 110233648.539 7      1443.373 7        44.156               
G31  23284340.582 6 122359841.611 6      2899.867 6        40.161               
G32  23402194.026 6 122979160.151 6     -2635.991 6        41.113               
> 2025 01 07 14 18 30.0000000  0  6                                             
G12  22328121.918 7 117263740.170 7      2918.099 7        44.391               
G25  20020461.068 7 105164752.673 7       910.204 7        44.230               
G28  21663393.307 6 113923534.329 6     -1708.263 6        41.710               
G29  20976512.862 7 110232204.683 7      1443.591 7        44.234               
G31  23283791.101 6 122356940.641 6      2902.448 6        40.572               
G32  23402701.872 6 122981797.015 6     -2635.746 6        40.858               
> 2025 01 07 14 18 31.0000000  0  6                                             
G12  22328683.452 7 117260820.212 7      2920.008 7        44.236               
G25  20020634.165 7 105163842.333 7       911.406 7        44.809               
G28  21663061.900 6 113925240.630 6     -1702.192 6        41.355               
G29  20976238.600 7 110230761.196 7      1444.363 7        44.606               
G31  23283243.800 6 122354039.784 6      2900.336 6        41.122               
G32  23403204.760 6 122984434.114 6     -2635.599 6        40.732               
> 2025 01 07 14 18 32.0000000  0  6                                             
G12  22329242.037 7 117257899.952 7      2921.249 7        44.181               
G25  20020808.424 7 105162931.504 7       910.782 7        44.573               
G28  21662739.810 6 113926946.353 6     -1704.072 6        41.902               
G29  20975966.044 7 110229318.313 7      1442.489 7        44.960               
G31  23282688.850 6 122351139.308 6      2901.803 6        41.138               
G32  23403708.408 6 122987071.704 6     -2635.370 6        41.155               
> 2025 01 07 14 18 33.0000000  0  6                                             
G12  22329794.807 7 117254979.284 7      2920.438 7        43.555               
G25  20020984.925 7 105162020.044 7       910.825 7        44.665               
G28  21662419.008 6 113928651.386 6     -1704.712 6        41.446               
G29  20975693.219 7 110227876.131 7      1441.206 7        44.755               
G31  23282142.961 6 122348239.314 6      2898.454 6        40.635               
G32  23404216.433 6 122989709.875 6     -2643.460 6        40.864               
> 2025 01 07 14 18 34.0000000  0  6                                             
G12  22330355.876 7 117252058.457 7      2922.402 7        44.064               
G25  20021160.041 7 105161108.232 7       912.641 7        44.916               
G28  21662092.898 6 113930356.008 6     -1702.314 6        41.349               
G29  20975418.090 7 110226434.391 7      1439.783 7        44.918               
G31  23281596.419 6 122345339.488 6      2898.630 6        41.152               
G32  23404722.430 6 122992348.372 6     -2642.336 6        40.751               
> 2025 01 07 14 18 35.0000000  0  6                                             
G12  22330914.515 7 117249137.849 7      2917.862 7        43.261               
G25  20021334.050 7 105160196.412 7       913.647 7        44.570               
G28  21661775.937 6 113932060.560 6     -1702.426 6        41.197               
G29  20975148.589 7 110224992.742 7      1441.806 7        44.923               
G31  23281044.757 6 122342439.560 6      2894.831 6        41.528               
G32  23405217.044 6 122994986.823 6     -2638.281 6        40.804               
> 2025 01 07 14 18 36.0000000  0  6                                             
G12  22331470.769 7 117246216.696 7      2922.918 7        43.932               
G25  20021509.810 7 105159283.867 7       913.328 7        44.894               
G28  21661454.920 6 113933764.304 6     -1703.235 6        41.687               
G29  20974874.881 7 110223551.917 7      1443.560 7        45.175               
G31  23280488.754 6 122339540.223 6      2899.399 6        41.176               
G32  23405716.627 6 122997625.976 6     -2637.893 6        40.509               
> 2025 01 07 14 18 37.0000000  0  6                                             
G12  22332030.909 7 117243295.460 7      2921.001 7        44.112               
G25  20021683.309 7 105158371.015 7       911.081 7        45.041               
G28  21661128.534 6 113935467.708 6     -1700.456 6        41.699               
G29  20974603.003 7 110222111.473 7      1439.693 7        45.003               
G31  23279935.448 6 122336641.029 6      2898.767 6        41.089               
G32  23406227.082 6 123000265.396 6     -2640.725 6        40.417               
> 2025 01 07 14 18 38.0000000  0  6                                             
G12  22332585.278 7 117240374.271 7      2924.231 7        43.938               
G25  20021859.926 7 105157458.004 7       914.412 7        44.624               
G28  21660808.526 6 113937170.875 6     -1700.635 6        41.571               
G29  20974328.214 7 110220671.279 7      1439.234 7        44.727               
G31  23279388.683 6 122333741.854 6      2899.621 6        40.565               
G32  23406730.122 6 123002904.936 6     -2645.027 6        40.602               
> 2025 01 07 14 18 39.0000000  0  6                                             
G12  22333146.839 7 117237451.837 7      2924.549 7        43.693               
G25  20022034.784 7 105156543.534 7       914.170 7        44.292               
G28  21660483.623 6 113938872.512 6     -1695.854 6        41.461               
G29  20974057.453 7 110219232.624 7      1438.515 7        44.879               
G31  23278834.752 6 122330844.005 6      2895.088 6        40.655               
G32  23407233.322 6 123005545.898 6     -2639.676 6        40.625               
> 2025 01 07 14 18 40.0000000  0  6                                             
G12  22333702.396 7 117234528.849 7      2924.595 7        44.002               
G25  20022215.011 7 105155628.316 7       914.350 7        44.626               
G28  21660170.299 6 113940573.336 6     -1699.595 6        41.775               
G29  20973786.184 7 110217794.805 7      1439.037 7        44.822               
G31  23278289.559 6 122327946.764 6      2894.774 6        41.138               
G32  23407740.436 6 123008187.572 6     -2641.026 6        40.552               
> 2025 01 07 14 18 41.0000000  0  6                                             
G12  22334257.676 7 117231607.168 7      2924.360 7        43.823               
G25  20022388.170 7 105154714.208 7       914.168 7        44.740               
G28  21659835.746 6 113942275.206 6     -1700.680 6        41.418               
G29  20973517.684 7 110216355.984 7      1438.801 7        45.238               
G31  23277737.407 6 122325048.250 6      2901.931 6        41.353               
G32  23408239.500 6 123010828.105 6     -2641.075 6        40.237               
> 2025 01 07 14 18 42.0000000  0  7                                             
G11  23198549.598 6 121908823.715 6       974.576 6        39.542               
G12  22334813.983 7 117228685.001 7      2919.831 7        44.071               
G25  20022568.111 7 105153799.398 7       914.650 7        44.769               
G28  21659513.317 6 113943976.318 6     -1696.486 6        41.260               
G29  20973245.512 7 110214917.926 7      1438.541 7        45.236               
G31  23277187.782 6 122322150.329 6      2897.490 6        40.616               
G32  23408741.584 6 123013469.307 6     -2643.872 6        39.596               
> 2025 01 07 14 18 43.0000000  0  7                                             
G11  23198733.596 6 121907846.711 6       979.233 6        39.266               
G12  22335377.224 7 117225762.417 7      2921.872 7        44.079               
G25  20022739.663 7 105152883.981 7       917.076 7        45.136               
G28  21659199.626 6 113945676.748 6     -1699.186 6        41.824               
G29  20972975.484 7 110213480.573 7      1438.956 7        44.904               
G31  23276640.624 6 122319252.818 6      2896.553 6        41.025               
G32  23409242.855 6 123016111.070 6     -2643.703 6        40.043               
> 2025 01 07 14 18 44.0000000  0  7                                             
G11  23198922.507 6 121906868.548 6       981.175 6        39.449               
G12  22335934.022 7 117222839.123 7      2922.847 7        44.030               
G25  20022917.147 7 105151967.617 7       916.588 7        44.748               
G28  21658873.124 6 113947376.167 6     -1696.001 6        41.180               
G29  20972697.621 7 110212044.241 7      1434.670 7        44.614               
G31  23276098.201 6 122316356.150 6      2896.099 6        41.041               
G32  23409751.327 6 123018753.734 6     -2644.456 6        39.564               
> 2025 01 07 14 18 45.0000000  0  7                                             
G11  23199104.717 6 121905889.836 6       977.584 6        39.301               
G12  22336490.142 7 117219915.676 7      2924.070 7        43.512               
G25  20023095.596 7 105151050.936 7       914.434 7        45.102               
G28  21658550.668 6 113949075.190 6     -1699.022 6        41.255               
G29  20972424.939 7 110210608.336 7      1434.657 7        44.883               
G31  23275540.097 6 122313459.662 6      2896.858 6        40.568               
G32  23410254.054 6 123021396.704 6     -2640.607 6        39.827               
> 2025 01 07 14 18 46.0000000  0  7                                             
G11  23199293.378 6 121904910.447 6       981.485 6        38.650               
G12  22337043.287 7 117216991.963 7      2923.991 7        43.951               
G25  20023275.358 7 105150133.739 7       916.679 7        45.244               
G28  21658228.722 6 113950773.656 6     -1695.449 6        41.519               
G29  20972153.982 7 110209173.002 7      1434.113 7        44.705               
G31  23274990.553 6 122310563.488 6      2893.704 6        40.525               
G32  23410764.081 6 123024040.152 6     -2642.009 6        39.491               
> 2025 01 07 14 18 47.0000000  0  7                                             
G11  23199483.201 6 121903930.296 6       979.732 6        38.968               
G12  22337605.267 7 117214067.913 7      2923.072 7        43.937               
G25  20023449.581 7 105149216.030 7       918.115 7        45.253               
G28  21657917.229 6 113952471.529 6     -1697.073 6        41.743               
G29  20971882.838 7 110207738.290 7      1436.782 7        44.682               
G31  23274439.535 6 122307667.713 6      2895.785 6        41.102               
G32  23411271.570 6 123026684.079 6     -2643.271 6        40.927               
> 2025 01 07 14 18 48.0000000  0  7                                             
G11  23199674.149 6 121902950.442 6       978.916 6        38.804               
G12  22338160.020 7 117211144.585 7      2923.300 7        44.314               
G25  20023624.081 7 105148298.833 7       917.368 7        44.960               
G28  21657590.190 7 113954169.843 7     -1696.636 7        42.042               
G29  20971611.863 7 110206303.153 7      1436.214 7        44.849               
G31  23273900.391 7 122304771.277 7      2899.787 7        42.015               
G32  23411770.741 6 123029327.437 6     -2641.428 6        40.179               
> 2025 01 07 14 18 49.0000000  0  7                                             
G11  23199861.721 6 121901968.964 6       986.542 6        39.565               
G12  22338723.234 7 117208220.079 7      2926.147 7        43.344               
G25  20023798.590 7 105147380.236 7       920.899 7        45.021               
G28  21657269.343 7 113955866.702 7     -1693.678 7        42.469               
G29  20971340.433 7 110204869.497 7      1433.012 7        44.784               
G31  23273349.248 6 122301876.091 6      2897.387 6        41.717               
G32  23412276.756 6 123031972.176 6     -2648.965 6        41.071               
> 2025 01 07 14 18 50.0000000  0  7                                             
G11  23200056.832 6 121900986.841 6       982.149 6        39.098               
G12  22339281.757 7 117205295.310 7      2920.986 7        43.737               
G25  20023976.146 7 105146461.185 7       917.385 7        44.700               
G28  21656951.382 7 113957563.038 7     -1698.849 7        42.003               
G29  20971066.545 7 110203436.382 7      1434.195 7        44.707               
G31  23272800.463 6 122298981.221 6      2895.150 6        40.570               
G32  23412786.175 6 123034617.321 6     -2641.889 6        40.955               
> 2025 01 07 14 18 51.0000000  0  7                                             
G11  23200242.036 6 121900004.842 6       980.944 6        39.255               
G12  22339837.734 7 117202371.110 7      2923.789 7        43.718               
G25  20024153.755 7 105145542.504 7       918.729 7        45.005               
G28  21656626.612 7 113959259.673 7     -1699.248 7        42.081               
G29  20970799.600 7 110202002.987 7      1433.692 7        45.009               
G31  23272249.401 6 122296085.867 6      2896.100 6        40.947               
G32  23413293.905 6 123037262.075 6     -2645.016 6        40.644               
> 2025 01 07 14 18 52.0000000  0  7                                             
G11  23200428.374 6 121899021.396 6       986.765 6        39.181               
G12  22340394.229 7 117199445.878 7      2926.874 7        43.975               
G25  20024331.078 7 105144622.585 7       920.270 7        44.253               
G28  21656310.920 6 113960954.978 6     -1694.031 6        41.916               
G29  20970525.793 7 110200570.937 7      1432.001 7        44.852               
G31  23271699.330 6 122293191.608 6      2895.680 6        41.245               
G32  23413799.554 6 123039908.024 6     -2643.711 6        40.413               
> 2025 01 07 14 18 53.0000000  0  7                                             
G11  23200613.453 6 121898037.101 6       987.243 6        38.606               
G12  22340954.941 7 117196520.169 7      2923.992 7        43.490               
G25  20024511.118 7 105143701.979 7       920.611 7        44.840               
G28  21655989.975 7 113962649.576 7     -1694.452 7        42.306               
G29  20970256.256 7 110199139.646 7      1431.544 7        45.025               
G31  23271149.303 6 122290297.876 6      2897.208 6        41.092               
G32  23414295.822 6 123042554.624 6     -2641.925 6        39.793               
> 2025 01 07 14 18 54.0000000  0  7                                             
G11  23200805.652 6 121897051.800 6       985.888 6        38.946               
G12  22341511.570 7 117193593.945 7      2927.556 7        43.631               
G25  20024685.358 7 105142780.653 7       921.646 7        44.555               
G28  21655668.189 7 113964343.369 7     -1694.966 7        42.189               
G29  20969988.569 7 110197709.161 7      1429.419 7        44.590               
G31  23270598.160 6 122287404.750 6      2893.356 6        41.222               
G32  23414807.108 6 123045201.910 6     -2644.783 6        40.931               
> 2025 01 07 14 18 55.0000000  0  7                                             
G11  23200995.457 6 121896065.379 6       986.439 6        39.228               
G12  22342073.836 7 117190666.982 7      2926.075 7        43.682               
G25  20024865.219 7 105141858.394 7       920.225 7        44.523               
G28  21655350.192 6 113966036.139 6     -1692.683 6        41.742               
G29  20969721.982 7 110196279.711 7      1428.871 7        45.153               
G31  23270047.571 6 122284512.387 6      2896.785 6        40.528               
G32  23415312.104 6 123047850.092 6     -2644.980 6        40.296               
> 2025 01 07 14 18 56.0000000  0  7                                             
G11  23201190.434 6 121895078.976 6       980.504 6        39.314               
G12  22342630.090 7 117187740.466 7      2927.183 7        43.847               
G25  20025042.167 7 105140936.360 7       922.840 7        45.307               
G28  21655032.284 7 113967729.106 7     -1696.419 7        42.312               
G29  20969448.514 7 110194850.096 7      1430.219 7        44.645               
G31  23269501.976 6 122281619.661 6      2891.175 6        41.068               
G32  23415820.880 6 123050498.001 6     -2649.826 6        40.767               
> 2025 01 07 14 18 57.0000000  0  7                                             
G11  23201369.786 6 121894092.045 6       988.097 6        39.696               
G12  22343192.437 7 117184813.823 7      2926.590 7        43.577               
G25  20025214.442 7 105140014.011 7       920.981 7        44.739               
G28  21654710.338 7 113969421.659 7     -1691.884 7        42.900               
G29  20969180.112 7 110193420.905 7      1429.097 7        44.918               
G31  23268958.909 6 122278727.125 6      2890.296 6        41.147               
G32  23416333.078 6 123053146.200 6     -2643.237 6        39.852               
> 2025 01 07 14 18 58.0000000  0  7                                             
G11  23201568.695 6 121893104.559 6       989.360 6        39.592               
G12  22343744.679 7 117181887.067 7      2931.173 7        43.557               
G25  20025391.649 7 105139091.322 7       922.722 7        45.094               
G28  21654389.562 7 113971113.818 7     -1692.184 7        42.151               
G29  20968908.869 7 110191992.144 7      1428.800 7        45.126               
G31  23268407.409 6 122275834.787 6      2894.569 6        41.115               
G32  23416824.101 6 123055794.693 6     -2650.167 6        40.344               
> 2025 01 07 14 18 59.0000000  0  7                                             
G11  23201753.916 6 121892116.222 6       987.176 6        39.267               
G12  22344308.081 7 117178959.875 7      2924.317 7        43.773               
G25  20025571.001 7 105138167.985 7       922.839 7        44.708               
G28  21654071.735 7 113972805.277 7     -1692.485 7        42.113               
G29  20968637.332 7 110190564.084 7      1428.506 7        45.238               
G31  23267858.133 6 122272942.935 6      2889.382 6        41.174               
G32  23417331.232 6 123058443.784 6     -2650.142 6        40.555               
> 2025 01 07 14 19 00.0000000  0  7                                             
G11  23201946.687 6 121891127.266 6       991.821 6        39.861               
G12  22344869.311 7 117176032.492 7      2930.974 7        43.785               
G25  20025751.299 7 105137244.276 7       923.840 7        44.556               
G28  21653755.998 7 113974496.284 7     -1692.663 7        42.691               
G29  20968371.396 7 110189136.527 7      1426.498 7        44.729               
G31  23267307.338 6 122270051.333 6      2889.157 6        41.347               
G32  23417832.816 6 123061093.234 6     -2651.235 6        40.911               
> 2025 01 07 14 19 01.0000000  0  7                                             
G11  23202131.721 6 121890137.648 6       994.671 6        40.005               
G12  22345429.085 7 117173104.859 7      2927.910 7        43.504               
G25  20025924.361 7 105136320.087 7       923.330 7        44.547               
G28  21653430.693 7 113976186.753 7     -1689.251 7        42.519               
G29  20968094.685 7 110187709.504 7      1425.358 7        44.772               
G31  23266758.732 6 122267160.069 6      2888.522 6        41.058               
G32  23418351.357 6 123063743.087 6     -2647.088 6        40.464               
> 2025 01 07 14 19 02.0000000  0  7                                             
G11  23202324.581 6 121889148.301 6       988.551 6        39.978               
G12  22345983.436 7 117170177.915 7      2926.083 7        43.364               
G25  20026103.935 7 105135396.392 7       923.751 7        44.279               
G28  21653109.854 7 113977877.620 7     -1689.601 7        42.200               
G29  20967824.595 7 110186282.098 7      1427.601 7        44.575               
G31  23266206.401 6 122264268.172 6      2891.568 6        40.895               
G32  23418850.966 6 123066392.474 6     -2650.714 6        39.889               
> 2025 01 07 14 19 03.0000000  0  7                                             
G11  23202514.851 6 121888158.481 6       987.316 6        40.039               
G12  22346538.242 7 117167250.941 7      2927.171 7        43.215               
G25  20026281.339 7 105134472.449 7       922.853 7        44.382               
G28  21652791.464 7 113979568.207 7     -1690.920 7        42.845               
G29  20967556.542 7 110184855.002 7      1424.573 7        44.437               
G31  23265662.110 6 122261376.370 6      2892.026 6        40.825               
G32  23419359.608 6 123069042.010 6     -2644.697 6        40.112               
> 2025 01 07 14 19 04.0000000  0  7                                             
G11  23202703.878 6 121887167.536 6       989.896 6        39.765               
G12  22347104.458 7 117164323.244 7      2930.835 7        44.039               
G25  20026458.734 7 105133547.612 7       925.445 7        44.537               
G28  21652471.814 7 113981257.787 7     -1690.468 7        42.771               
G29  20967287.479 7 110183428.919 7      1426.236 7        44.607               
G31  23265114.630 6 122258485.343 6      2892.944 6        40.996               
G32  23419865.855 6 123071692.451 6     -2648.967 6        40.528               
> 2025 01 07 14 19 05.0000000  0  7                                             
G11  23202901.197 6 121886175.337 6       994.031 6        40.116               
G12  22347659.318 7 117161394.725 7      2930.831 7        43.202               
G25  20026633.788 7 105132621.711 7       927.463 7        44.692               
G28  21652148.796 7 113982946.275 7     -1687.691 7        42.396               
G29  20967019.470 7 110182003.970 7      1424.976 7        44.847               
G31  23264571.251 6 122255595.239 6      2888.527 6        41.610               
G32  23420374.265 6 123074343.898 6     -2649.929 6        40.574               
> 2025 01 07 14 19 06.0000000  0  7                                             
G11  23203088.866 6 121885182.522 6       995.854 6        40.381               
G12  22348220.932 7 117158466.010 7      2929.231 7        43.540               
G25  20026812.540 7 105131695.413 7       926.939 7        44.412               
G28  21651830.709 7 113984634.281 7     -1687.205 7        42.544               
G29  20966746.807 7 110180579.503 7      1425.980 7        44.248               
G31  23264023.083 6 122252705.389 6      2888.198 6        41.441               
G32  23420883.228 6 123076995.696 6     -2651.351 6        40.713               
> 2025 01 07 14 19 07.0000000  0  7                                             
G11  23203281.485 6 121884188.822 6       994.843 6        40.278               
G12  22348779.214 7 117155536.837 7      2926.538 7        43.623               
G25  20026994.599 7 105130768.457 7       927.311 7        44.720               
G28  21651508.388 7 113986321.569 7     -1687.743 7        42.292               
G29  20966481.461 7 110179155.793 7      1424.488 7        44.544               
G31  23263467.982 6 122249816.042 6      2890.006 6        40.822               
G32  23421385.767 6 123079648.125 6     -2650.867 6        40.595               
> 2025 01 07 14 19 08.0000000  0  7                                             
G11  23203470.200 6 121883194.224 6       995.731 6        40.211               
G12  22349342.490 7 117152607.188 7      2930.807 7        43.458               
G25  20027174.040 7 105129840.818 7       928.451 7        44.726               
G28  21651191.213 7 113988008.098 7     -1687.302 7        42.438               
G29  20966209.030 7 110177732.844 7      1423.570 7        45.067               
G31  23262919.064 6 122246927.253 6      2888.667 6        40.474               
G32  23421898.001 6 123082301.202 6     -2655.816 6        40.377               
> 2025 01 07 14 19 09.0000000  0  7                                             
G11  23203666.134 6 121882198.896 6       996.854 6        40.722               
G12  22349898.011 7 117149677.200 7      2928.779 7        43.656               
G25  20027351.336 7 105128912.632 7       927.141 7        45.073               
G28  21650878.228 7 113989694.008 7     -1682.651 7        42.303               
G29  20965944.041 7 110176310.542 7      1424.054 7        45.129               
G31  23262381.224 6 122244038.887 6      2887.930 6        41.322               
G32  23422405.222 6 123084954.748 6     -2653.515 6        40.167               
> 2025 01 07 14 19 10.0000000  0  7                                             
G11  23203852.320 6 121881203.056 6       996.132 6        40.352               
G12  22350458.429 7 117146747.137 7      2929.746 7        43.064               
G25  20027530.169 7 105127984.165 7       929.097 7        44.751               
G28  21650557.461 6 113991379.596 6     -1685.346 6        41.995               
G29  20965674.460 7 110174888.597 7      1422.535 7        45.136               
G31  23261830.322 6 122241150.659 6      2884.490 6        41.644               
G32  23422911.219 6 123087608.577 6     -2650.534 6        40.767               
> 2025 01 07 14 19 11.0000000  0  7                                             
G11  23204054.785 6 121880206.725 6       997.863 6        40.321               
G12  22351017.345 7 117143816.984 7      2931.250 7        43.369               
G25  20027707.341 7 105127055.428 7       929.643 7        44.681               
G28  21650232.173 7 113993064.812 7     -1684.562 7        42.377               
G29  20965407.086 7 110173467.016 7      1419.989 7        45.133               
G31  23261279.920 6 122238262.565 6      2892.460 6        41.003               
G32  23423414.598 6 123090262.638 6     -2650.806 6        40.365               
> 2025 01 07 14 19 12.0000000  0  7                                             
G11  23204238.961 6 121879210.441 6       991.425 6        40.108               
G12  22351577.807 7 117140887.340 7      2931.699 7        43.057               
G25  20027888.077 7 105126126.969 7       928.787 7        44.604               
G28  21649916.401 7 113994750.254 7     -1685.860 7        42.213               
G29  20965139.703 7 110172045.245 7      1423.442 7        44.744               
G31  23260726.508 6 122235374.043 6      2886.081 6        41.037               
G32  23423923.160 6 123092916.380 6     -2652.839 6        40.296               
> 2025 01 07 14 19 13.0000000  0  7                                             
G11  23204427.890 6 121878212.618 6       997.253 6        40.467               
G12  22352138.537 7 117137956.556 7      2930.365 7        43.498               
G25  20028065.954 7 105125197.143 7       931.293 7        44.774               
G28  21649592.436 7 113996434.262 7     -1684.316 7        42.297               
G29  20964867.620 7 110170624.911 7      1419.440 7        44.770               
G31  23260179.975 6 122232486.750 6      2889.855 6        40.957               
G32  23424423.832 6 123095571.438 6     -2651.445 6        40.105               
> 2025 01 07 14 19 14.0000000  0  7                                             
G11  23204620.250 6 121877215.081 6      1000.761 6        40.707               
G12  22352694.326 7 117135026.483 7      2929.450 7        43.605               
G25  20028246.467 7 105124267.850 7       930.492 7        45.125               
G28  21649279.326 7 113998118.729 7     -1683.730 7        42.403               
G29  20964602.891 7 110169204.142 7      1421.058 7        44.904               
G31  23259636.989 6 122229598.799 6      2883.797 6        41.011               
G32  23424936.083 6 123098225.913 6     -2655.884 6        40.301               
> 2025 01 07 14 19 15.0000000  0  7                                             
G11  23204813.388 6 121876216.424 6      1000.437 6        40.332               
G12  22353252.653 7 117132095.713 7      2930.947 7        43.283               
G25  20028425.318 7 105123337.650 7       929.264 7        45.017               
G28  21648962.115 7 113999802.216 7     -1683.186 7        42.191               
G29  20964331.746 7 110167784.368 7      1418.404 7        44.894               
G31  23259091.974 6 122226711.615 6      2881.551 6        41.238               
G32  23425436.264 6 123100881.287 6     -2656.448 6        40.202               
> 2025 01 07 14 19 16.0000000  0  7                                             
G11  23205000.441 6 121875217.017 6       998.532 6        40.274               
G12  22353816.724 7 117129164.620 7      2931.003 7        43.224               
G25  20028601.060 7 105122406.907 7       932.002 7        45.018               
G28  21648639.686 7 114001485.097 7     -1683.467 7        42.702               
G29  20964061.611 7 110166365.223 7      1417.557 7        44.858               
G31  23258549.819 6 122223824.829 6      2891.342 6        41.539               
G32  23425939.670 6 123103537.117 6     -2656.862 6        40.349               
> 2025 01 07 14 19 17.0000000  0  7                                             
G11  23205187.833 6 121874217.142 6      1001.098 6        40.695               
G12  22354371.128 7 117126233.478 7      2932.874 7        43.170               
G25  20028783.762 7 105121475.925 7       933.048 7        44.803               
G28  21648320.197 6 114003167.681 6     -1683.317 6        41.839               
G29  20963797.284 7 110164946.412 7      1417.991 7        45.139               
G31  23257992.770 6 122220938.163 6      2884.969 6        41.860               
G32  23426456.683 6 123106193.187 6     -2656.551 6        40.204               
> 2025 01 07 14 19 18.0000000  0  7                                             
G11  23205383.347 6 121873216.546 6       999.362 6        40.124               
G12  22354930.152 7 117123302.051 7      2930.808 7        43.221               
G25  20028956.841 7 105120544.437 7       932.216 7        44.908               
G28  21648003.290 7 114004849.678 7     -1682.453 7        42.610               
G29  20963528.346 7 110163528.195 7      1417.462 7        44.890               
G31  23257449.597 6 122218051.834 6      2884.908 6        41.913               
G32  23426953.264 6 123108849.721 6     -2651.714 6        40.152               
> 2025 01 07 14 19 19.0000000  0  7                                             
G11  23205575.841 6 121872214.530 6      1002.649 6        40.547               
G12  22355496.126 7 117120369.593 7      2929.943 7        43.298               
G25  20029138.953 7 105119611.708 7       932.790 7        45.221               
G28  21647687.133 7 114006530.377 7     -1679.509 7        42.631               
G29  20963262.991 7 110162111.281 7      1415.569 7        45.076               
G31  23256896.434 6 122215166.604 6      2882.838 6        41.587               
G32  23427471.340 6 123111507.443 6     -2658.793 6        40.045               
> 2025 01 07 14 19 20.0000000  0  7                                             
G11  23205775.009 6 121871211.779 6      1002.822 6        40.271               
G12  22356056.383 7 117117436.813 7      2933.539 7        43.887               
G25  20029315.633 7 105118678.477 7       933.093 7        45.325               
G28  21647370.262 7 114008210.482 7     -1679.612 7        42.736               
G29  20962992.927 7 110160694.996 7      1417.208 7        45.411               
G31  23256354.369 6 122212281.763 6      2885.771 6        41.403               
G32  23427985.021 6 123114165.628 6     -2659.052 6        40.420               
> 2025 01 07 14 19 21.0000000  0  7                                             
G11  23205968.361 6 121870208.443 6      1003.096 6        40.554               
G12  22356617.238 7 117114503.907 7      2931.004 7        43.582               
G25  20029496.646 7 105117744.906 7       934.551 7        45.145               
G28  21647048.092 6 114009890.192 6     -1678.023 6        41.990               
G29  20962726.268 7 110159279.130 7      1416.468 7        44.991               
G31  23255809.212 6 122209397.126 6      2885.433 6        41.169               
G32  23428489.088 6 123116824.127 6     -2658.778 6        40.294               
> 2025 01 07 14 19 22.0000000  0  7                                             
G11  23206163.839 6 121869204.680 6      1007.123 6        40.429               
G12  22357168.515 7 117111570.960 7      2928.729 7        43.433               
G25  20029680.474 7 105116811.086 7       934.064 7        45.038               
G28  21646731.641 6 114011569.598 6     -1680.595 6        41.265               
G29  20962454.266 7 110157863.594 7      1414.896 7        45.146               
G31  23255260.204 6 122206512.572 6      2886.484 6        41.321               
G32  23428991.118 6 123119482.832 6     -2656.445 6        40.173               
> 2025 01 07 14 19 23.0000000  0  7                                             
G11  23206354.037 6 121868201.011 6      1008.112 6        40.675               
G12  22357732.488 7 117108638.533 7      2933.426 7        43.410               
G25  20029852.758 7 105115877.588 7       932.876 7        45.430               
G28  21646414.617 6 114013249.229 6     -1682.905 6        41.788               
G29  20962192.761 7 110156447.832 7      1413.644 7        45.406               
G31  23254718.290 6 122203627.604 6      2885.430 6        41.535               
G32  23429502.700 6 123122141.168 6     -2656.503 6        40.101               
> 2025 01 07 14 19 24.0000000  0  7                                             
G11  23206546.701 6 121867196.325 6      1005.739 6        40.150               
G12  22358282.845 7 117105705.498 7      2933.376 7        43.130               
G25  20030042.617 7 105114943.291 7       935.515 7        45.222               
G28  21646097.532 6 114014927.984 6     -1677.027 6        41.893               
G29  20961923.100 7 110155032.968 7      1415.121 7        44.923               
G31  23254165.994 6 122200743.284 6      2884.780 6        40.731               
G32  23430010.725 6 123124800.293 6     -2657.921 6        40.500               
> 2025 01 07 14 19 25.0000000  0  7                                             
G11  23206745.038 6 121866191.404 6      1008.407 6        40.703               
G12  22358852.295 7 117102772.648 7      2935.243 7        43.577               
G25  20030214.454 7 105114008.945 7       936.064 7        45.357               
G28  21645780.348 6 114016606.658 6     -1679.278 6        41.820               
G29  20961654.332 7 110153618.207 7      1411.910 7        44.819               
G31  23253610.875 6 122197858.859 6      2883.873 6        41.373               
G32  23430517.008 6 123127459.390 6     -2658.649 6        40.596               
> 2025 01 07 14 19 26.0000000  0  7                                             
G11  23206934.065 6 121865185.072 6      1005.556 6        40.962               
G12  22359408.066 7 117099838.825 7      2933.732 7        43.344               
G25  20030399.023 7 105113073.425 7       935.315 7        44.929               
G28  21645462.377 7 114018284.065 7     -1675.885 7        42.289               
G29  20961389.111 7 110152204.731 7      1413.833 7        44.665               
G31  23253075.591 6 122194975.467 6      2886.426 6        41.123               
G32  23431026.141 6 123130119.626 6     -2661.385 6        40.303               
> 2025 01 07 14 19 27.0000000  0  7                                             
G11  23207122.271 6 121864179.097 6      1006.782 6        40.467               
G12  22359971.441 7 117096905.779 7      2932.249 7        43.126               
G25  20030575.417 7 105112138.496 7       935.255 7        44.737               
G28  21645148.159 7 114019962.000 7     -1676.622 7        42.255               
G29  20961120.960 7 110150790.752 7      1414.109 7        45.044               
G31  23252525.430 6 122192091.374 6      2884.365 6        41.403               
G32  23431537.704 6 123132779.248 6     -2657.411 6        40.554               
> 2025 01 07 14 19 28.0000000  0  7                                             
G11  23207313.818 6 121863172.085 6      1008.489 6        40.710               
G12  22360531.545 7 117093972.103 7      2936.655 7        43.583               
G25  20030752.499 7 105111202.711 7       935.120 7        45.040               
G28  21644831.717 7 114021639.008 7     -1676.076 7        42.665               
G29  20960851.772 7 110149377.718 7      1412.558 7        45.230               
G31  23251978.316 6 122189207.965 6      2887.091 6        41.573               
G32  23432048.017 6 123135439.671 6     -2661.496 6        40.248               
> 2025 01 07 14 19 29.0000000  0  7                                             
G11  23207511.190 6 121862164.029 6      1004.849 6        40.160               
G12  22361093.187 7 117091037.822 7      2933.956 7        43.772               
G25  20030937.122 7 105110266.104 7       935.327 7        45.243               
G28  21644511.817 7 114023315.140 7     -1678.053 7        43.108               
G29  20960587.292 7 110147965.582 7      1412.994 7        45.567               
G31  23251431.176 6 122186325.252 6      2883.229 6        41.693               
G32  23432550.404 6 123138100.859 6     -2664.846 6        40.560               
> 2025 01 07 14 19 30.0000000  0  7                                             
G11  23207704.721 6 121861155.460 6      1007.728 6        40.458               
G12  22361659.027 7 117088103.436 7      2932.991 7        43.689               
G25  20031120.816 7 105109329.201 7       936.959 7        45.389               
G28  21644191.050 7 114024990.881 7     -1675.357 7        42.885               
G29  20960320.946 7 110146553.852 7      1410.866 7        45.205               
G31  23250883.803 6 122183442.711 6      2882.799 6        41.377               
G32  23433054.311 6 123140762.344 6     -2663.394 6        40.666               
> 2025 01 07 14 19 31.0000000  0  7                                             
G11  23207903.942 6 121860145.502 6      1009.337 6        40.918               
G12  22362216.335 7 117085168.111 7      2936.935 7        43.708               
G25  20031299.175 7 105108391.131 7       939.189 7        45.503               
G28  21643871.534 7 114026665.406 7     -1676.588 7        42.706               
G29  20960055.412 7 110145143.352 7      1408.364 7        45.056               
G31  23250337.136 6 122180561.188 6      2883.583 6        41.443               
G32  23433558.852 6 123143424.916 6     -2663.566 6        40.744               
> 2025 01 07 14 19 32.0000000  0  7                                             
G11  23208098.983 6 121859134.754 6      1009.245 6        40.753               
G12  22362771.553 7 117082232.415 7      2936.015 7        43.385               
G25  20031480.814 7 105107452.495 7       935.973 7        44.689               
G28  21643563.731 7 114028339.282 7     -1673.859 7        42.114               
G29  20959788.449 7 110143733.510 7      1407.364 7        44.273               
G31  23249789.495 6 122177680.086 6      2881.514 6        41.062               
G32  23434068.146 6 123146088.023 6     -2660.631 6        40.161               
> 2025 01 07 14 19 33.0000000  0  7                                             
G11  23208289.127 6 121858124.194 6      1008.494 6        40.335               
G12  22363334.320 7 117079297.297 7      2936.990 7        43.533               
G25  20031659.200 7 105106514.226 7       938.008 7        45.149               
G28  21643245.752 7 114030013.471 7     -1672.582 7        42.276               
G29  20959521.977 7 110142323.391 7      1407.871 7        44.923               
G31  23249241.023 6 122174798.474 6      2882.093 6        40.548               
G32  23434578.583 6 123148750.737 6     -2660.848 6        40.294               
> 2025 01 07 14 19 34.0000000  0  7                                             
G11  23208478.253 6 121857112.923 6      1013.116 6        40.792               
G12  22363895.407 7 117076361.900 7      2933.420 7        43.703               
G25  20031836.568 7 105105575.492 7       938.329 7        45.450               
G28  21642923.412 6 114031687.095 6     -1674.290 6        41.902               
G29  20959256.005 7 110140913.849 7      1410.745 7        45.510               
G31  23248700.217 6 122171917.208 6      2885.631 6        41.023               
G32  23435085.215 6 123151413.883 6     -2663.335 6        40.017               
> 2025 01 07 14 19 35.0000000  0  7                                             
G11  23208686.168 6 121856101.243 6      1009.612 6        40.735               
G12  22364451.428 7 117073426.524 7      2938.232 7        43.377               
G25  20032019.199 7 105104636.556 7       940.762 7        45.592               
G28  21642608.256 7 114033360.461 7     -1672.701 7        42.036               
G29  20958987.211 7 110139504.586 7      1408.734 7        44.872               
G31  23248154.971 6 122169036.010 6      2881.289 6        41.262               
G32  23435600.790 6 123154077.192 6     -2666.189 6        39.937               
> 2025 01 07 14 19 36.0000000  0  7                                             
G11  23208877.545 6 121855088.878 6      1012.206 6        41.092               
G12  22365021.468 7 117070490.876 7      2935.235 7        43.674               
G25  20032197.942 7 105103697.154 7       938.805 7        45.734               
G28  21642301.061 7 114035033.280 7     -1670.869 7        42.659               
G29  20958719.274 7 110138095.883 7      1406.140 7        44.440               
G31  23247606.785 6 122166155.132 6      2879.757 6        41.630               
G32  23436109.565 6 123156740.900 6     -2660.218 6        40.938               
> 2025 01 07 14 19 37.0000000  0  7                                             
G11  23209071.442 6 121854075.113 6      1012.999 6        41.295               
G12  22365575.265 7 117067554.271 7      2936.590 7        43.904               
G25  20032375.703 7 105102756.574 7       940.760 7        45.521               
G28  21641978.588 7 114036704.863 7     -1672.285 7        42.316               
G29  20958452.730 7 110136688.440 7      1406.819 7        45.220               
G31  23247054.132 6 122163275.289 6      2879.800 6        41.345               
G32  23436617.287 6 123159405.760 6     -2665.674 6        41.003               
> 2025 01 07 14 19 38.0000000  0  7                                             
G11  23209268.787 6 121853060.771 6      1012.962 6        41.305               
G12  22366131.831 7 117064617.468 7      2936.132 7        43.587               
G25  20032560.121 7 105101815.594 7       941.203 7        44.926               
G28  21641656.588 7 114038375.984 7     -1672.661 7        42.806               
G29  20958188.903 7 110135281.483 7      1407.522 7        44.554               
G31  23246512.745 6 122160395.723 6      2880.232 6        41.328               
G32  23437121.979 6 123162070.968 6     -2660.090 6        40.829               
> 2025 01 07 14 19 39.0000000  0  7                                             
G11  23209465.445 6 121852045.922 6      1014.252 6        40.748               
G12  22366699.557 7 117061680.586 7      2938.333 7        43.475               
G25  20032740.267 7 105100874.335 7       941.514 7        45.175               
G28  21641345.739 7 114040046.733 7     -1670.311 7        42.338               
G29  20957922.619 7 110133874.913 7      1405.775 7        45.133               
G31  23245967.061 6 122157516.289 6      2875.611 6        40.283               
G32  23437630.469 6 123164736.431 6     -2664.720 6        40.017               
> 2025 01 07 14 19 40.0000000  0  7                                             
G11  23209656.590 6 121851030.137 6      1017.582 6        41.528               
G12  22367262.333 7 117058743.204 7      2939.256 7        43.661               
G25  20032924.122 7 105099932.365 7       941.583 7        45.056               
G28  21641029.501 7 114041716.715 7     -1668.020 7        42.550               
G29  20957655.557 7 110132469.113 7      1406.841 7        44.871               
G31  23245422.458 6 122154637.427 6      2876.980 6        40.397               
G32  23438144.883 6 123167402.554 6     -2666.043 6        40.773               
> 2025 01 07 14 19 41.0000000  0  7                                             
G11  23209852.238 6 121850012.991 6      1019.873 6        41.231               
G12  22367820.704 7 117055804.880 7      2942.226 7        44.126               
G25  20033103.786 7 105098989.255 7       943.770 7        45.214               
G28  21640709.985 7 114043385.483 7     -1668.627 7        42.871               
G29  20957388.961 7 110131064.565 7      1404.472 7        44.286               
G31  23244877.194 6 122151759.586 6      2878.188 6        40.550               
G32  23438657.348 6 123170069.775 6     -2668.264 6        40.394               
> 2025 01 07 14 19 42.0000000  0  7                                             
G11  23210046.099 6 121848995.413 6      1019.977 6        41.366               
G12  22368386.750 7 117052866.541 7      2939.150 7        43.705               
G25  20033285.657 7 105098045.907 7       944.068 7        45.421               
G28  21640398.394 7 114045053.947 7     -1667.128 7        42.833               
G29  20957119.898 7 110129660.329 7      1404.286 7        44.485               
G31  23244329.285 6 122148881.832 6      2880.257 6        40.985               
G32  23439162.533 6 123172737.191 6     -2666.802 6        40.331               
> 2025 01 07 14 19 43.0000000  0  7                                             
G11  23210247.099 6 121847977.301 6      1019.989 6        40.747               
G12  22368946.721 7 117049928.105 7      2938.379 7        44.268               
G25  20033468.734 7 105097102.260 7       941.760 7        45.432               
G28  21640082.104 7 114046722.023 7     -1664.680 7        42.954               
G29  20956858.349 7 110128256.498 7      1403.869 7        44.321               
G31  23243779.607 6 122146004.269 6      2880.426 6        40.489               
G32  23439673.497 6 123175404.858 6     -2669.524 6        40.615               
> 2025 01 07 14 19 44.0000000  0  7                                             
G11  23210436.010 6 121846958.888 6      1021.999 6        40.531               
G12  22369506.396 7 117046989.776 7      2939.254 7        43.999               
G25  20033647.996 7 105096158.507 7       943.879 7        45.569               
G28  21639765.295 7 114048389.947 7     -1670.579 7        42.656               
