     3.02           OBSERVATION DATA    G                   RINEX VERSION / TYPE
G = GPS  R = GLONASS  E = GALILEO  S = GEO  M = MIXED       COMMENT             
GNSS-SDR            jmfriedt            20250107 165641 UTC PGM / RUN BY / DATE 
GPS OBSERVATION DATA FILE GENERATED BY GNSS-SDR             COMMENT             
GNSS-SDR VERSION 0.0.19.git-main-87fcfd237                  COMMENT             
See https://gnss-sdr.org                                    COMMENT             
DEFAULT MARKER NAME                                         MARKER NAME         
jmfriedt            CTTC                                    OBSERVER / AGENCY   
GNSS-SDR            Software Receiver   0.0.19.gi           REC # / TYPE / VERS 
Antenna number      Antenna type                            ANT # / TYPE        
        0.0000        0.0000        0.0000                  APPROX POSITION XYZ 
        0.0000        0.0000        0.0000                  ANTENNA: DELTA H/E/N
G    4 C1C L1C D1C S1C                                      SYS / # / OBS TYPES 
DBHZ                                                        SIGNAL STRENGTH UNIT
  2025    01    07    14    17   48.1000000     GPS         TIME OF FIRST OBS   
                                                            END OF HEADER       
> 2025 01 07 14 17 49.0000000  0  5                                             
G25  20013357.845 7 105169284.212 7       890.206 7        44.021               
G28  21676719.623 7 113911926.462 7      1727.215 7        42.634               
G29  20987788.672 7 110294214.527 7     -1467.016 7        45.186               
G31  23306405.967 6 122481254.055 6     -2911.392 6        39.923               
G32  23382123.110 6 122869172.310 6      2615.453 6        41.261               
> 2025 01 07 14 17 50.0000000  0  5                                             
G25  20013530.701 7 105168394.605 7       890.976 7        44.337               
G28  21676388.965 7 113910197.060 7      1725.001 7        42.784               
G29  20987509.584 7 110295682.485 7     -1469.115 7        44.762               
G31  23305843.584 6 122484169.898 6     -2917.199 6        39.986               
G32  23382619.539 6 122866554.813 6      2618.693 6        41.587               
> 2025 01 07 14 17 51.0000000  0  5                                             
G25  20013703.888 7 105167504.695 7       889.917 7        44.186               
G28  21676064.937 7 113908468.056 7      1727.634 7        42.662               
G29  20987236.063 7 110297150.046 7     -1468.160 7        44.517               
G31  23305296.032 6 122487085.577 6     -2918.335 6        40.084               
G32  23383120.890 6 122863937.031 6      2619.591 6        41.590               
> 2025 01 07 14 17 52.0000000  0  5                                             
G25  20013874.037 7 105166614.066 7       891.188 7        44.682               
G28  21675733.932 7 113906739.807 7      1727.244 7        42.814               
G29  20986956.216 7 110298616.809 7     -1465.508 7        45.306               
G31  23304746.256 6 122490000.709 6     -2913.348 6        40.738               
G32  23383619.936 6 122861318.568 6      2621.795 6        41.529               
> 2025 01 07 14 17 53.0000000  0  5                                             
G25  20014044.328 7 105165722.381 7       892.490 7        44.228               
G28  21675406.741 7 113905012.716 7      1724.505 7        42.866               
G29  20986682.034 7 110300082.419 7     -1464.942 7        45.503               
G31  23304186.250 6 122492914.903 6     -2913.142 6        40.133               
G32  23384121.341 6 122858699.065 6      2619.321 6        41.459               
> 2025 01 07 14 17 54.0000000  0  5                                             
G25  20014213.593 7 105164829.653 7       894.181 7        43.851               
G28  21675087.457 7 113903286.693 7      1724.981 7        43.052               
G29  20986405.958 7 110301546.903 7     -1462.642 7        45.137               
G31  23303631.971 6 122495828.208 6     -2910.939 6        40.379               
G32  23384622.281 7 122856078.560 7      2621.691 7        42.174               
> 2025 01 07 14 17 55.0000000  0  5                                             
G25  20014389.067 7 105163935.561 7       893.318 7        43.837               
G28  21674758.069 7 113901562.115 7      1723.477 7        42.780               
G29  20986127.844 7 110303009.933 7     -1462.216 7        44.967               
G31  23303091.611 6 122498740.315 6     -2911.669 6        39.665               
G32  23385120.228 6 122853456.714 6      2618.877 6        41.443               
> 2025 01 07 14 17 56.0000000  0  5                                             
G25  20014560.207 7 105163042.587 7       892.399 7        43.860               
G28  21674425.937 7 113899836.473 7      1725.761 7        42.303               
G29  20985850.169 7 110304474.008 7     -1463.589 7        44.720               
G31  23302530.569 6 122501653.682 6     -2914.560 6        40.294               
G32  23385625.609 6 122850836.021 6      2619.476 6        41.595               
> 2025 01 07 14 17 57.0000000  0  5                                             
G25  20014734.350 7 105162148.853 7       895.717 7        43.783               
G28  21674100.828 7 113898111.659 7      1725.769 7        42.577               
G29  20985574.834 7 110305937.229 7     -1463.799 7        45.052               
G31  23301980.256 6 122504566.402 6     -2912.334 6        40.629               
G32  23386129.774 6 122848214.609 6      2622.022 6        41.154               
> 2025 01 07 14 17 58.0000000  0  5                                             
G25  20014900.621 7 105161255.017 7       895.063 7        44.117               
G28  21673782.438 7 113896387.020 7      1723.981 7        42.861               
G29  20985299.168 7 110307400.243 7     -1461.871 7        44.708               
G31  23301426.504 6 122507479.171 6     -2908.625 6        40.348               
G32  23386629.678 6 122845593.110 6      2617.921 6        41.287               
> 2025 01 07 14 17 59.0000000  0  5                                             
G25  20015074.388 7 105160360.539 7       895.093 7        44.471               
G28  21673450.637 7 113894663.062 7      1723.346 7        42.575               
G29  20985020.903 7 110308862.566 7     -1461.370 7        44.998               
G31  23300877.273 6 122510391.463 6     -2911.108 6        40.466               
G32  23387128.831 6 122842971.009 6      2623.469 6        40.932               
> 2025 01 07 14 18 00.0000000  0  5                                             
G25  20015249.478 7 105159465.324 7       895.949 7        44.503               
G28  21673118.747 7 113892939.886 7      1723.395 7        42.447               
G29  20984747.614 7 110310324.054 7     -1460.352 7        44.774               
G31  23300322.583 6 122513303.182 6     -2909.871 6        40.786               
G32  23387634.408 6 122840348.208 6      2622.127 6        41.278               
> 2025 01 07 14 18 01.0000000  0  5                                             
G25  20015417.563 7 105158569.459 7       894.193 7        44.106               
G28  21672802.224 7 113891217.459 7      1723.246 7        42.275               
G29  20984470.108 7 110311784.794 7     -1459.824 7        44.619               
G31  23299771.207 6 122516214.366 6     -2910.855 6        40.302               
G32  23388136.340 6 122837724.787 6      2623.869 6        41.363               
> 2025 01 07 14 18 02.0000000  0  5                                             
G25  20015595.431 7 105157672.928 7       896.674 7        44.287               
G28  21672471.522 7 113889495.754 7      1723.729 7        42.052               
G29  20984193.183 7 110313244.784 7     -1459.469 7        45.045               
G31  23299215.793 6 122519125.038 6     -2910.337 6        40.814               
G32  23388635.637 6 122835100.711 6      2618.641 6        41.549               
> 2025 01 07 14 18 03.0000000  0  5                                             
G25  20015763.775 7 105156775.866 7       895.424 7        44.242               
G28  21672144.429 7 113887774.650 7      1720.573 7        42.753               
G29  20983912.103 7 110314704.162 7     -1460.589 7        44.735               
G31  23298672.647 6 122522035.323 6     -2913.038 6        40.462               
G32  23389126.945 6 122832476.161 6      2620.190 6        41.170               
> 2025 01 07 14 18 04.0000000  0  5                                             
G25  20015939.803 7 105155878.252 7       900.025 7        44.396               
G28  21671823.350 7 113886054.135 7      1717.524 7        42.224               
G29  20983638.260 7 110316162.920 7     -1459.227 7        44.749               
G31  23298116.482 6 122524945.223 6     -2908.262 6        40.713               
G32  23389639.259 6 122829851.084 6      2624.950 6        41.490               
> 2025 01 07 14 18 05.0000000  0  5                                             
G25  20016110.184 7 105154980.481 7       897.097 7        43.853               
G28  21671497.847 7 113884333.857 7      1719.929 7        42.862               
G29  20983365.141 7 110317621.408 7     -1459.283 7        44.612               
G31  23297566.456 6 122527855.091 6     -2913.654 6        40.276               
G32  23390135.973 6 122827225.871 6      2625.903 6        41.259               
> 2025 01 07 14 18 06.0000000  0  5                                             
G25  20016283.799 7 105154082.621 7       896.097 7        44.758               
G28  21671169.567 7 113882613.728 7      1719.498 7        42.595               
G29  20983086.000 7 110319079.737 7     -1459.345 7        45.307               
G31  23297010.774 6 122530765.036 6     -2908.476 6        40.611               
G32  23390638.674 6 122824600.625 6      2626.156 6        41.646               
> 2025 01 07 14 18 07.0000000  0  5                                             
G25  20016456.084 7 105153183.727 7       898.568 7        44.834               
G28  21670845.896 7 113880894.687 7      1721.288 7        42.872               
G29  20982815.705 7 110320536.935 7     -1456.040 7        44.807               
G31  23296460.783 6 122533674.062 6     -2910.508 6        40.233               
G32  23391133.869 6 122821974.374 6      2623.788 6        41.385               
> 2025 01 07 14 18 08.0000000  0  5                                             
G25  20016627.564 7 105152284.075 7       900.804 7        43.851               
G28  21670519.536 7 113879176.466 7      1716.883 7        42.377               
G29  20982539.128 7 110321993.292 7     -1455.772 7        44.701               
G31  23295902.242 6 122536582.504 6     -2907.246 6        40.148               
G32  23391637.025 6 122819347.392 6      2629.344 6        40.675               
> 2025 01 07 14 18 09.0000000  0  5                                             
G25  20016803.797 7 105151384.128 7       899.558 7        44.053               
G28  21670192.283 7 113877458.607 7      1715.182 7        42.087               
G29  20982263.337 7 110323449.282 7     -1458.045 7        44.867               
G31  23295360.319 6 122539490.779 6     -2910.912 6        40.348               
G32  23392141.387 6 122816720.162 6      2627.915 6        41.370               
> 2025 01 07 14 18 10.0000000  0  5                                             
G25  20016973.856 7 105150483.685 7       901.306 7        44.405               
G28  21669866.316 7 113875741.307 7      1715.638 7        42.820               
G29  20981988.717 7 110324904.676 7     -1454.294 7        44.716               
G31  23294799.134 6 122542398.736 6     -2909.222 6        40.633               
G32  23392638.074 6 122814092.441 6      2629.840 6        40.953               
> 2025 01 07 14 18 11.0000000  0  5                                             
G25  20017149.455 7 105149582.625 7       898.835 7        44.775               
G28  21669543.834 7 113874024.668 7      1718.223 7        42.812               
G29  20981714.517 7 110326359.376 7     -1454.573 7        44.523               
G31  23294252.333 6 122545306.188 6     -2903.970 6        40.511               
G32  23393130.750 6 122811464.138 6      2631.803 6        40.967               
> 2025 01 07 14 18 12.0000000  0  5                                             
G25  20017325.027 7 105148681.110 7       902.595 7        44.604               
G28  21669216.295 7 113872308.572 7      1714.211 7        42.114               
G29  20981438.485 7 110327813.523 7     -1454.077 7        44.174               
G31  23293705.299 6 122548213.324 6     -2907.147 6        40.723               
G32  23393648.666 6 122808835.434 6      2628.968 6        41.431               
> 2025 01 07 14 18 13.0000000  0  5                                             
G25  20017494.247 7 105147779.129 7       905.018 7        44.638               
G28  21668894.161 6 113870593.008 6      1714.939 6        41.733               
G29  20981166.707 7 110329267.115 7     -1452.048 7        45.016               
G31  23293151.253 6 122551120.161 6     -2905.835 6        40.754               
G32  23394149.588 6 122806206.256 6      2626.348 6        40.641               
> 2025 01 07 14 18 14.0000000  0  5                                             
G25  20017666.942 7 105146876.425 7       900.719 7        44.582               
G28  21668569.588 7 113868878.222 7      1713.533 7        42.383               
G29  20980884.001 7 110330719.923 7     -1452.650 7        45.047               
G31  23292599.948 6 122554026.408 6     -2906.739 6        40.527               
G32  23394642.809 6 122803576.425 6      2630.925 6        40.877               
> 2025 01 07 14 18 15.0000000  0  5                                             
G25  20017839.512 7 105145973.115 7       903.087 7        44.384               
G28  21668240.905 7 113867164.104 7      1716.335 7        42.234               
G29  20980615.992 7 110332172.009 7     -1451.218 7        45.148               
G31  23292048.984 6 122556932.188 6     -2904.272 6        41.111               
G32  23395152.800 6 122800946.007 6      2630.005 6        40.678               
> 2025 01 07 14 18 16.0000000  0  5                                             
G25  20018011.484 7 105145069.503 7       906.559 7        44.364               
G28  21667919.102 7 113865450.356 7      1717.500 7        42.058               
G29  20980340.854 7 110333623.704 7     -1450.622 7        44.922               
G31  23291499.243 6 122559837.810 6     -2904.250 6        40.743               
G32  23395647.423 6 122798315.322 6      2628.878 6        40.973               
> 2025 01 07 14 18 17.0000000  0  5                                             
G25  20018190.272 7 105144165.357 7       905.573 7        44.498               
G28  21667593.913 7 113863737.197 7      1714.221 7        42.052               
G29  20980070.781 7 110335074.799 7     -1449.901 7        44.663               
G31  23290945.965 6 122562743.057 6     -2899.147 6        40.465               
G32  23396155.663 6 122795684.133 6      2631.381 6        41.249               
> 2025 01 07 14 18 18.0000000  0  5                                             
G25  20018364.906 7 105143260.873 7       902.981 7        44.655               
G28  21667268.339 6 113862024.456 6      1711.897 6        41.705               
G29  20979793.338 7 110336525.461 7     -1450.409 7        44.150               
G31  23290397.243 6 122565648.083 6     -2904.043 6        40.983               
G32  23396656.853 6 122793052.643 6      2631.112 6        41.239               
> 2025 01 07 14 18 19.0000000  0  5                                             
G25  20018536.860 7 105142355.878 7       905.746 7        44.186               
G28  21666944.981 6 113860312.269 6      1710.259 6        41.173               
G29  20979515.269 7 110337975.537 7     -1451.060 7        44.648               
G31  23289849.397 6 122568552.762 6     -2906.982 6        41.172               
G32  23397160.188 6 122790420.680 6      2630.148 6        41.429               
> 2025 01 07 14 18 20.0000000  0  5                                             
G25  20018711.476 7 105141450.540 7       903.645 7        44.451               
G28  21666622.231 6 113858600.497 6      1710.270 6        41.706               
G29  20979242.168 7 110339425.167 7     -1449.572 7        44.457               
G31  23289289.140 6 122571457.255 6     -2901.877 6        40.643               
G32  23397658.716 6 122787788.417 6      2629.847 6        41.397               
> 2025 01 07 14 18 21.0000000  0  5                                             
G25  20018887.933 7 105140544.854 7       903.992 7        44.607               
G28  21666293.879 7 113856889.138 7      1713.589 7        42.091               
G29  20978968.450 7 110340874.376 7     -1449.952 7        44.530               
G31  23288742.062 6 122574361.515 6     -2908.716 6        40.685               
G32  23398173.612 6 122785155.827 6      2631.135 6        40.881               
> 2025 01 07 14 18 22.0000000  0  5                                             
G25  20019060.181 7 105139638.580 7       906.406 7        44.354               
G28  21665974.273 6 113855178.423 6      1710.106 6        41.919               
G29  20978690.033 7 110342322.916 7     -1448.670 7        44.263               
G31  23288192.840 6 122577265.365 6     -2903.151 6        40.858               
G32  23398670.433 6 122782522.689 6      2636.173 6        41.465               
> 2025 01 07 14 18 23.0000000  0  5                                             
G25  20019236.700 7 105138731.722 7       907.471 7        44.656               
G28  21665649.799 7 113853468.361 7      1711.077 7        42.067               
G29  20978418.245 7 110343770.784 7     -1448.242 7        44.280               
G31  23287641.295 6 122580168.756 6     -2903.414 6        40.555               
G32  23399170.248 6 122779889.007 6      2628.514 6        41.060               
> 2025 01 07 14 18 24.0000000  0  5                                             
G25  20019408.654 7 105137824.223 7       906.170 7        44.568               
G28  21665331.149 6 113851759.002 6      1711.558 6        41.863               
G29  20978143.321 7 110345217.924 7     -1445.861 7        44.156               
G31  23287087.757 6 122583071.666 6     -2903.688 6        40.075               
G32  23399679.139 6 122777254.709 6      2636.872 6        40.888               
> 2025 01 07 14 18 25.0000000  0  5                                             
G25  20019585.244 7 105136916.511 7       908.037 7        44.828               
G28  21665004.468 7 113850049.920 7      1702.852 7        42.016               
G29  20977877.439 7 110346664.780 7     -1445.746 7        44.852               
G31  23286535.836 6 122585974.501 6     -2903.272 6        40.348               
G32  23400185.181 6 122774620.247 6      2636.974 6        41.432               
> 2025 01 07 14 18 26.0000000  0  5                                             
G25  20019762.934 7 105136008.268 7       909.125 7        44.531               
G28  21664681.539 6 113848341.433 6      1709.201 6        41.916               
G29  20977595.028 7 110348111.006 7     -1446.989 7        44.072               
G31  23285991.537 6 122588876.926 6     -2899.216 6        40.591               
G32  23400689.624 6 122771985.281 6      2634.350 6        41.482               
> 2025 01 07 14 18 27.0000000  0  5                                             
G25  20019935.022 7 105135099.420 7       907.784 7        44.542               
G28  21664360.111 6 113846633.625 6      1707.939 6        41.846               
G29  20977328.485 7 110349556.538 7     -1444.387 7        44.723               
G31  23285438.884 6 122591778.892 6     -2903.083 6        40.859               
G32  23401185.989 6 122769349.732 6      2638.103 6        40.856               
> 2025 01 07 14 18 28.0000000  0  5                                             
G25  20020110.701 7 105134190.350 7       910.348 7        44.617               
G28  21664034.100 6 113844926.089 6      1708.255 6        41.807               
G29  20977054.240 7 110351001.771 7     -1444.563 7        44.744               
G31  23284894.585 6 122594680.803 6     -2901.417 6        40.570               
G32  23401690.789 6 122766713.982 6      2639.487 6        41.020               
> 2025 01 07 14 18 29.0000000  0  5                                             
G25  20020282.190 7 105133280.870 7       909.841 7        44.714               
G28  21663709.661 6 113843219.033 6      1708.730 6        41.261               
G29  20976778.754 7 110352446.497 7     -1444.006 7        44.480               
G31  23284337.893 6 122597582.420 6     -2901.004 6        40.324               
G32  23402198.439 6 122764077.870 6      2639.044 6        40.970               
> 2025 01 07 14 18 30.0000000  0  5                                             
G25  20020458.566 7 105132370.831 7       909.521 7        44.508               
G28  21663386.455 6 113841512.616 6      1705.185 6        41.532               
G29  20976509.387 7 110353890.571 7     -1442.381 7        44.488               
G31  23283789.126 6 122600483.628 6     -2903.643 6        40.790               
G32  23402697.074 6 122761441.245 6      2637.234 6        40.717               
> 2025 01 07 14 18 31.0000000  0  5                                             
G25  20020633.834 7 105131460.483 7       912.664 7        44.587               
G28  21663062.775 6 113839806.531 6      1706.276 6        41.311               
G29  20976233.471 7 110355334.277 7     -1445.074 7        44.564               
G31  23283242.013 6 122603384.679 6     -2900.855 6        41.475               
G32  23403203.098 6 122758804.354 6      2640.348 6        40.896               
> 2025 01 07 14 18 32.0000000  0  5                                             
G25  20020807.119 7 105130549.662 7       910.988 7        44.120               
G28  21662738.283 6 113838101.039 6      1703.346 6        41.491               
G29  20975967.277 7 110356777.389 7     -1443.913 7        45.148               
G31  23282687.010 6 122606285.403 6     -2901.703 6        41.299               
G32  23403706.639 6 122756166.999 6      2636.183 6        40.941               
> 2025 01 07 14 18 33.0000000  0  5                                             
G25  20020985.354 7 105129638.205 7       909.935 7        44.404               
G28  21662419.070 6 113836396.220 6      1708.494 6        41.631               
G29  20975688.323 7 110358219.796 7     -1441.056 7        44.997               
G31  23282139.851 6 122609185.624 6     -2903.174 6        40.455               
G32  23404210.357 6 122753529.048 6      2638.967 6        41.462               
> 2025 01 07 14 18 34.0000000  0  5                                             
G25  20021155.574 7 105128726.400 7       911.590 7        44.632               
G28  21662091.219 6 113834691.810 6      1701.159 6        41.393               
G29  20975420.047 7 110359661.764 7     -1442.343 7        44.930               
G31  23281585.438 6 122612085.660 6     -2897.648 6        41.080               
G32  23404716.524 6 122750890.785 6      2641.199 6        40.655               
> 2025 01 07 14 18 35.0000000  0  5                                             
G25  20021335.971 7 105127814.574 7       913.514 7        44.646               
G28  21661774.570 7 113832987.493 7      1703.559 7        42.141               
G29  20975148.750 7 110361103.637 7     -1439.327 7        44.415               
G31  23281043.703 6 122614985.808 6     -2901.896 6        41.181               
G32  23405218.930 6 122748252.552 6      2637.593 6        40.511               
> 2025 01 07 14 18 36.0000000  0  5                                             
G25  20021508.201 7 105126902.017 7       914.727 7        44.694               
G28  21661450.650 7 113831283.972 7      1703.949 7        42.101               
G29  20974873.487 7 110362544.671 7     -1441.053 7        44.911               
G31  23280493.006 6 122617885.364 6     -2901.781 6        41.356               
G32  23405718.092 6 122745613.619 6      2642.548 6        40.454               
> 2025 01 07 14 18 37.0000000  0  5                                             
G25  20021683.809 7 105125989.181 7       912.570 7        44.583               
G28  21661128.864 6 113829580.775 6      1701.860 6        41.259               
G29  20974600.484 7 110363985.343 7     -1439.769 7        45.214               
G31  23279942.498 6 122620784.779 6     -2895.584 6        41.354               
G32  23406221.203 6 122742974.441 6      2640.825 6        40.641               
> 2025 01 07 14 18 38.0000000  0  5                                             
G25  20021857.460 7 105125076.163 7       914.001 7        44.662               
G28  21660801.960 6 113827877.846 6      1702.384 6        41.124               
G29  20974325.989 7 110365425.769 7     -1440.402 7        44.977               
G31  23279383.769 6 122623684.189 6     -2896.815 6        40.415               
G32  23406725.530 6 122740335.104 6      2639.960 6        40.687               
> 2025 01 07 14 18 39.0000000  0  5                                             
G25  20022034.757 7 105124161.700 7       916.432 7        44.552               
G28  21660482.033 6 113826176.420 6      1700.838 6        40.989               
G29  20974059.749 7 110366864.643 7     -1437.715 7        44.853               
G31  23278829.534 6 122626582.268 6     -2895.669 6        41.225               
G32  23407230.651 6 122737694.378 6      2636.759 6        40.718               
> 2025 01 07 14 18 40.0000000  0  5                                             
G25  20022212.732 7 105123246.481 7       915.955 7        44.733               
G28  21660162.570 6 113824475.815 6      1701.644 6        41.271               
G29  20973783.467 7 110368302.677 7     -1438.122 7        45.067               
G31  23278288.460 6 122629479.721 6     -2895.607 6        40.968               
G32  23407733.628 6 122735052.907 6      2641.432 6        40.641               
> 2025 01 07 14 18 41.0000000  0  5                                             
G25  20022387.045 7 105122332.368 7       914.760 7        44.642               
G28  21659835.335 6 113822774.178 6      1704.574 6        41.055               
G29  20973515.405 7 110369741.734 7     -1441.001 7        44.867               
G31  23277730.268 6 122632378.444 6     -2900.948 6        40.960               
G32  23408238.777 6 122732412.609 6      2641.758 6        40.344               
> 2025 01 07 14 18 42.0000000  0  5                                             
G25  20022563.197 7 105121417.555 7       917.194 7        44.687               
G28  21659515.881 6 113821073.291 6      1701.326 6        41.391               
G29  20973243.072 7 110371180.003 7     -1437.811 7        45.252               
G31  23277181.376 6 122635276.614 6     -2897.865 6        40.514               
G32  23408735.098 6 122729771.632 6      2639.463 6        39.853               
> 2025 01 07 14 18 43.0000000  0  5                                             
G25  20022738.189 7 105120502.148 7       917.391 7        44.823               
G28  21659201.369 6 113819373.084 6      1697.296 6        41.511               
G29  20972971.714 7 110372617.589 7     -1438.657 7        44.585               
G31  23276642.295 6 122638174.324 6     -2901.344 6        40.713               
G32  23409247.081 6 122727130.078 6      2639.363 6        40.347               
> 2025 01 07 14 18 44.0000000  0  5                                             
G25  20022914.619 7 105119585.789 7       918.384 7        45.216               
G28  21658873.597 6 113817673.879 6      1699.926 6        41.539               
G29  20972695.271 7 110374054.145 7     -1435.268 7        44.747               
G31  23276096.512 6 122641071.234 6     -2899.835 6        41.214               
G32  23409756.670 6 122724487.658 6      2646.212 6        39.862               
> 2025 01 07 14 18 45.0000000  0  5                                             
G25  20023093.050 7 105118669.100 7       915.579 7        44.693               
G28  21658551.195 6 113815975.078 6      1703.333 6        41.048               
G29  20972425.842 7 110375490.270 7     -1435.983 7        44.698               
G31  23275533.647 6 122643967.944 6     -2894.534 6        40.703               
G32  23410254.813 6 122721844.894 6      2640.734 6        40.050               
> 2025 01 07 14 18 46.0000000  0  5                                             
G25  20023273.804 7 105117751.905 7       917.556 7        44.571               
G28  21658233.913 6 113814276.844 6      1696.077 6        41.516               
G29  20972152.606 7 110376925.825 7     -1436.645 7        44.875               
G31  23274987.328 6 122646864.342 6     -2896.842 6        40.960               
G32  23410760.364 6 122719201.681 6      2644.050 6        39.450               
> 2025 01 07 14 18 47.0000000  0  5                                             
G25  20023449.983 7 105116834.195 7       917.537 7        44.841               
G28  21657918.257 6 113812579.194 6      1700.723 6        41.851               
G29  20971878.746 7 110378360.757 7     -1435.183 7        45.039               
G31  23274440.661 6 122649760.334 6     -2896.585 6        41.483               
G32  23411267.049 6 122716557.970 6      2641.457 6        40.673               
> 2025 01 07 14 18 48.0000000  0  5                                             
G25  20023625.341 7 105115916.994 7       916.963 7        44.768               
G28  21657593.174 7 113810881.100 7      1692.723 7        42.024               
G29  20971607.280 7 110379796.117 7     -1436.643 7        44.823               
G31  23273893.431 6 122652656.998 6     -2898.632 6        41.771               
G32  23411768.793 6 122713914.833 6      2643.943 6        40.445               
> 2025 01 07 14 18 49.0000000  0  5                                             
G25  20023797.214 7 105114998.399 7       921.999 7        44.492               
G28  21657268.253 7 113809184.462 7      1697.397 7        42.087               
G29  20971340.558 7 110381229.994 7     -1434.278 7        44.659               
G31  23273347.667 6 122655552.400 6     -2895.473 6        41.839               
G32  23412274.022 6 122711270.313 6      2647.629 6        40.852               
> 2025 01 07 14 18 50.0000000  0  5                                             
G25  20023972.929 7 105114079.350 7       917.390 7        44.919               
G28  21656948.541 7 113807488.359 7      1694.361 7        42.216               
G29  20971063.883 7 110382663.339 7     -1433.439 7        44.390               
G31  23272794.120 6 122658447.477 6     -2893.228 6        41.018               
G32  23412791.589 6 122708625.392 6      2641.685 6        40.578               
> 2025 01 07 14 18 51.0000000  0  5                                             
G25  20024154.184 7 105113160.663 7       919.149 7        44.765               
G28  21656626.979 7 113805791.941 7      1694.779 7        42.389               
G29  20970800.368 7 110384096.941 7     -1432.990 7        45.149               
G31  23272240.162 6 122661343.082 6     -2896.880 6        40.823               
G32  23413285.471 6 122705980.862 6      2645.167 6        40.348               
> 2025 01 07 14 18 52.0000000  0  5                                             
G25  20024331.525 7 105112240.740 7       919.375 7        44.788               
G28  21656307.713 6 113804096.853 6      1692.794 6        41.990               
G29  20970526.668 7 110385529.222 7     -1431.981 7        44.956               
G31  23271700.563 6 122664237.553 6     -2892.435 6        41.416               
G32  23413797.365 6 122703335.124 6      2643.624 6        40.706               
> 2025 01 07 14 18 53.0000000  0  5                                             
G25  20024505.239 7 105111320.147 7       920.844 7        44.982               
G28  21655991.091 7 113802402.482 7      1693.747 7        42.384               
G29  20970253.210 7 110386960.745 7     -1430.051 7        44.971               
G31  23271146.534 6 122667131.500 6     -2893.264 6        41.055               
G32  23414290.836 6 122700688.756 6      2645.892 6        39.750               
> 2025 01 07 14 18 54.0000000  0  5                                             
G25  20024682.946 7 105110398.811 7       924.582 7        44.328               
G28  21655667.385 6 113800708.921 6      1694.664 6        41.755               
G29  20969986.354 7 110388391.437 7     -1428.932 7        44.587               
G31  23270599.884 6 122670024.848 6     -2893.379 6        41.320               
G32  23414808.564 6 122698041.707 6      2645.241 6        40.472               
> 2025 01 07 14 18 55.0000000  0  5                                             
G25  20024858.447 7 105109476.555 7       921.088 7        44.484               
G28  21655349.647 7 113799016.363 7      1693.970 7        42.439               
G29  20969720.391 7 110389821.119 7     -1429.495 7        44.907               
G31  23270042.925 6 122672917.432 6     -2891.093 6        40.667               
G32  23415311.407 6 122695393.748 6      2645.849 6        40.620               
> 2025 01 07 14 18 56.0000000  0  5                                             
G25  20025038.826 7 105108554.527 7       922.655 7        44.739               
G28  21655031.194 7 113797323.615 7      1694.974 7        42.476               
G29  20969447.353 7 110391250.955 7     -1430.307 7        44.568               
G31  23269497.732 6 122675810.382 6     -2890.951 6        40.608               
G32  23415821.640 6 122692746.049 6      2649.567 6        40.511               
> 2025 01 07 14 18 57.0000000  0  5                                             
G25  20025211.941 7 105107632.169 7       924.349 7        44.348               
G28  21654709.811 7 113795631.289 7      1691.412 7        42.716               
G29  20969177.807 7 110392680.381 7     -1431.466 7        44.436               
G31  23268948.796 6 122678703.150 6     -2893.211 6        41.567               
G32  23416322.285 6 122690098.086 6      2647.019 6        40.297               
> 2025 01 07 14 18 58.0000000  0  5                                             
G25  20025390.193 7 105106709.478 7       921.606 7        44.693               
G28  21654386.721 7 113793939.351 7      1691.464 7        42.211               
G29  20968907.556 7 110394109.346 7     -1429.045 7        44.820               
G31  23268401.003 6 122681595.719 6     -2893.114 6        40.706               
G32  23416823.654 6 122687449.803 6      2651.682 6        40.019               
> 2025 01 07 14 18 59.0000000  0  5                                             
G25  20025569.178 7 105105786.152 7       920.245 7        44.706               
G28  21654069.376 7 113792248.114 7      1691.175 7        42.299               
G29  20968638.350 7 110395537.633 7     -1427.127 7        44.967               
G31  23267857.463 6 122684487.777 6     -2891.038 6        40.845               
G32  23417331.170 6 122684800.942 6      2648.350 6        40.316               
> 2025 01 07 14 19 00.0000000  0  5                                             
G25  20025749.673 7 105104862.440 7       923.883 7        44.231               
G28  21653749.574 7 113790557.336 7      1690.815 7        42.332               
G29  20968368.528 7 110396965.417 7     -1426.281 7        44.622               
G31  23267304.658 6 122687379.609 6     -2891.411 6        41.116               
G32  23417831.404 6 122682151.712 6      2650.702 6        40.802               
> 2025 01 07 14 19 01.0000000  0  5                                             
G25  20025922.869 7 105103938.250 7       925.493 7        44.472               
G28  21653426.449 7 113788867.086 7      1692.272 7        42.696               
G29  20968092.613 7 110398392.673 7     -1427.047 7        44.835               
G31  23266758.804 6 122690271.101 6     -2889.493 6        40.795               
G32  23418347.846 6 122679502.072 6      2649.690 6        40.341               
> 2025 01 07 14 19 02.0000000  0  5                                             
G25  20026101.327 7 105103014.557 7       923.635 7        45.120               
G28  21653110.944 7 113787176.448 7      1689.302 7        42.598               
G29  20967823.416 7 110399820.292 7     -1425.809 7        44.741               
G31  23266206.749 6 122693163.222 6     -2894.776 6        40.772               
G32  23418851.225 6 122676852.912 6      2653.733 6        40.072               
> 2025 01 07 14 19 03.0000000  0  5                                             
G25  20026282.545 7 105102090.620 7       922.590 7        44.580               
G28  21652788.489 7 113785486.093 7      1690.761 7        42.792               
G29  20967556.962 7 110401247.609 7     -1426.156 7        44.732               
G31  23265662.325 6 122696055.240 6     -2890.727 6        40.870               
G32  23419358.830 6 122674203.614 6      2646.032 6        40.672               
> 2025 01 07 14 19 04.0000000  0  5                                             
G25  20026460.137 7 105101165.779 7       921.992 7        44.691               
G28  21652466.864 6 113783796.718 6      1692.370 6        41.989               
G29  20967285.236 7 110402673.915 7     -1427.142 7        45.051               
G31  23265113.076 6 122698946.487 6     -2893.857 6        41.217               
G32  23419864.354 6 122671553.397 6      2657.795 6        40.468               
> 2025 01 07 14 19 05.0000000  0  5                                             
G25  20026635.503 7 105100239.872 7       924.320 7        45.136               
G28  21652144.436 7 113782108.459 7      1688.477 7        42.217               
G29  20967017.273 7 110404099.080 7     -1424.773 7        45.071               
G31  23264569.813 6 122701836.797 6     -2890.425 6        41.048               
G32  23420366.089 6 122668902.154 6      2647.578 6        40.556               
> 2025 01 07 14 19 06.0000000  0  5                                             
G25  20026812.728 7 105099313.583 7       925.140 7        44.309               
G28  21651829.807 7 113780420.668 7      1688.005 7        42.006               
G29  20966747.835 7 110405523.769 7     -1424.728 7        44.459               
G31  23264019.090 6 122704726.890 6     -2891.919 6        41.151               
G32  23420883.934 6 122666250.583 6      2655.288 6        40.541               
> 2025 01 07 14 19 07.0000000  0  5                                             
G25  20026993.018 7 105098386.630 7       925.725 7        44.553               
G28  21651507.709 7 113778733.606 7      1688.652 7        42.227               
G29  20966478.468 7 110406947.711 7     -1424.560 7        44.423               
G31  23263468.786 6 122707616.450 6     -2890.597 6        40.615               
G32  23421377.708 6 122663598.400 6      2650.599 6        40.805               
> 2025 01 07 14 19 08.0000000  0  5                                             
G25  20027169.671 7 105097458.979 7       930.177 7        44.593               
G28  21651188.952 7 113777047.298 7      1687.583 7        42.402               
G29  20966207.547 7 110408370.880 7     -1422.350 7        44.524               
G31  23262921.217 6 122710505.454 6     -2890.006 6        41.034               
G32  23421894.775 6 122660945.522 6      2659.272 6        40.586               
> 2025 01 07 14 19 09.0000000  0  5                                             
G25  20027349.246 7 105096530.797 7       926.575 7        44.821               
G28  21650876.110 7 113775361.608 7      1685.043 7        42.378               
G29  20965944.640 7 110409793.404 7     -1422.372 7        44.547               
G31  23262379.151 6 122713394.058 6     -2890.127 6        40.568               
G32  23422399.790 6 122658292.184 6      2651.402 6        40.440               
> 2025 01 07 14 19 10.0000000  0  5                                             
G25  20027524.898 7 105095602.326 7       930.292 7        44.705               
G28  21650553.798 7 113773676.247 7      1685.901 7        42.135               
G29  20965674.952 7 110411215.568 7     -1420.303 7        44.602               
G31  23261828.955 6 122716282.509 6     -2889.783 6        41.071               
G32  23422909.405 6 122655638.586 6      2652.819 6        41.198               
> 2025 01 07 14 19 11.0000000  0  5                                             
G25  20027707.511 7 105094673.590 7       928.087 7        44.865               
G28  21650235.363 7 113771991.266 7      1683.439 7        42.448               
G29  20965405.755 7 110412637.371 7     -1420.305 7        44.506               
G31  23261281.171 6 122719170.821 6     -2888.888 6        40.751               
G32  23423412.338 6 122652984.747 6      2655.462 6        40.641               
> 2025 01 07 14 19 12.0000000  0  5                                             
G25  20027890.266 7 105093745.125 7       927.972 7        44.819               
G28  21649910.361 7 113770306.043 7      1686.997 7        42.116               
G29  20965133.565 7 110414059.364 7     -1420.487 7        44.818               
G31  23260721.960 6 122722059.555 6     -2884.166 6        40.380               
G32  23423921.114 6 122650331.235 6      2654.975 6        40.814               
> 2025 01 07 14 19 13.0000000  0  5                                             
G25  20028062.836 7 105092815.316 7       931.109 7        45.030               
G28  21649592.453 7 113768622.245 7      1683.231 7        42.619               
G29  20964866.012 7 110415479.925 7     -1418.938 7        45.018               
G31  23260181.762 6 122724947.083 6     -2887.388 6        40.988               
G32  23424423.823 6 122647676.408 6      2654.202 6        40.020               
> 2025 01 07 14 19 14.0000000  0  5                                             
G25  20028241.115 7 105091886.018 7       928.837 7        44.715               
G28  21649277.396 7 113766938.009 7      1684.290 7        42.131               
G29  20964600.166 7 110416900.920 7     -1421.165 7        44.918               
G31  23259638.740 6 122727835.263 6     -2893.709 6        40.803               
G32  23424934.966 6 122645022.134 6      2655.568 6        40.547               
> 2025 01 07 14 19 15.0000000  0  5                                             
G25  20028423.522 7 105090955.817 7       931.157 7        44.975               
G28  21648951.483 7 113765254.728 7      1684.567 7        42.340               
G29  20964329.441 7 110418320.912 7     -1420.458 7        44.591               
G31  23259087.346 6 122730722.668 6     -2885.804 6        41.145               
G32  23425438.855 6 122642367.010 6      2655.805 6        40.359               
> 2025 01 07 14 19 16.0000000  0  5                                             
G25  20028595.136 7 105090025.076 7       932.773 7        44.679               
G28  21648641.661 7 113763572.082 7      1681.151 7        42.136               
G29  20964063.693 7 110419740.285 7     -1418.414 7        44.881               
G31  23258548.202 6 122733609.671 6     -2887.220 6        41.725               
G32  23425941.359 6 122639711.382 6      2653.074 6        40.442               
> 2025 01 07 14 19 17.0000000  0  5                                             
G25  20028780.715 7 105089094.090 7       932.667 7        45.002               
G28  21648315.569 7 113761889.723 7      1681.681 7        42.241               
G29  20963796.748 7 110421159.318 7     -1417.063 7        45.181               
G31  23257990.045 6 122736496.577 6     -2885.843 6        41.875               
G32  23426450.787 6 122637055.544 6      2655.547 6        40.062               
> 2025 01 07 14 19 18.0000000  0  5                                             
G25  20028959.932 7 105088162.591 7       932.985 7        45.039               
G28  21647999.904 7 113760207.954 7      1682.517 7        42.034               
G29  20963527.935 7 110422577.752 7     -1419.144 7        45.255               
G31  23257449.168 6 122739383.109 6     -2884.741 6        41.486               
G32  23426959.723 6 122634399.219 6      2652.593 6        40.379               
> 2025 01 07 14 19 19.0000000  0  5                                             
G25  20029135.433 7 105087229.866 7       934.840 7        45.291               
G28  21647686.365 7 113758527.465 7      1679.575 7        42.515               
G29  20963260.034 7 110423994.898 7     -1414.163 7        44.673               
G31  23256898.820 6 122742268.548 6     -2885.880 6        41.191               
G32  23427465.050 6 122631741.728 6      2656.514 6        40.308               
> 2025 01 07 14 19 20.0000000  0  5                                             
G25  20029313.525 7 105086296.635 7       932.475 7        45.203               
G28  21647364.892 7 113756847.584 7      1682.334 7        42.049               
G29  20962991.176 7 110425411.402 7     -1416.497 7        45.195               
G31  23256356.102 6 122745153.618 6     -2887.794 6        41.218               
G32  23427977.409 6 122629083.763 6      2661.037 6        40.249               
> 2025 01 07 14 19 21.0000000  0  5                                             
G25  20029497.602 7 105085363.067 7       935.252 7        45.153               
G28  21647043.911 6 113755168.104 6      1678.495 6        41.592               
G29  20962724.419 7 110426827.481 7     -1414.683 7        45.018               
G31  23255807.237 6 122748038.484 6     -2888.560 6        41.624               
G32  23428483.093 6 122626425.499 6      2656.490 6        40.508               
> 2025 01 07 14 19 22.0000000  0  5                                             
G25  20029677.436 7 105084429.260 7       933.038 7        45.285               
G28  21646728.710 6 113753488.920 6      1680.138 6        41.656               
G29  20962453.551 7 110428243.249 7     -1415.663 7        45.045               
G31  23255259.560 6 122750923.264 6     -2886.036 6        41.468               
G32  23428987.482 6 122623767.018 6      2663.040 6        40.016               
> 2025 01 07 14 19 23.0000000  0  5                                             
G25  20029852.195 7 105083495.756 7       933.876 7        44.918               
G28  21646412.187 6 113751809.515 6      1683.143 6        41.984               
G29  20962188.687 7 110429659.230 7     -1414.336 7        44.794               
G31  23254715.413 6 122753808.462 6     -2881.647 6        40.919               
G32  23429496.964 6 122621108.877 6      2656.469 6        39.599               
> 2025 01 07 14 19 24.0000000  0  5                                             
G25  20030040.160 7 105082561.441 7       935.034 7        44.945               
G28  21646095.164 6 113750130.973 6      1681.099 6        41.826               
G29  20961924.646 7 110431074.323 7     -1413.390 7        44.968               
G31  23254165.726 6 122756693.008 6     -2886.217 6        40.710               
G32  23430011.315 6 122618449.990 6      2658.947 6        39.807               
> 2025 01 07 14 19 25.0000000  0  5                                             
G25  20030214.954 7 105081627.109 7       934.103 7        45.068               
G28  21645779.838 7 113748452.523 7      1677.270 7        42.140               
G29  20961651.393 7 110432489.302 7     -1413.772 7        44.874               
G31  23253617.880 6 122759577.642 6     -2884.193 6        41.015               
G32  23430520.859 6 122615791.117 6      2656.347 6        40.612               
> 2025 01 07 14 19 26.0000000  0  5                                             
G25  20030396.781 7 105080691.589 7       936.326 7        44.830               
G28  21645461.573 7 113746775.339 7      1677.355 7        42.300               
G29  20961386.243 7 110433903.006 7     -1415.775 7        44.937               
G31  23253066.397 6 122762461.258 6     -2883.833 6        40.957               
G32  23431028.258 6 122613131.098 6      2659.178 6        40.271               
> 2025 01 07 14 19 27.0000000  0  5                                             
G25  20030578.321 7 105079756.648 7       935.961 7        44.946               
G28  21645144.309 7 113745097.623 7      1675.705 7        42.747               
G29  20961120.986 7 110435317.201 7     -1413.234 7        45.209               
G31  23252527.798 6 122765345.574 6     -2884.320 6        41.453               
G32  23431531.066 6 122610471.737 6      2657.926 6        40.865               
> 2025 01 07 14 19 28.0000000  0  5                                             
G25  20030754.849 7 105078820.875 7       936.115 7        45.462               
G28  21644831.770 7 113743420.842 7      1676.702 7        43.008               
G29  20960848.939 7 110436730.462 7     -1410.280 7        44.863               
G31  23251973.143 6 122768229.207 6     -2884.492 6        40.941               
G32  23432037.867 6 122607811.514 6      2660.760 6        40.307               
> 2025 01 07 14 19 29.0000000  0  5                                             
G25  20030932.521 7 105077884.274 7       936.631 7        45.599               
G28  21644511.611 7 113741744.942 7      1674.798 7        43.104               
G29  20960585.979 7 110438142.819 7     -1413.216 7        44.883               
G31  23251422.876 6 122771112.151 6     -2885.939 6        41.112               
G32  23432540.103 6 122605150.531 6      2661.223 6        40.410               
> 2025 01 07 14 19 30.0000000  0  5                                             
G25  20031117.930 7 105076947.366 7       936.687 7        45.586               
G28  21644189.504 7 113740069.418 7      1673.282 7        42.606               
G29  20960318.462 7 110439554.770 7     -1410.897 7        44.985               
G31  23250875.664 6 122773994.913 6     -2884.140 6        41.465               
G32  23433050.371 6 122602489.288 6      2665.267 6        40.192               
> 2025 01 07 14 19 31.0000000  0  5                                             
G25  20031298.094 7 105076009.292 7       940.543 7        45.505               
G28  21643874.956 7 113738395.119 7      1671.475 7        42.610               
G29  20960052.794 7 110440965.497 7     -1410.279 7        44.870               
G31  23250331.570 6 122776876.661 6     -2880.509 6        40.658               
G32  23433564.427 6 122599826.914 6      2663.722 6        40.395               
> 2025 01 07 14 19 32.0000000  0  5                                             
G25  20031474.086 7 105075070.662 7       939.181 7        44.946               
G28  21643564.517 7 113736721.466 7      1674.903 7        42.682               
G29  20959787.770 7 110442375.559 7     -1411.559 7        44.300               
G31  23249791.014 6 122779757.982 6     -2886.298 6        41.211               
G32  23434072.282 6 122597164.036 6      2662.829 6        40.222               
> 2025 01 07 14 19 33.0000000  0  5                                             
G25  20031655.028 7 105074132.401 7       938.915 7        45.245               
G28  21643241.222 6 113735047.487 6      1672.794 6        41.777               
G29  20959521.655 7 110443785.899 7     -1411.112 7        44.962               
G31  23249241.113 6 122782639.831 6     -2878.632 6        41.004               
G32  23434584.945 6 122594501.555 6      2660.698 6        39.980               
> 2025 01 07 14 19 34.0000000  0  5                                             
G25  20031835.505 7 105073193.661 7       937.472 7        45.111               
G28  21642923.538 6 113733374.095 6      1674.972 6        41.910               
G29  20959252.619 7 110445195.666 7     -1409.709 7        44.889               
G31  23248698.198 6 122785521.302 6     -2881.729 6        40.801               
G32  23435087.171 6 122591838.634 6      2665.550 6        40.088               
> 2025 01 07 14 19 35.0000000  0  5                                             
G25  20032013.972 7 105072254.717 7       942.019 7        45.263               
G28  21642609.329 7 113731700.951 7      1672.900 7        42.467               
G29  20958984.798 7 110446605.152 7     -1409.878 7        44.687               
G31  23248156.963 6 122788402.729 6     -2881.015 6        41.642               
G32  23435594.964 6 122589175.551 6      2663.701 6        39.878               
> 2025 01 07 14 19 36.0000000  0  5                                             
G25  20032195.182 7 105071315.312 7       938.611 7        45.905               
G28  21642300.025 7 113730028.355 7      1672.497 7        42.562               
G29  20958716.638 7 110448014.078 7     -1406.352 7        44.868               
G31  23247603.899 6 122791283.825 6     -2880.561 6        41.639               
G32  23436106.974 6 122586512.055 6      2661.936 6        40.786               
> 2025 01 07 14 19 37.0000000  0  5                                             
G25  20032375.730 7 105070374.746 7       940.093 7        45.286               
G28  21641975.684 7 113728356.993 7      1672.201 7        42.350               
G29  20958452.239 7 110449421.749 7     -1408.983 7        44.932               
G31  23247053.900 6 122794163.890 6     -2877.538 6        41.668               
G32  23436620.771 6 122583847.418 6      2662.924 6        41.171               
> 2025 01 07 14 19 38.0000000  0  5                                             
G25  20032560.398 7 105069433.759 7       941.096 7        45.245               
G28  21641653.014 7 113726686.090 7      1673.427 7        42.637               
G29  20958184.525 7 110450828.924 7     -1409.379 7        44.649               
G31  23246510.494 6 122797043.686 6     -2872.108 6        41.125               
G32  23437122.248 6 122581182.434 6      2662.688 6        40.987               
> 2025 01 07 14 19 39.0000000  0  5                                             
G25  20032739.338 7 105068492.503 7       943.153 7        45.642               
G28  21641340.306 7 113725015.559 7      1669.684 7        42.715               
G29  20957919.260 7 110452235.727 7     -1406.969 7        45.022               
G31  23245964.282 6 122799923.339 6     -2875.439 6        40.625               
G32  23437628.513 6 122578517.203 6      2667.985 6        40.683               
> 2025 01 07 14 19 40.0000000  0  5                                             
G25  20032918.734 7 105067550.541 7       941.909 7        45.160               
G28  21641023.649 7 113723345.802 7      1669.155 7        42.379               
G29  20957654.244 7 110453641.736 7     -1404.942 7        44.768               
G31  23245416.954 6 122802802.413 6     -2876.451 6        40.664               
G32  23438140.130 6 122575851.295 6      2665.095 6        40.901               
> 2025 01 07 14 19 41.0000000  0  5                                             
G25  20033100.703 7 105066607.429 7       944.394 7        45.507               
G28  21640713.327 7 113721677.266 7      1668.855 7        42.650               
G29  20957386.414 7 110455046.511 7     -1402.058 7        44.448               
G31  23244880.910 6 122805680.497 6     -2878.127 6        40.817               
G32  23438649.111 6 122573184.278 6      2666.993 6        40.637               
> 2025 01 07 14 19 42.0000000  0  5                                             
G25  20033282.110 7 105065664.075 7       943.702 7        45.380               
G28  21640396.080 7 113720009.013 7      1667.404 7        42.512               
G29  20957123.525 7 110456450.971 7     -1403.863 7        44.204               
G31  23244328.355 6 122808558.470 6     -2874.856 6        40.955               
G32  23439162.818 6 122570517.110 6      2667.517 6        40.389               
> 2025 01 07 14 19 43.0000000  0  5                                             
G25  20033466.107 7 105064720.432 7       943.586 7        45.643               
G28  21640081.425 7 113718341.163 7      1668.564 7        42.909               
G29  20956857.527 7 110457855.026 7     -1404.279 7        44.003               
G31  23243781.340 6 122811436.264 6     -2877.606 6        40.565               
G32  23439665.724 6 122567849.653 6      2665.859 6        40.724               
> 2025 01 07 14 19 44.0000000  0  5                                             
G25  20033645.012 7 105063776.669 7       942.579 7        45.587               
G28  21639761.283 7 113716673.465 7      1669.084 7        42.628               
G29  20956591.868 7 110459258.904 7     -1404.080 7        43.775               
G31  23243239.828 6 122814314.097 6     -2874.586 6        40.942               
G32  23440179.816 6 122565182.138 6      2666.065 6        40.490               
> 2025 01 07 14 19 45.0000000  0  5                                             
G25  20033826.373 7 105062832.798 7       943.472 7        45.042               
G28  21639448.870 7 113715005.977 7      1662.398 7        42.672               
G29  20956325.468 7 110460662.557 7     -1404.002 7        44.445               
G31  23242688.980 6 122817191.943 6     -2878.490 6        40.983               
G32  23440687.511 6 122562514.542 6      2670.707 6        40.448               
> 2025 01 07 14 19 46.0000000  0  5                                             
G25  20034010.022 7 105061888.759 7       944.375 7        45.270               
G28  21639133.277 7 113713338.701 7      1669.583 7        43.065               
G29  20956059.568 7 110462065.968 7     -1403.302 7        44.774               
G31  23242143.019 6 122820069.773 6     -2878.880 6        40.193               
G32  23441200.048 6 122559846.840 6      2667.212 6        41.077               
> 2025 01 07 14 19 47.0000000  0  5                                             
G25  20034189.311 7 105060943.667 7       945.083 7        45.473               
G28  21638819.389 7 113711672.574 7      1665.264 7        42.688               
G29  20955795.776 7 110463468.238 7     -1406.750 7        44.310               
G31  23241592.858 6 122822946.677 6     -2880.164 6        40.014               
G32  23441710.030 6 122557178.094 6      2668.454 6        41.047               
> 2025 01 07 14 19 48.0000000  0  6                                             
G25  20034372.057 7 105059998.230 7       944.333 7        45.688               
G28  21638502.661 7 113710006.846 7      1667.099 7        42.648               
G29  20955532.735 7 110464870.052 7     -1402.887 7        44.521               
G31  23241049.417 6 122825823.384 6     -2876.820 6        40.964               
G32  23442220.896 6 122554509.070 6      2663.945 6        41.078               
G12  22371748.092 7 117563140.227 7      2941.001 7        44.349               
> 2025 01 07 14 19 49.0000000  0  6                                             
G25  20034554.661 7 105059052.295 7       947.449 7        45.373               
G28  21638189.738 7 113708341.708 7      1664.054 7        42.287               
